company,store_name,address,place_id,latitude,longitude,source
ツルハドラッグ,ツルハドラッグ 仁賀保店,秋田県にかほ市平沢上町田１９−９,ChIJEWNe2YxZjl8RdZDdCOz4HPM,39.289134,139.9734665,google_places
不明,ヘルスドラッグ須藤 マックスバリュ にかほ店,秋田県にかほ市平沢天ケ町８２,ChIJA8eyBY1Zjl8RvqipOEmQsCY,39.2885095,139.9728536,google_places
ツルハドラッグ,ツルハドラッグ 象潟北店,秋田県にかほ市象潟町大門先６−３,ChIJS5hkWa9fjl8RiILwKtXn4Ak,39.219295,139.9019257,google_places
不明,薬王堂 にかほ象潟店,秋田県にかほ市象潟町沖ノ田１−１,ChIJ4-ojCQlfjl8RWRbYHGs-Xeg,39.2049373,139.9048332,google_places
ツルハドラッグ,ツルハドラッグ 象潟店,秋田県にかほ市象潟町武道島１４９−２,ChIJIeTUfpRfjl8R_xQLPxaGhYg,39.2058069,139.9043374,google_places
不明,薬王堂 にかほ平沢店,秋田県にかほ市平沢館ケ森１−８,ChIJD72HUQhZjl8R7Cu3hx_8D4o,39.2847468,139.969476,google_places
不明,池田薬局 きさかた,秋田県にかほ市象潟町家ノ後65−２６,ChIJ26hNLXRfjl8REroRY3BkLoo,39.2052135,139.9033124,google_places
不明,白崎薬店,秋田県にかほ市象潟町五丁目塩越１４７−１,ChIJuT6nvuxfjl8Rq0XJLbOP4hs,39.203615,139.9013538,google_places
不明,㈲ヘルスドラッグ須藤,秋田県にかほ市平沢清水５０−１０,ChIJ6fSpvYlZjl8RMzW-QDI2SL0,39.289851,139.962293,google_places
不明,くすりのすずき,秋田県にかほ市平沢清水３−３２,ChIJ69p7KIpZjl8R8082SR7f2TY,39.2904019,139.9640805,google_places
不明,マックスバリュにかほ店,秋田県にかほ市平沢天ケ町82,ChIJMTWlBI1Zjl8RY3rt_KnjfPg,39.2882345,139.972902,google_places
不明,ハッピー・ドラッグ 由利本荘石脇店,秋田県由利本荘市石脇田尻野２２−１３,ChIJ7UA-bYxNjl8RtZnNJ2-Jy6Q,39.395651,140.0305499,google_places
不明,マックスバリュ 武道島店,秋田県にかほ市象潟町武道島１４４−２,ChIJUxAOiZNfjl8ROkc3_Qwkj7Q,39.20592200000001,139.905124,google_places
不明,薬王堂 由利本荘西目店,秋田県由利本荘市西目町沼田新道下２−５３８,ChIJ7yAqRvNRjl8RQuUz-636x20,39.3464016,140.0134184,google_places
不明,池田薬局 かわぐち,秋田県由利本荘市川口八幡前２６１,ChIJeb5ctppSjl8RaR90n3zcNTI,39.3997708,140.0606963,google_places
セイムス,ドラッグセイムス 本荘中梵天店,秋田県由利本荘市中梵天１３２,ChIJr6i6bJBTjl8RlgdMZfE1JSA,39.38713509999999,140.0618536,google_places
ツルハドラッグ,ツルハドラッグ フレスポ本荘店,秋田県由利本荘市石脇田頭１９５−２,ChIJ__88c3NSjl8RPZHD9BrnZXY,39.38935620000001,140.0279026,google_places
ツルハドラッグ,ツルハドラッグ 本荘南店,秋田県由利本荘市二番堰５４,ChIJ__-vn0VSjl8RHSd6lyETJEA,39.3784262,140.0550991,google_places
セイムス,ドラッグセイムス 本荘大門店,秋田県由利本荘市裏尾崎町５０−４,ChIJ1YvEHDZTjl8Rkgot2L3YS1k,39.3883967,140.0471507,google_places
ツルハドラッグ,ツルハドラッグ 本荘店,秋田県由利本荘市中梵天１０８番,ChIJq6pqIFlSjl8R-JdtulToLDI,39.3862534,140.0618897,google_places
不明,薬王堂 由利本荘薬師堂店,秋田県由利本荘市薬師堂谷地４５,ChIJYcDIMjZSjl8RWRKVS_18Uh0,39.371034,140.051576,google_places
不明,薬王堂 由利本荘荒町店,秋田県由利本荘市荒町真城２０−１,ChIJfdOX15RTjl8RJ1SXJkp0YuQ,39.3571327,140.0799062,google_places
不明,きさかたクリニック,秋田県にかほ市象潟町後田７７−１,ChIJq6qqqutfjl8RviuYukx4izM,39.2050077,139.9045151,google_places
不明,薬王堂 由利本荘石脇店,秋田県由利本荘市石脇田中９４−２,ChIJMaftXLVTjl8R26SjE1E3JA0,39.3906378,140.0256755,google_places
不明,薬王堂 由利本荘矢島店,秋田県由利本荘市矢島町城内築舘１５９−１,ChIJUU12r8D5jl8R5cUWMSswxqk,39.23516559999999,140.1394169,google_places
不明,薬王堂 由利本荘裏尾崎店,秋田県由利本荘市裏尾崎町７,ChIJu2O4O8RTjl8RHt0pmhda8uo,39.3875607,140.0488617,google_places
ツルハドラッグ,ツルハドラッグ 本荘中央店,秋田県由利本荘市岩渕下１８,ChIJb-Wmx2NSjl8R6mV6jBvcyqI,39.3906404,140.0506724,google_places
不明,株式会社YU.KA.RI,秋田県にかほ市平沢行ヒ森2番5,ChIJ7_c0qppZjl8RcxCLbSFh3Cw,39.2834149,139.9664451,google_places
不明,道の駅 象潟ねむの丘,秋田県にかほ市象潟町大塩越７３−１,ChIJG9yWJK9fjl8RcJFW3oAmzqY,39.2197155,139.9009586,google_places
不明,クオール薬局石脇店,秋田県由利本荘市石脇田尻３−１２９,ChIJJzSGFHVSjl8R3stIrxiRMjY,39.3912294,140.0224891,google_places
不明,池田薬局 あら町店,秋田県由利本荘市荒町真城７２,ChIJvVbTK-lTjl8R5zSRrgIrUMw,39.356551,140.0801935,google_places
不明,池田薬局 たで沼,秋田県由利本荘市一番堰１１７−１４,ChIJc4hsKE5Sjl8R0HDrT-LevvM,39.377161,140.06182,google_places
不明,ビフレ にかほ店,秋田県にかほ市平沢中谷地２１,ChIJaTLhQpBZjl8RBUso-7bJ088,39.283263,139.969601,google_places
不明,UEK STORE。,秋田県にかほ市象潟町大塩越３６−１１観光拠点センターにかほっとＣ,ChIJq_eWWU9fjl8RDjlwFI_Qm0A,39.2191107,139.900362,google_places
不明,ローソン 象潟才の神店,秋田県にかほ市象潟町才ノ神１８−１,ChIJa0dNGKVfjl8Rglvr2wmFzV8,39.21669199999999,139.9011224,google_places
不明,にかほ市観光拠点センター にかほっと,秋田県にかほ市象潟町大塩越３６−１,ChIJZ5EEcq9fjl8R8C_5K_zgVJQ,39.21916969999999,139.9003265,google_places
不明,池田薬局 つるまい店,秋田県由利本荘市小人町２２３−１,ChIJOasEcEFSjl8R4zbHSLz5f_o,39.38030200000001,140.04631,google_places
不明,仁賀保駅,秋田県にかほ市平沢清水,ChIJX3xggolZjl8ReFm985bgEiA,39.2898467,139.9639305,google_places
不明,日本調剤 本荘薬局,秋田県由利本荘市岩渕下９８−２,ChIJ0wbOZmJSjl8RBITgLSjKpik,39.3924889,140.0521856,google_places
不明,池田薬局 中央,秋田県由利本荘市岩渕下１０８−２,ChIJcwysYmJSjl8RCE0KAsiuh6Y,39.392857,140.052285,google_places
不明,池田薬局 大門,秋田県由利本荘市給人町７−３,ChIJ9QoGmGVSjl8R6KYUizEol_I,39.38894570000001,140.0441929,google_places
不明,象潟駅,秋田県にかほ市象潟町家ノ後,ChIJr3DGrJVfjl8RiunTP5MNH7o,39.2071637,139.90214,google_places
不明,Panasonic shop ㈲鈴木電気(くすりのすずき),秋田県にかほ市平沢清水１３５,ChIJ69p7KIpZjl8RQjqWi7Bml8A,39.2904019,139.9640805,google_places
ツルハドラッグ,ツルハドラッグ 角館店,秋田県仙北市角館町上菅沢449番地1,ChIJm3Stj1uaj18RWJZdqEI06PQ,39.5935805,140.5758536,google_places
ツルハドラッグ,ツルハドラッグ 田沢湖店,秋田県仙北市田沢湖生保内街道ノ上７１−１,ChIJ1_iymkGIj18Ri6dyL2KNkWY,39.7004286,140.7283452,google_places
不明,薬王堂 秋田角館店,秋田県仙北市角館町小勝田中川原１３２,ChIJ7ZP9aGuaj18R259LNwCZFEo,39.594188,140.5538856,google_places
不明,スーパードラッグアサヒ 角館店,秋田県仙北市角館町下菅沢２２−１,ChIJn73FekWaj18R14-OVVvPwDU,39.589111,140.573859,google_places
不明,薬王堂 角館下菅沢店,秋田県仙北市角館町下菅沢９８,ChIJ5dwUMfObj18RniuoL8mNBjk,39.5877305,140.5729259,google_places
不明,クオール薬局田沢湖店,秋田県仙北市田沢湖生保内水尻５１,ChIJN7id2kKIj18RtdeP9bBZFMg,39.6982325,140.7223497,google_places
ツルハドラッグ,ツルハドラッグ 大仙協和店,秋田県大仙市協和境岸館73番地1,ChIJJxgh8U2_j18R5VBHKNJjs1E,39.6064724,140.3296026,google_places
ツルハドラッグ,ツルハドラッグ 中仙店,秋田県大仙市長野柳田61番地,ChIJIdrYVACZj18RdRzwRROm1lY,39.5451549,140.5416628,google_places
不明,アイン薬局 角館店,秋田県仙北市角館町西田９９−１,ChIJ8fkUYD-aj18RRfsWJTxG8u4,39.5863285,140.5591724,google_places
不明,アイン薬局 角館2号店,秋田県仙北市角館町西田61−３,ChIJO4p7lkeaj18REiSzWBPAeTU,39.5874884,140.5586187,google_places
不明,薬王堂 中仙店,秋田県大仙市北長野茶畑１１７,ChIJt2wdAheZj18RoRzPbs1WKno,39.5465231,140.5443079,google_places
ツルハドラッグ,ツルハドラッグ 刈和野店,秋田県大仙市刈和野沼田１２−１,ChIJ2XVsT9m8j18Rmygax-KaMzA,39.5471422,140.3676281,google_places
ツルハドラッグ,ツルハドラッグ 大曲店,秋田県大仙市戸蒔錨27番地,ChIJiyBmnL-gj18Rbk5Ard5LyNA,39.4515027,140.4956547,google_places
ツルハドラッグ,ツルハドラッグ 大曲田町店,秋田県大仙市大曲田町１−２７,ChIJrW_kmsWgj18R4WHKYPPBiHk,39.4535819,140.4811097,google_places
ツルハドラッグ,ツルハドラッグ 若竹町店,秋田県大仙市若竹町３３−１１,ChIJq6pqmSKhj18RbQysMD92jSg,39.4688205,140.4700547,google_places
ツルハドラッグ,ツルハドラッグ 大曲福田店,秋田県大仙市福田町２２−２３−６,ChIJLx8uhBuhj18RmPrHznT-vAA,39.4702117,140.4811908,google_places
不明,日本調剤 大曲薬局,秋田県大仙市大曲通町８−３６Anbee大曲1階,ChIJF6IOHiChj18RbSX4iQFCbXQ,39.4647725,140.4766512,google_places
不明,薬王堂 大仙太田店,秋田県大仙市太田町横沢相野４２０,ChIJCzyG_w6fj18Rt-SeDUX5crU,39.5063135,140.5955316,google_places
ツルハドラッグ,ツルハドラッグ 大仙大曲東店,秋田県大仙市戸蒔東８９,ChIJrQnvW0Ghj18RasfmCVXY1iQ,39.4588104,140.4967421,google_places
不明,ファミリーマート 角館岩瀬店,秋田県仙北市角館町上菅沢５７−１,ChIJN_hFvVuaj18RL4CQ_Jw5hBU,39.5931074,140.5765006,google_places
不明,スーパードラッグアサヒ 大曲店,秋田県大仙市戸蒔錨１６９,ChIJsYW88-qgj18RQ0CuIgidrxw,39.4545472,140.4973718,google_places
不明,薬王堂 大曲飯田店,秋田県大仙市飯田屋舗通７５−１,ChIJWydx8LWgj18RGwHXHrW-El8,39.4459051,140.4811149,google_places
不明,薬王堂 大仙神岡店,秋田県大仙市神宮寺大浦前３０−１,ChIJxxUrT5Sjj18RZ6JJXfX6REA,39.4987201,140.4158776,google_places
ツルハドラッグ,ツルハドラッグ 秋田泉南店,秋田県秋田市泉南３丁目２３−２４,ChIJF-KowLDCj18Rmvk-l-MaK4Y,39.7291506,140.1146065,google_places
ツルハドラッグ,ツルハドラッグ 大曲川目店,秋田県大仙市川目町東７7番地,ChIJfUx291anj18RLzoybRfV1gg,39.4305072,140.4855158,google_places
不明,薬王堂 大曲四ツ屋店,秋田県大仙市高関上郷不動堂１６７−１,ChIJbWql06Khj18RuBC54lbI2H4,39.487365,140.493739,google_places
不明,薬王堂 大曲福田店,秋田県大仙市福田町２２−２１−４,ChIJxw6fFxyhj18RE2ErPBUd2fU,39.46887,140.481075,google_places
サンドラッグ,サンドラッグ 新国道店,秋田県秋田市高陽幸町１４−２９,ChIJtXLdecjCj18Rbux_ENxI6Gw,39.7250449,140.1070298,google_places
不明,スーパードラッグアサヒ大曲田町店,秋田県大仙市大曲田町２−２５,ChIJP6vwZjahj18RR95wH6-4sZk,39.4527702,140.4809931,google_places
不明,薬王堂 大仙高梨店,秋田県大仙市高梨金堀２６７−１,ChIJrRqfIVKhj18RiQ_YotkLdzs,39.46027429999999,140.5078907,google_places
サンドラッグ,サンドラッグ 土崎自衛隊通店,秋田県秋田市土崎港北２丁目１７−６４,ChIJe7-E7X_dj18RVWnkgHreWm0,39.7615579,140.0817865,google_places
不明,池田薬局 大曲,秋田県大仙市大曲福住町９−２２,ChIJQ-5r1yGhj18R6BfTc-CjnKQ,39.465851,140.475503,google_places
ツルハドラッグ,ツルハドラッグ 秋田広面北店,秋田県秋田市広面蓮沼９４−１,ChIJZSjYASfoj18RSul-5BOzb9s,39.7258307,140.1505498,google_places
不明,イオン中仙店,秋田県大仙市北長野袴田１８８,ChIJxYcupWqZj18R3W-hPVabV-M,39.5513792,140.5513328,google_places
ツルハドラッグ,調剤薬局ツルハドラッグ 大曲福田店,秋田県大仙市福田町22番23−６,ChIJB0wuhBuhj18RhnqO4hV4f-o,39.4702214,140.4812265,google_places
ツルハドラッグ,ツルハドラッグ 美郷店,秋田県仙北郡美郷町土崎上宿２４０,ChIJNQ8CxX4Lj18RhAlZujB5Aas,39.457258,140.576352,google_places
不明,スーパードラッグアサヒ 秋田広面店,秋田県秋田市広面近藤堰越４３−１,ChIJZdU6viHoj18RY2FyjceggGw,39.72999310000001,140.145873,google_places
不明,㈲佐々木書店･佐々木薬局,秋田県大仙市長野六日町９４,ChIJjY2stCGZj18R9hBMbJKNSHc,39.542192,140.533612,google_places
不明,田沢湖,秋田県仙北市田沢湖,ChIJjzSdMoKJj18RISzxuUubhMI,39.7168527,140.6544861,google_places
不明,佐野薬局 広面店,秋田県秋田市広面堤敷２５−１,ChIJKxFhnCHoj18RpBmQlVf6W9k,39.7296321,140.1473918,google_places
ツルハドラッグ,ツルハドラッグ 茨島店,秋田県秋田市茨島４丁目３−２１,ChIJtV6vCAnDj18RtfI4IJg6bNM,39.6957026,140.0996603,google_places
ツルハドラッグ,ツルハドラッグ 美郷天神堂店,秋田県仙北郡美郷町天神堂赤城１６７−１,ChIJ0-309TsLj18RN4hLuyPygwM,39.41448949999999,140.5510383,google_places
不明,薬王堂 秋田六郷店,秋田県仙北郡美郷町野中中明子１０６番,ChIJgZGLuk4Kj18RCDImHWzVSFo,39.4245284,140.5555231,google_places
不明,高橋薬店,秋田県仙北郡美郷町土崎上野乙１−２２９,ChIJcxxsiFB1j18R3TCc5adgB78,39.467472,140.598652,google_places
不明,六郷さいた薬局,秋田県仙北郡美郷町六郷馬町58番地2,ChIJ63f6Y0gKj18RncESuHJS0Og,39.424755,140.5487213,google_places
不明,イオンスーパーセンター美郷店,秋田県仙北郡美郷町南町南高野３４,ChIJd1ZxiS0Kj18RTiAx_apFCRA,39.416235,140.540697,google_places
不明,㈲上田薬品,秋田県仙北郡美郷町上深井松葉野２４７,ChIJUW3Mr4QJj18R-pkIWolNOIY,39.4090105,140.5177486,google_places
不明,ハッピー・ドラッグ 北秋田鷹巣店,秋田県北秋田市米代町５−１４,ChIJF1bUMUm5ml8RAhB4zI5BQqU,40.2231203,140.3676076,google_places
サンドラッグ,サンドラッグ 鷹巣店,秋田県北秋田市栄前綱７６−７２,ChIJI0S-gC25ml8R2iKlyxoDbO4,40.23161229999999,140.3798989,google_places
不明,薬王堂 北秋田鷹巣店,秋田県北秋田市鷹巣西中岱４６−１,ChIJG43FflK5ml8RbY0evJVLmnM,40.2223567,140.3603026,google_places
ツルハドラッグ,ツルハドラッグ 鷹巣店,秋田県北秋田市栄中綱60番地,ChIJ3bKLLQC5ml8RMeLIOs8Sl7s,40.23047510000001,140.3765901,google_places
クスリのアオキ,クスリのアオキ鷹巣店,秋田県北秋田市鷹巣東上綱１−１,ChIJkYQUKAC_ml8RoDwIvjqpDrs,40.2269303,140.3608759,google_places
ツルハドラッグ,ツルハドラッグ 合川店,秋田県北秋田市李岱豊田36番１,ChIJ5Zxmg866ml8RvOn1myr8uxw,40.155312,140.313949,google_places
ツルハドラッグ,ツルハドラッグ 米内沢店,秋田県北秋田市米内沢東川向５,ChIJ-Q02MACxml8RVoc6Eqpjb2Y,40.1250302,140.3696093,google_places
不明,薬王堂北秋田米内沢店,秋田県北秋田市米内沢諏訪岱１４６−８,ChIJsUj1QwCxml8RTMxAVyZekm0,40.1193364,140.3794116,google_places
不明,ハッピー・ドラッグ 大館片山店,秋田県大館市片山町２丁目25−６,ChIJz3exYZzGml8RoCe6IuxjqhQ,40.2736974,140.5423534,google_places
不明,イオンタウン鷹巣,秋田県北秋田市栄中綱３１−１,ChIJAXYqay65ml8RfkW4Y1wuoEM,40.2303863,140.3843786,google_places
ツルハドラッグ,ツルハドラッグ 大館北店,秋田県大館市釈迦内稲荷山下２５８,ChIJAeejQA_Fml8R-BvYfzF9Q3s,40.295767,140.559629,google_places
不明,フクヒロ,秋田県北秋田市米内沢柳原６１,ChIJHQe7Azuwml8RiJWtOKcGdXc,40.127294,140.374032,google_places
不明,ハッピー・ドラッグ 大館比内店,秋田県大館市比内町扇田伊勢堂岱１８３−１,ChIJVTEZf5bIml8Rsi1t1C5mv1k,40.226138,140.5874095,google_places
不明,衛生堂,秋田県北秋田市材木町８−２９,ChIJsf5JyzS5ml8RF1o93vdnhWk,40.230198,140.370114,google_places
不明,ハッピー・ドラッグ 能代北店,秋田県能代市落合上前田１６９,ChIJKU8QELaeml8RKmBZNkwZ2RM,40.2257964,140.0261318,google_places
ツルハドラッグ,ツルハドラッグ 大館店,秋田県大館市片山町３丁目１−１,ChIJ2zgY45vGml8RovOI1scab_w,40.2741354,140.5381245,google_places
サンドラッグ,サンドラッグ 大館東台店,秋田県大館市東台２丁目１−５,ChIJ63QRws3Fml8RwzN3u5l3GtI,40.2706915,140.5742291,google_places
ツルハドラッグ,ツルハドラッグ 能代北店,秋田県能代市落合上前田１６１161番地,ChIJFyjifraeml8RJMKoayFAr-k,40.227235,140.024525,google_places
不明,いとく 鷹巣南店,秋田県北秋田市米代町５−１３,ChIJ64BVWkm5ml8Rwz92hCAQYg8,40.223487,140.3669194,google_places
不明,サンデー 鷹巣店,秋田県北秋田市栄中綱１６,ChIJDWOg1C-5ml8RopkupkyGQoA,40.2288979,140.3849431,google_places
不明,ケーズデンキ 鷹巣店,秋田県北秋田市栄前綱８６−１,ChIJdwNFhjK5ml8RUIM7_Ub7M8I,40.23103589999999,140.3779416,google_places
ツルハドラッグ,ツルハドラッグ 大館中道店,秋田県大館市中道２丁目２−５４,ChIJSQQ9v__Fml8RlYtaxO92DEg,40.282456,140.554949,google_places
ツルハドラッグ,ツルハドラッグ 能代二ツ井店,秋田県能代市二ツ井町中坪１２,ChIJ6W0_p4e9ml8RtZTKNvxWQm4,40.2080957,140.2332889,google_places
不明,薬王堂 大館田代店,秋田県大館市岩瀬羽貫谷地山下９３−９,ChIJKyRv55vBml8Rb5OKBtWXqfs,40.2800141,140.458475,google_places
不明,スーパードラッグアサヒ大館店,秋田県大館市有浦２丁目１−２０,ChIJQ13WZTnEml8RPPfffaetrOA,40.282731,140.563021,google_places
不明,たかのすモール,秋田県北秋田市栄前綱７６,ChIJG1_WnC25ml8RcQk3W23Cda8,40.2317942,140.380633,google_places
不明,薬王堂 能代二ツ井店,秋田県能代市二ツ井町道上中坪３２−１,ChIJ____49O8ml8RKJcbmVx7FIc,40.2056623,140.2307312,google_places
ツルハドラッグ,ツルハドラッグ 大館東店,秋田県大館市大田面31番地,ChIJj2db2eXFml8RplvtkeJCw1Q,40.2872964,140.583293,google_places
不明,ハンユーミナミ㈱,秋田県北秋田市脇神平崎上岱１−１４９,ChIJSd67O0O5ml8RdHQ806Iul3U,40.2149785,140.3725841,google_places
クスリのアオキ,クスリのアオキ 二ツ井店,秋田県能代市二ツ井町塚ノ台３１,ChIJNcZtTwC9ml8REr8T1UHt5a0,40.2036445,140.2293311,google_places
クスリのアオキ,クスリのアオキ比内店,秋田県大館市比内町扇田伊勢堂岱１１７,ChIJEbFRcADJml8R_6JUNxsSyag,40.2255116,140.59208,google_places
不明,薬王堂 大館SC店,秋田県大館市御成町４丁目３−１３,ChIJeTgOUsrFml8R-g-gH8ksPNw,40.2801525,140.5610864,google_places
ツルハドラッグ,ツルハドラッグ 大館南店,秋田県大館市餌釣前田１６５,ChIJ6Rw0zK3Hml8RCE6pCcA8FKw,40.2467064,140.5716124,google_places
不明,Seria生活良品 イオンタウン鷹巣店,秋田県北秋田市栄中綱３１−１イオンタウン鷹巣ＳＣ内,ChIJlbjNai65ml8RV81NBhkQyxY,40.2300979,140.3842692,google_places
不明,ハッピー・ドラッグ 秋田小坂店,秋田県鹿角郡小坂町小坂五十刈１０−４,ChIJw_qY-2fbml8R1PQptTXLWxM,40.3241713,140.7423668,google_places
不明,Aコープ もりよし店,秋田県北秋田市米内沢出向５９,ChIJ-9z6PCawml8RUUd3DmrIJls,40.122272,140.366628,google_places
不明,薬王堂 大館比内店,秋田県大館市比内町扇田長岡下４４,ChIJK5xzPe3Iml8RzEBd32kwSVI,40.2198651,140.5871084,google_places
不明,ハッピー・ドラッグ 能代南店,秋田県能代市東大瀬５１−３,ChIJo01tBHOfml8Ry0HIQqADwkw,40.1907733,140.0373196,google_places
不明,薬王堂 大館店,秋田県大館市観音堂４２０,ChIJybXJh0jEml8R63ua44sZ_0U,40.283623,140.574592,google_places
ツルハドラッグ,ツルハドラッグ 東能代店,秋田県能代市鰄渕古屋布77−１,ChIJgxXsyFmfml8RVAwRj9C7aeQ,40.1889875,140.0784075,google_places
不明,薬王堂 大館水門町店,秋田県大館市水門町６−２,ChIJH9KbIozFml8R4ENcUxxFiDs,40.2753512,140.5538297,google_places
ツルハドラッグ,ツルハドラッグ 八郎潟店,秋田県南秋田郡八郎潟町上沖谷地47−１,ChIJ_aOg-m4DkF8RyqbCNmQ4ZcA,39.9453076,140.0839492,google_places
不明,渡部薬局,秋田県北秋田市阿仁銀山下新町１３５,ChIJcbAecK9UhV8R4eGkd3CdYXY,40.0011982,140.4032789,google_places
ツルハドラッグ,ツルハドラッグ 五城目店,秋田県南秋田郡五城目町西磯ノ目１丁目2−３,ChIJq6qaORYDkF8RtiXqEn6Ryjk,39.9425536,140.1115172,google_places
不明,薬王堂 秋田五城目店,秋田県南秋田郡五城目町七倉南秋田郡五城目町七倉１６番5,ChIJvSxKTwADkF8RjBUGCUsekmw,39.94434,140.1102764,google_places
不明,五城目中央ドラッグ,秋田県南秋田郡五城目町下タ町１９３,ChIJAShfzxEDkF8RM7disxXmUeM,39.9460913,140.1205537,google_places
不明,薬王堂 秋田井川店,秋田県南秋田郡井川町浜井川荒田堰１６２,ChIJ6XxObRsdkF8RAUg7hWdMXQE,39.90946400000001,140.077041,google_places
不明,ベストドラッグ井川店,秋田県南秋田郡井川町北川尻新坂９０−１,ChIJ46NYgyUdkF8R0C7XA7RSrTM,39.9166207,140.0973573,google_places
マツモトキヨシ,ドラッグストア マツモトキヨシ メルシティ潟上店,秋田県潟上市飯田川飯塚上堤敷６９−１,ChIJ8cVEAA4dkF8R9PwKYdFRPA0,39.9034666,140.0833941,google_places
不明,薬王堂 秋田八郎潟店,秋田県南秋田郡八郎潟町昼根下１０１−１,ChIJOYg5KycDkF8Ra-ZEPpsJNw0,39.9446811,140.082481,google_places
不明,くすりのはたけやま(あきら工房),秋田県南秋田郡八郎潟町昼根下９４−２,ChIJsZtKAlIDkF8RnXVrBS4hfuo,39.9451311,140.0772555,google_places
不明,日本調剤 湖東薬局,秋田県南秋田郡八郎潟町川崎貝保３７−７,ChIJYTyG5z8DkF8RPwK_Jb7QgPk,39.945297,140.1040997,google_places
不明,池田薬局ことう店,秋田県南秋田郡八郎潟町川崎貝保３７−６,ChIJf1Ly4T8DkF8RiAoF9VvsorI,39.9453346,140.1037588,google_places
ツルハドラッグ,調剤薬局ツルハドラッグ 大潟村店,秋田県南秋田郡大潟村中央1−５,ChIJv36lMyEPkF8RhnR7rGnAnhI,40.018551,139.959398,google_places
ツルハドラッグ,ツルハドラッグ 八竜店,秋田県山本郡三種町浜田東浜田334番地,ChIJC7dV5bgLkF8RbhgXNT4MiwY,40.1002617,140.002372,google_places
ツルハドラッグ,ツルハドラッグ 琴丘店,秋田県山本郡三種町鹿渡西小瀬川157番,ChIJeaCXuakIkF8RrvE_h68kyaw,40.0341418,140.0782044,google_places
ツルハドラッグ,ツルハドラッグ 男鹿払戸店,秋田県男鹿市払戸大堤１２７番1,ChIJldBnmIoZkF8R4d1biZOCCy0,39.92999349999999,139.9363222,google_places
不明,JA大潟村 Aコープ大潟店,秋田県南秋田郡大潟村中央１−５,ChIJEW1COdIPkF8Rpn0EP4nPyxk,40.0185822,139.9590011,google_places
サンドラッグ,サンドラッグ 能代南店,秋田県能代市寿域長根５２−３,ChIJT4D-6wufml8RJIE4zvn84g4,40.1916257,140.0288539,google_places
ツルハドラッグ,ツルハドラッグ 男鹿店,秋田県男鹿市脇本脇本石館１６,ChIJ8Wxx4R0ZkF8RYY4xUSjM4L8,39.9092337,139.9088407,google_places
ツルハドラッグ,ツルハドラッグ 男鹿船川店,秋田県男鹿市船川港比詰大巻１４４−１,ChIJ64rogMgZkF8RoVcNEyHlVdM,39.9018411,139.8622793,google_places
ツルハドラッグ,ツルハドラッグ 天王西店,秋田県潟上市天王上江川４７−２９０,ChIJC5lik_QekF8RrRKmjYXveBE,39.8828002,139.9827334,google_places
不明,大潟村役場,秋田県南秋田郡大潟村中央１−１,ChIJyehhJ9IPkF8RruJ_5VRi8BE,40.0174781,139.9600073,google_places
不明,薬王堂 三種八竜店,秋田県山本郡三種町浜田東浜田３３０,ChIJAwArAQALkF8RCMonnu7kuVY,40.1007673,140.0024556,google_places
不明,薬王堂 男鹿SC店,秋田県男鹿市船越内子２１８−１,ChIJFXHVhV0ZkF8RGHCmk0EfuIY,39.9022361,139.936026,google_places
不明,薬王堂潟上飯田川店,秋田県潟上市飯田川和田妹川千刈８−３,ChIJcZe3WuwdkF8RbDEbv02J954,39.8864738,140.0732364,google_places
不明,薬王堂 三種森岳店,秋田県山本郡三種町森岳岩瀬２２０−１,ChIJc0GeWvAJkF8RD45Ti4ICpvM,40.1003474,140.0798077,google_places
ツルハドラッグ,ツルハドラッグ 天王長沼店,秋田県潟上市天王長沼9番2号,ChIJGQjS1ejgj18RWbZ8fOb6I3Y,39.8121484,140.0501374,google_places
不明,薬王堂 潟上天王店,秋田県潟上市天王二田２０８−１,ChIJS6XFeZkfkF8R_JG8VDhp9DA,39.8812019,139.9961401,google_places
不明,ドン・キホーテ 潟上店,秋田県潟上市飯田川飯塚上堤敷６９−１３,ChIJIanfp-EdkF8Rmww-o9ZlZcg,39.9029022,140.0830234,google_places
不明,ＤＣＭ男鹿店,秋田県男鹿市脇本脇本上中野５５,ChIJHwixBR4ZkF8Rcnmxc3NXiW8,39.9086456,139.9088555,google_places
ツルハドラッグ,ツルハドラッグ 能代長崎店,秋田県能代市長崎９１,ChIJx-ttx6Gfml8RB2P0XzCnuLg,40.185453,140.0214876,google_places
不明,秋田マルセ薬品,秋田県山本郡三種町川尻下堤下５０−８,ChIJzZ_6XHcJkF8RHuhmAXIZRbo,40.0860014,140.0438909,google_places
不明,薬王堂大曲川目店,秋田県大仙市飯田大道端１７４−２,ChIJqY6eQQCnj18RPkKYxew8SbI,39.4346882,140.4842534,google_places
不明,薬王堂 大曲佐野町店,秋田県大仙市佐野町８−１６,ChIJ17KkRwChj18RBxOPL4WFp8E,39.469629,140.4698115,google_places
不明,イオン 大曲店,秋田県大仙市和合坪立１７７,ChIJwYZ0e6egj18R7_E-D6-jwSU,39.4376946,140.5092729,google_places
不明,Can★Do 大仙協和店,秋田県大仙市協和境岸館72ツルハドラッグ大仙協和店内,ChIJ9frZPz2_j18R91T6bBEGSQA,39.60632680000001,140.3296729,google_places
不明,日本調剤 大曲南薬局,秋田県大仙市大曲上栄町７−１１,ChIJ0cR2U86gj18RVnbOgD68slo,39.4515523,140.4763099,google_places
不明,クスリタカハシ,秋田県大仙市戸蒔錨７７−１,ChIJB6ME67-gj18R5_ZgfGXYjPY,39.4518972,140.4974422,google_places
不明,富田薬店,秋田県大仙市藤木西八圭１０,ChIJYeoUwMcJj18RquLXOELMKZ8,39.409609,140.481949,google_places
不明,和合坪立１７７ くすり,秋田県大仙市和合坪立１７７くすり,ChIJv0qUKggKj18RWX5sBwhlU8s,39.43831580000001,140.5088309,google_places
不明,クスリ 津田屋,秋田県大仙市神宮寺蓮沼１９−１７,ChIJn4W4Aemjj18R66pcE43LcUw,39.4927803,140.4255402,google_places
不明,寺田薬店,秋田県大仙市福田町８−５,ChIJaYdewgKhj18R1-VMabbelNY,39.46960079999999,140.4885539,google_places
不明,ワーム薬品,秋田県大仙市大曲日の出町１丁目６−１９,ChIJMfYZ7cugj18RwbmXsoQjsq4,39.44819100000001,140.476256,google_places
不明,マックスバリュ 刈和野店,秋田県大仙市刈和野沼田１２−１,ChIJZSNFQtm8j18RJSuONCcoe98,39.5469918,140.3675485,google_places
不明,漢方相談スミレ,秋田県大仙市大曲栄町１３−４,ChIJ7Z3oI9Khj18R7ux-51FPxYg,39.454254,140.4788615,google_places
不明,ザ・ビッグ 大曲飯田店,秋田県大仙市飯田屋舗通257番地,ChIJ9Q-YDbagj18Rc2ypZMR0nQw,39.4459393,140.4831054,google_places
不明,下山支店,秋田県大仙市大曲上栄町８−１７,ChIJXbJCVcWgj18RcM4b45-vrIY,39.4519557,140.4764946,google_places
不明,メガ大館店,秋田県大館市清水２丁目１−７３,ChIJ58XTcgDFml8R_FLMeBp05fw,40.283407,140.5537867,google_places
クスリのアオキ,クスリのアオキ大館店,秋田県大館市有浦２丁目３−６０,ChIJ9YfhGQDFml8R_nvI4sVlop0,40.28156999999999,140.5642765,google_places
不明,くすりの高堂谷,秋田県大館市比内町扇田南扇田２４−１,ChIJL2gnSJfIml8RIMxXXoCIalc,40.227319,140.581635,google_places
不明,アイン薬局 大館末広町店,秋田県大館市幸町２−２４,ChIJueuijinEml8RwkYqhJ-qCJo,40.2718661,140.5554099,google_places
不明,日本調剤 大館薬局,秋田県大館市軽井沢下岱２０−１０１,ChIJ3w1MSizJml8Rfa-vlw-Jgj0,40.2156485,140.6392535,google_places
不明,ホテヤ薬局いとく店,秋田県大館市御成町３丁目７−５８,ChIJaWlV_TrEml8R_J3q3yyDwe8,40.2806038,140.5600399,google_places
不明,薬のアイハラ馬喰町店,秋田県大館市馬喰町４７,ChIJ37ujAyvEml8RMlyK-yAv-Zs,40.2704305,140.5598419,google_places
不明,くすり石井,秋田県大館市清水１丁目２−１９,ChIJizCbij3Eml8Rc42wBohDRaU,40.285728,140.554497,google_places
不明,アイン薬局 大館比内町店,秋田県大館市比内町扇田大谷地25−１,ChIJuQgb1HrJml8RmVTq1O2yhPg,40.2221191,140.5871562,google_places
不明,㈾幸坂薬店,秋田県大館市御成町２丁目１０−１７,ChIJRyk7Wj7Eml8RzPTmX6l8puw,40.285895,140.560018,google_places
不明,アクロスプラザ大館南,秋田県大館市餌釣前田２００,ChIJQQ3oUQ7Gml8RJOpvIitCf84,40.2489065,140.5764264,google_places
不明,アイン薬局 大館御成町店,秋田県大館市御成町２丁目５−７,ChIJVbExFuzFml8RoW7jJAX4YBE,40.2850585,140.5593192,google_places
不明,イオンスーパーセンター大館店,秋田県大館市大田面２３８,ChIJfZj7v0XEml8RaW9nGWgpuFo,40.2862534,140.5766934,google_places
不明,相原薬局,秋田県大館市御成町３丁目７−６７,ChIJRysbBjvEml8RU18-X9441dw,40.2811941,140.559646,google_places
不明,はせがわ化粧品,秋田県大館市御成町２丁目５−９,ChIJsXyVhT7Eml8RuvNRuqffky8,40.2848716,140.559532,google_places
不明,大館樹海モール,秋田県大館市大田面３４,ChIJqWPWrlrEml8Rf6ERwTTl6ks,40.2873708,140.5822677,google_places
不明,和田薬店,秋田県大館市早口上野２１−２,ChIJaTgm88fAml8R6btwuf1HR6U,40.271149,140.443686,google_places
不明,ヤマダデンキ テックランド大館店,秋田県大館市下綱３２７−１,ChIJ1xKEZFDEml8R4uvln4UpZ10,40.287774,140.585301,google_places
不明,赤玉薬局 八竜店,秋田県山本郡三種町浜田東浜田１３９−２,ChIJO0D-z7sLkF8RkSv1CPzauuM,40.10261759999999,139.998676,google_places
不明,テラタ八竜店,秋田県山本郡浜田東浜田東浜田３２４,ChIJm92qq7kLkF8Rw5j9quNXxy0,40.1012318,140.0024063,google_places
不明,薬王堂 秋田八峰店,秋田県山本郡八峰町八森湯の尻１７−１,ChIJVWS0jvaPml8Ru-ALjX4hiHQ,40.3366787,140.0301148,google_places
ツルハドラッグ,ツルハドラッグ 横手寿町店,秋田県横手市寿町１−３５,ChIJoX81gfsPj18RJiBfgQbRZO4,39.3132313,140.5635776,google_places
サンドラッグ,サンドラッグ 横手店,秋田県横手市婦気大堤下久保１５,ChIJ-7f3uVMFj18R5fr9EPQPZy4,39.3064017,140.5505183,google_places
ツルハドラッグ,ツルハドラッグ 横手平和町店,秋田県横手市平和町１５−３１,ChIJXbhbuAMQj18R2vU-3b7G2qQ,39.3084526,140.5711056,google_places
不明,薬王堂 横手店,秋田県横手市条里２丁目４−１２,ChIJFRm9PvgPj18Rk-eIJm8fRVU,39.31312399999999,140.5542815,google_places
ツルハドラッグ,ツルハドラッグ 横手大森店,秋田県横手市大森町大中島３５５355番地,ChIJJ-MllGMGj18R3rzrBtjOAeY,39.3418563,140.4321574,google_places
ツルハドラッグ,ツルハドラッグ 横手平鹿店,秋田県横手市平鹿町中吉田竹原９０−１,ChIJK6XqAOUbj18Rux0GTi6x-v4,39.2700799,140.4967134,google_places
ツルハドラッグ,ツルハドラッグ 十文字店,秋田県横手市十文字町佐賀会上沖田277番地,ChIJyxgscCYcj18RT04OIZaRir4,39.2176993,140.5166573,google_places
不明,薬王堂 横手赤坂店,秋田県横手市赤坂大道添３８,ChIJS-rk8EsFj18RQwTGV7UiZJU,39.303034,140.5402459,google_places
ツルハドラッグ,ツルハドラッグ 雄物川店,秋田県横手市雄物川町沼館沼館４５６−１,ChIJS7IBoIEDj18R-PdrOUromv4,39.2949952,140.4308419,google_places
不明,薬王堂 横手増田店,秋田県横手市増田町増田月山西２９−１,ChIJ_zoBbPIej18RhA6c-YkfEco,39.2007078,140.5402114,google_places
不明,薬王堂 横手八幡店,秋田県横手市八幡上長田２５,ChIJJzF1kKgPj18RLCReeV7zb_s,39.3275546,140.5510349,google_places
不明,薬王堂 横手平鹿店,秋田県横手市平鹿町浅舞福田２２０−１,ChIJRzeG61kbj18RAC7R9f9rAKA,39.2682499,140.4899197,google_places
ツルハドラッグ,ツルハドラッグ 横手平鹿病院前店,秋田県横手市横手町五ノ口２８−１,ChIJ88akGAAPj18RcY2USGBJZ2o,39.3145938,140.5475239,google_places
不明,クオール薬局横手町店,秋田県横手市横手町大関越１７５,ChIJMwLHdfQPj18RsGX-euqvLHY,39.318708,140.5506977,google_places
不明,薬王堂 秋田十文字店,秋田県横手市十文字町佐賀会下沖田６１−５,ChIJOZ-fkSYcj18RmDYWTnwvX2E,39.2182206,140.5186268,google_places
不明,薬王堂 横手幸町店,秋田県横手市幸町３−５８,ChIJe6VLXwAPj18R65JGbQ4YrsA,39.323673,140.565062,google_places
不明,薬王堂 横手雄物川店,秋田県横手市雄物川町造山字広田表１５−１,ChIJw08CWBQDj18RMUnje3WdBYU,39.275446,140.4293363,google_places
不明,MEGAドン・キホーテ 横手店,秋田県横手市条里３丁目２−４,ChIJ49kGG_cPj18RX9AMLsmIaxo,39.3154746,140.5535167,google_places
不明,薬王堂 横手大雄店,秋田県横手市大雄精兵村６−１,ChIJsdHtL-sFj18Rnnhb3Techps,39.3364552,140.4854891,google_places
不明,ＤＣＭ横手店,秋田県横手市八幡１７７,ChIJJR03EK4aj18R2xiCFHBLhJ8,39.3206725,140.5535174,google_places
不明,薬王堂 十文字梨木店,秋田県横手市十文字町梨木村北７３−１,ChIJOSE19swdj18R67rT_hAksqs,39.2363485,140.5301557,google_places
不明,クオール薬局根岸町店,秋田県横手市根岸町８−３５,ChIJG22PzOUPj18Rs3MjHHMP2yA,39.3177934,140.5691806,google_places
不明,池田薬局 さくらんぼ通り,秋田県横手市十文字町海道下８９−４,ChIJHyICMBQcj18RGXfV71KcmZI,39.228979,140.518173,google_places
不明,アイン薬局 横手店,秋田県横手市清川町１３−３２,ChIJe4Q0PAMQj18RRT7ZcP_yEX0,39.3091169,140.5745623,google_places
不明,旧村田薬舗,秋田県横手市増田町増田七日町１４１,ChIJ__9Tbuwej18Re4hslmY3tLw,39.2031821,140.545449,google_places
不明,きりん薬局,秋田県横手市平鹿町浅舞覚町後２４１−２字,ChIJnSpmZ18bj18RWzn0D0M0iSo,39.2637007,140.4912414,google_places
不明,鍛冶町さいた薬局,秋田県横手市鍛冶町１−１,ChIJJW6yLOMPj18RiKFFaiUTKgU,39.3133123,140.5692845,google_places
不明,さいた薬局 よこて町店,秋田県横手市横手町四ノ口４２,ChIJ7UhklfcPj18RNdjyXfArRds,39.3142869,140.5520248,google_places
不明,クオール薬局あさひが丘店,秋田県横手市赤坂大沼下４１−１,ChIJhWVV5koFj18Rwxti4rGclxI,39.3003417,140.5405601,google_places
不明,ユニクロ フレスポ横手店,秋田県横手市安田向田１８５,ChIJv8hsNrAaj18RrRj6sXfqUIc,39.2980707,140.556522,google_places
不明,ケーズデンキ 横手店,秋田県横手市婦気大堤婦気前２６１−１,ChIJB1BdprIaj18RLwU7NiU7Ob0,39.30251,140.55095,google_places
不明,ヤマダデンキ テックランドNew横手店,秋田県横手市安田向田２０３−３,ChIJsYCrSrEaj18R0o9qM-5T_L0,39.297339,140.55102,google_places
不明,くすり和泉,秋田県横手市金沢本町荒町１８−４,ChIJm-YvL68Oj18RiTcdISK7ujk,39.37982179999999,140.5741024,google_places
不明,ＤＣＭ十文字店,秋田県横手市十文字町佐賀会上沖田３０１番１,ChIJowLLLiYcj18RmASi_zXmygU,39.21631920000001,140.5166063,google_places
不明,マックスバリュ 十文字南店,秋田県横手市十文字町佐賀会上沖田２８６,ChIJO5RpFiYcj18RTRMdBtQOZRE,39.217341,140.516949,google_places
不明,クオール薬局ことぶき店,秋田県横手市寿町１１−３５,ChIJ45OM5PsPj18Rkbtt3gGQwpc,39.3129356,140.5615703,google_places
不明,アイン薬局 赤坂店,秋田県横手市赤坂大道添７９−４,ChIJT7peCEwFj18RrsNqGB4UsPE,39.30333,140.541177,google_places
ツルハドラッグ,ツルハドラッグ 湯沢店,秋田県湯沢市両神２８−１,ChIJ___vPMXhjl8RAgZOLh3L-_g,39.1721386,140.4802872,google_places
サンドラッグ,サンドラッグ湯沢インター店,秋田県湯沢市元清水４丁目３−２４,ChIJoSK8ChLhjl8REyRfofd24yk,39.1711442,140.4836316,google_places
ツルハドラッグ,ツルハドラッグ 湯沢大町店,秋田県湯沢市大町２丁目１10号,ChIJE2YkpTPgjl8RZGE9WTDjVYc,39.16301199999999,140.491622,google_places
不明,スーパードラッグアサヒ 湯沢店,秋田県湯沢市万石２４２,ChIJmd_gekngjl8RGahlFS-MMc0,39.1573456,140.4837741,google_places
不明,薬王堂 湯沢田町店,秋田県湯沢市田町２丁目３−３８,ChIJ2y3cIzTgjl8RCJPM2hVhZB8,39.1587277,140.4896948,google_places
不明,薬王堂 湯沢古館店,秋田県湯沢市古館町７−４２,ChIJG3koNI_hjl8RtFOAH_B7X6E,39.1718371,140.4905932,google_places
不明,薬王堂 湯沢雄勝店,秋田県湯沢市小野新田81番,ChIJG15dM_Lcjl8RSEa7FjO4FQo,39.0613557,140.4574103,google_places
不明,薬王堂 湯沢稲川店,秋田県湯沢市川連町大舘疣橋５７,ChIJ75rrixYgj18Re7NIXwmxJj0,39.1474621,140.5728113,google_places
不明,クオール薬局湯沢店,秋田県湯沢市中野180‐5,ChIJzTbmkkrgjl8RukYYsRrr6wM,39.1602362,140.4821995,google_places
不明,薬王堂 湯沢倉内店,秋田県湯沢市倉内川原田１７−２,ChIJP9KLUcLhjl8RMRmCjQrQP3o,39.1745098,140.4726499,google_places
不明,クオール薬局湯沢表町店,秋田県湯沢市表町４丁目９−１０,ChIJHx8JF9Lhjl8RLvqgC7j4vlw,39.1690879,140.4897599,google_places
不明,クオール薬局湯沢西店,秋田県湯沢市沖鶴１９９−２,ChIJhRxoW8Phjl8RdG3YiXTFvvs,39.1743917,140.4767817,google_places
ツルハドラッグ,ツルハドラッグ 羽後店,秋田県雄勝郡羽後町南西馬音内２１３,ChIJ4V2qBkbijl8RupgSrI-j9UA,39.1939254,140.4100041,google_places
不明,池田薬局 佐竹通り,秋田県湯沢市大町１丁目29−１,ChIJqSHuuTPgjl8Rhwq0KMExLdg,39.1633168,140.4925001,google_places
不明,ユザワプラザ,秋田県湯沢市材木町２丁目１−１８,ChIJ7S19XTTgjl8RALVMYpKvlfU,39.1615304,140.4881113,google_places
不明,高田屋薬店,秋田県湯沢市柳町２丁目２−６,ChIJ29FaTc3hjl8RUX3cAOJ7QDc,39.1658101,140.491786,google_places
不明,イオンスーパーセンター湯沢店,秋田県湯沢市上荻生田１６２,ChIJT8uyXlbgjl8RLBJd8ovxJE0,39.15030489999999,140.468909,google_places
不明,薬王堂 秋田羽後店,秋田県雄勝郡羽後町南西馬音内２０１,ChIJ-3Cf10Xijl8Rghgz3yaBjxU,39.195128,140.4114682,google_places
不明,グランマート 湯沢インター店,秋田県湯沢市元清水４丁目３−７,ChIJT2_zws_hjl8RrZ42znwxBGg,39.170284,140.4834997,google_places
不明,クオール薬局うごまち店,秋田県雄勝郡羽後町貝沢稲荷９４−２,ChIJqyifzhDijl8RxAnSJYaXIW8,39.1931353,140.4386979,google_places
不明,佐藤薬店,秋田県湯沢市横堀旭町２７,ChIJd0mTjO7cjl8RfQD3JZqZYXk,39.060236,140.449808,google_places
不明,秋田から健やかな未来を全国へお届けする 漢方小町堂薬心,秋田県湯沢市小野小町４８−１７,ChIJI9l9CDjdjl8Rz6omkpMGuyw,39.069347,140.4602342,google_places
不明,永田薬店,秋田県湯沢市稲庭町三嶋４４−２,ChIJ78AnXjjfjl8RKJ94ICCi1ak,39.1005949,140.5822979,google_places
不明,ゲオ湯沢店,秋田県湯沢市古館町１−３,ChIJh07ZgtHhjl8RYXduHHGG6W8,39.170219,140.490023,google_places
不明,ヤマダデンキ テックランドＮｅｗ湯沢店,秋田県湯沢市上荻生田１２６,ChIJ9T9allbgjl8RTM2pApjbXhU,39.1513443,140.4697633,google_places
不明,湯沢たばこセンター なかの,秋田県湯沢市大町２丁目１−１,ChIJiTXvATPgjl8RDIve0-mxdqo,39.163687,140.491844,google_places
不明,やまや 湯沢店,秋田県湯沢市元清水４丁目３−４３,ChIJI88j3s_hjl8R4vQLwOAgRPw,39.1709302,140.4840191,google_places
不明,ダイソー グランマート湯沢インター店,秋田県湯沢市元清水４丁目３−２４,ChIJC9w15M_hjl8R5w7-kF398v4,39.170963,140.4830872,google_places
不明,㈲三光丸 佐々木薬品,秋田県湯沢市愛宕町２丁目４−１２,ChIJy37L8kbgjl8RKcAbt0kgHOM,39.152317,140.4900737,google_places
ツルハドラッグ,ツルハドラッグ 潟上昭和店,秋田県潟上市昭和乱橋下畑９８番地,ChIJDS-tiQLij18R1rllmekPHaQ,39.863013,140.0616867,google_places
不明,薬王堂 潟上追分店,秋田県潟上市天王長沼６４−１６８,ChIJq25SN5Lhj18RXF3hmdfuoVk,39.818144,140.0495688,google_places
ツルハドラッグ,ツルハドラッグ 秋田中野店,秋田県秋田市下新城中野琵琶沼431番2,ChIJmeSGvB7hj18R1RTJ2MUus7w,39.7976309,140.0608476,google_places
不明,ザ・ビッグ 潟上店,秋田県潟上市飯田川飯塚上堤敷６９−１,ChIJ-4XJaw4dkF8RIoJMzOjpeHE,39.9036311,140.0838938,google_places
不明,ダイユーエイト 秋田潟上店,秋田県潟上市飯田川飯塚岡谷地１−１,ChIJq-kzPBIdkF8REST8Ef0MIwA,39.9034732,140.0859732,google_places
不明,池田薬局 昭和おおくぼ店,秋田県潟上市昭和大久保堤の上９１−２８,ChIJqbXU4M7jj18Rm89QXKv-4uc,39.8689208,140.0638504,google_places
不明,ブックスモア 潟上店,秋田県潟上市飯田川飯塚古開９０−２,ChIJ059niRIdkF8RiH0A28WD900,39.9021032,140.0858019,google_places
ツルハドラッグ,ツルハドラッグ 秋田土崎店,秋田県秋田市土崎港北７丁目２−２４,ChIJzZy2IYbdj18ROG6uH6aH8iA,39.7670172,140.069402,google_places
不明,薬王堂 秋田土崎港店,秋田県秋田市土崎港西５丁目９−２４,ChIJy4I_cWvdj18R8X3VH1F-QKk,39.7638038,140.0666758,google_places
不明,中村薬房,秋田県潟上市昭和大久保町後７０,ChIJnaqzIAHij18RlJdGOUwAje0,39.867368,140.06028,google_places
不明,いとく 追分店,秋田県潟上市天王上北野４−４０９,ChIJWeAw2iThj18RUfxH_WcFIXY,39.8187759,140.0494003,google_places
不明,ニトリ メルシティ潟上店,秋田県潟上市飯田川飯塚上堤敷６９−１１,ChIJAQBABQ4dkF8RjEYde1CZzLc,39.9034211,140.0826233,google_places
不明,中井万盛堂薬房,秋田県潟上市飯田川下虻川屋敷１１３,ChIJf0IG8_QdkF8RUqqixACwW-c,39.8770913,140.0693076,google_places
不明,薬王堂 秋田天徳寺通店,秋田県秋田市泉三嶽根７−２３,ChIJefjVnCLDj18R4GnP04W_Nhc,39.7369068,140.1205608,google_places
不明,クオール薬局秋田飯島店,秋田県秋田市飯島堀川８３−１,ChIJiT1cp0znj18REB7ai9Jo3t8,39.7894521,140.062557,google_places
ツルハドラッグ,ツルハドラッグ 大内店,秋田県由利本荘市大内三川三川34番地2,ChIJTaeX5Yqyj18Rp4Rux0QnNBw,39.4448799,140.1073083,google_places
不明,コマツ薬店,秋田県由利本荘市東由利老方畑田３８−１,ChIJiwW-jdcBj18R1rLaAuruTjw,39.3006117,140.2857329,google_places
不明,薬王堂 由利本荘大内店,秋田県由利本荘市岩谷町西越９４−３,ChIJKz8Qo-6yj18RHGF6KdksH7M,39.4434464,140.0856296,google_places
不明,日本調剤 本荘南薬局,秋田県由利本荘市小人町１１５−３,ChIJlWTSfUFSjl8R_YV2N5MhM2k,39.3806533,140.0465869,google_places
不明,池田薬局 岩城店,秋田県由利本荘市岩城内道川馬道44−１７,ChIJQ1cp3C-2j18R8d3Jd34Yx7A,39.5516459,140.0601408,google_places
不明,池田薬局 おおうち店,秋田県由利本荘市大内三川三川１１１１番地,ChIJJfsekIqyj18RclKQzDRiCZw,39.4453649,140.1087987,google_places
不明,アイン薬局 由利本荘店,秋田県由利本荘市岩渕下６８−２,ChIJSSYGZ2JSjl8Rs2b2AAiSpxM,39.392385,140.05216,google_places
不明,池田薬局 コアラ調剤,秋田県由利本荘市西梵天７５−４,ChIJGw6Y7V5Sjl8RGfLI-VVHDhM,39.385571,140.059356,google_places
不明,宮城薬店,秋田県由利本荘市東由利蔵新田５８−１,ChIJF9ca9iYAj18R1xS3c0dVQtI,39.3138935,140.2668513,google_places
不明,池田薬局 わかば店,秋田県由利本荘市石脇田尻野６−１１,ChIJxfB9loJNjl8RhwEnpp15yVQ,39.4045018,140.0316974,google_places
不明,池田薬局 ひがし町店,秋田県由利本荘市東町３１−２鈴木ビル１０２,ChIJR6uJIexTjl8R_kKMkbw8MsY,39.3858464,140.05352,google_places
不明,日本調剤 本荘北薬局,秋田県由利本荘市川口高花１０６−４,ChIJxfTB1-lTjl8RbcDC8D0NPAg,39.4025535,140.0628145,google_places
不明,第一薬房,秋田県由利本荘市岩渕下３−３,ChIJBdR1FmFSjl8RNFCbJFGfTCQ,39.3892544,140.0529451,google_places
不明,ＤＣＭ本荘店,秋田県由利本荘市東梵天１８３−１,ChIJNQCHNV9Sjl8RJqRVbjmotBI,39.385595,140.0634211,google_places
不明,Can★Do 本荘店,秋田県由利本荘市中梵天１０８番ツルハドラッグ本荘店内,ChIJdxx4SDJTjl8R_Cp99ktLHqk,39.38630210000001,140.0616918,google_places
不明,池田薬局 開光堂,秋田県由利本荘市裏尾崎町４−３,ChIJW5Cp_GZSjl8Rh3XN_psnmiU,39.3874607,140.0500391,google_places
不明,池田薬局 すみれ調剤,秋田県由利本荘市中田代板井沢１１２−８,ChIJKR2gyYWuj18RYYH6b5HVAtw,39.4305288,140.2226503,google_places
不明,イオンタウン本荘中央,秋田県由利本荘市岩渕下１８,ChIJPdTx2mNSjl8Rl2e9OtvOzQg,39.3906159,140.0512146,google_places
不明,ローソン 本荘マリーナ店,秋田県由利本荘市石脇田尻１−８８,ChIJZ9VBs3dSjl8RUevT5A1gduQ,39.3937046,140.0292628,google_places
不明,イオンスーパーセンター 本荘店,秋田県由利本荘市石脇田中１３８１３８番地,ChIJ-wgEL3RSjl8RJlgi77Fv91U,39.3916174,140.0273777,google_places
不明,薬王堂 男鹿船川店,秋田県男鹿市船川港船川海岸通り一号８−３,ChIJQVSoQ8QjkF8RWyWGj4dn71c,39.8834264,139.8501227,google_places
ツルハドラッグ,ツルハ薬局 男鹿みさき店,秋田県男鹿市船川港船川海岸通り一号８−５,ChIJF8QgYWwikF8Rmek5Ct0ZPiE,39.8832397,139.8518065,google_places
不明,さかえ薬局 くすりのさかえ,秋田県男鹿市船川港船川栄町２４,ChIJYwfDSGkikF8RLvMRh0Hu1qU,39.88435399999999,139.846875,google_places
不明,DCMニコット 男鹿北浦店,秋田県男鹿市北浦北浦五輪野１５６−５,ChIJbdkgIzcWkF8RmGvUUC1J3T8,39.9558824,139.7821413,google_places
不明,ダイソー マックスバリュ男鹿店,秋田県男鹿市脇本脇本石館３１−１,ChIJQ0K1wh0ZkF8R56Zs1r5xfyY,39.9094013,139.9084233,google_places
不明,天野ストアー,秋田県男鹿市脇本脇本脇本１５６−１,ChIJQ4SMAucYkF8RF5rO1fU9zMM,39.904159,139.902976,google_places
不明,ドコモショップ男鹿店,秋田県男鹿市船越内子２９４−２０３９,ChIJh3-UlC8ZkF8R1qGCnFiJ20c,39.9036881,139.9325477,google_places
不明,くすりの谷口,秋田県男鹿市船越内子３５８−３５,ChIJ70zVLysfkF8Rbt4Hz-HPGY4,39.89933509999999,139.9440323,google_places
不明,菅原薬店,秋田県男鹿市船川港船川化世沢１７５−３２,ChIJ90ejPkAikF8Rq_xWIsHd_iQ,39.8793477,139.8453345,google_places
不明,マックスバリュ男鹿店,秋田県男鹿市脇本脇本石館１６,ChIJ-9Y99R0ZkF8RltrSetSI6DA,39.9094754,139.9070336,google_places
不明,Can★Do キャンドゥ 男鹿船川店,秋田県男鹿市船川港比詰大巻１４４−１,ChIJqQV4MSgZkF8R2Y7ZQjmeNkw,39.9017684,139.8624824,google_places
不明,Agu hair cape 男鹿,秋田県男鹿市船越内子２１８−１男鹿なまはげモール,ChIJxX2uYaIZkF8R83aNvq5FvjI,39.9025275,139.9370553,google_places
不明,武田精肉店,秋田県男鹿市船川港船川外ケ沢１２５−１１,ChIJIVyeYmoikF8RMhyusM_AGhk,39.8807075,139.8461709,google_places
不明,旧若美薬店,秋田県男鹿市船川港船川船川１７５,ChIJKSgjTAAjkF8RCgKug_z9i4w,39.8830159,139.8454459,google_places
ツルハドラッグ,ツルハドラッグ 秋田仁井田店,秋田県秋田市仁井田新田２丁目５−１６,ChIJm_2oGsTDj18R9P5guFxV-EM,39.6788306,140.1255576,google_places
ツルハドラッグ,ツルハドラッグ 秋田手形店,秋田県秋田市手形山崎９２−３３,ChIJuV7jVEbDj18RatdbhjMivq0,39.72087,140.131667,google_places
ツルハドラッグ,ツルハドラッグ 秋田広面店,秋田県秋田市広面樋ノ沖９３−１,ChIJ9-FI7YbCj18RGHss3uj_Er8,39.7166839,140.1490168,google_places
ツルハドラッグ,ツルハドラッグ 秋田中通店,秋田県秋田市中通２丁目１−４６,ChIJ4a5F8yXDj18Rif5kbJw2vtM,39.716523,140.122862,google_places
不明,ハッピー・ドラッグ 秋田新屋店,秋田県秋田市新屋鳥木町３−２,ChIJv6zH2ArDj18RLJopjQHLjZs,39.67582549999999,140.0893124,google_places
ツルハドラッグ,ツルハドラッグ 秋田山王店,秋田県秋田市山王５丁目７−１６,ChIJVROPSdbDj18Rt3j5azwTk-I,39.7148638,140.1043182,google_places
ツルハドラッグ,ツルハドラッグ 東通店,秋田県秋田市東通８丁目１−３１,ChIJEfqBK4rCj18RiEyjcSNxdLY,39.7121966,140.1411402,google_places
ツルハドラッグ,ツルハドラッグ 外旭川店,秋田県秋田市外旭川小谷地33番地1,ChIJEwmoU2Ddj18RzgwiFEL2a0Q,39.7521485,140.0975658,google_places
不明,ハッピー・ドラッグ 秋田保戸野店,秋田県秋田市保戸野原の町１５−８,ChIJEXKg-IbDj18RyH5yFGAVZSU,39.7285255,140.1153003,google_places
不明,スーパードラッグメガ 新国道店,秋田県秋田市八橋鯲沼町１０−１１,ChIJA1MLJ73dj18Rp7KLbiYpRso,39.7329403,140.099619,google_places
ツルハドラッグ,ツルハドラッグ 秋田寺内店,秋田県秋田市寺内油田１丁目４−１０,ChIJ4V6MGzTdj18RzwnwK0EnWmc,39.7322208,140.0911373,google_places
ツルハドラッグ,ツルハドラッグ 秋田川尻店,秋田県秋田市川尻御休町５−２７,ChIJI2WLc9_Cj18RBcblI_w0phI,39.713507,140.096519,google_places
ツルハドラッグ,ツルハドラッグ 秋田牛島店,秋田県秋田市仁井田二ツ屋１丁目４−５５,ChIJ02UAYFnDj18ReSNbcZsnB_g,39.6939332,140.1224318,google_places
ツルハドラッグ,ツルハドラッグ 秋田楢山店,秋田県秋田市楢山川口境４−２１,ChIJQ2kOmv3Cj18R244faVhab9c,39.7041989,140.110616,google_places
サンドラッグ,サンドラッグ 八橋大畑店,秋田県秋田市八橋大畑１丁目６−３７,ChIJ6SsgzEvdj18Ry2UtLH7q32o,39.7349519,140.0985724,google_places
ツルハドラッグ,ツルハドラッグ 秋田八橋店,秋田県秋田市八橋新川向８−３０,ChIJp29nwYbDj18RtxqcvSxc7eA,39.7284601,140.1040747,google_places
マツモトキヨシ,薬 マツモトキヨシ 秋田駅ビルALS店,秋田県秋田市中通７丁目２−１,ChIJ0VNXkSXDj18RrPKpeGeMIPs,39.7176956,140.1287829,google_places
セイムス,ドラッグセイムス 秋田新屋店,秋田県秋田市新屋豊町６−３７,ChIJgU-F16_Dj18RzigLVwUJuVU,39.7049669,140.0867217,google_places
ツルハドラッグ,ツルハドラッグ 秋田広面西店,秋田県秋田市広面鍋沼10−１,ChIJzfYEmirDj18Rjc5GCgUm6VM,39.7158555,140.1481809,google_places
不明,スーパードラッグアサヒ 秋田中央店,秋田県秋田市泉北４丁目３−２,ChIJSVa1vVLdj18RyiCnG11HZxs,39.7368663,140.110446,google_places
ツルハドラッグ,ツルハドラッグ 秋田将軍野店,秋田県秋田市将軍野東３丁目６−４１,ChIJF5CNlH3dj18RKpWamKaFjy0,39.7589967,140.0878094,google_places
不明,ハッピー・ドラッグ 秋田土崎東店,秋田県秋田市土崎港東３丁目２−２６,ChIJqQ6yXADdj18RpP6LUIjh6FI,39.7574339,140.0769953,google_places
ツルハドラッグ,ツルハドラッグ 秋田御所野店,秋田県秋田市御所野元町１丁目１−１７,ChIJd4BBqBLBj18RwURseL8dowc,39.6613108,140.1638474,google_places
ツルハドラッグ,ツルハドラッグ 秋田泉北店,秋田県秋田市泉北１丁目１７−３４,ChIJPdZDwDHdj18RVv6WZnDresc,39.73411979999999,140.1019578,google_places
マツモトキヨシ,薬 マツモトキヨシ イオンモール秋田店,秋田県秋田市御所野地蔵田１丁目１−１,ChIJCakdX3nBj18RO_yYeHNEPM8,39.6635815,140.1614645,google_places
ツルハドラッグ,ツルハドラッグ 秋田川尻西店,秋田県秋田市川尻大川町２−１５,ChIJWfaZ2S_Dj18Rd8CniQ7yqVw,39.7118976,140.0931931,google_places
不明,薬王堂 秋田東通店,秋田県秋田市東通７丁目７−１６,ChIJSRbx0qDDj18R7Em-P2rjrAg,39.7116436,140.137729,google_places
不明,薬王堂 秋田茨島店,秋田県秋田市卸町５丁目６−１,ChIJm2sPlqfDj18Rj-pilAeCXv4,39.6939868,140.105288,google_places
不明,スーパードラッグアサヒ 八橋店,秋田県秋田市寺内蛭根１丁目１５−２８,ChIJT7CxSS3dj18ROljhvCKeitY,39.7266962,140.0872491,google_places
不明,スーパードラッグアサヒ 秋田勝平店,秋田県秋田市新屋松美町１１−３８,ChIJByLZoWzDj18R-GerVCMZJW4,39.6987367,140.0792933,google_places
不明,スーパードラッグアサヒ 外旭川店,秋田県秋田市外旭川四百刈２２,ChIJ65vGk_Ldj18RIFabgduvWbw,39.7490684,140.0984679,google_places
不明,薬王堂 秋田外旭川店,秋田県秋田市外旭川小谷地６１,ChIJ9aiKnGHdj18Rq1XTYq7mOEg,39.7531914,140.0955577,google_places
不明,MEGAドン・キホーテ 秋田店,秋田県秋田市旭北錦町４−５８,ChIJFTQP5-fCj18R1Jtvi75bgIA,39.714795,140.109377,google_places
不明,アイン薬局 中通店,秋田県秋田市南通築地２−３１,ChIJcQ_BkvHCj18RD9eLP1lyDac,39.71116800000001,140.123729,google_places
不明,あかぶね薬店,秋田県秋田市大町３丁目５−１６,ChIJ0VXP_cHCj18RcvDhWojyU7U,39.7181289,140.1138591,google_places
不明,ポプラ薬局,秋田県秋田市中通４丁目１−４０,ChIJS1-vTuzCj18RhFd563lz8jw,39.7145228,140.1222507,google_places
不明,秋田ロフト,秋田県秋田市中通２丁目８−１フォンテAKITA2階,ChIJG7TOGJPCj18R3eNs0jAIFwA,39.7163149,140.1276197,google_places
ツルハドラッグ,ツルハドラッグ 能代店,秋田県能代市寺向７３,ChIJfxq4mHyfml8RqFJ_6nFXPRQ,40.182435,140.052287,google_places
ツルハドラッグ,ツルハドラッグ 能代花園店,秋田県能代市花園町２６−２６,ChIJ56HxRnafml8RORBeh5PqplA,40.19969220000001,140.0232047,google_places
不明,スーパードラッグアサヒ 能代店,秋田県能代市東大瀬５−１,ChIJowEBPg2fml8RQnkTxzYH970,40.191792,140.03576,google_places
ツルハドラッグ,ツルハドラッグ 向能代店,秋田県能代市落合下大野78番地,ChIJF_wVTcmeml8Rxa2c9VsOquk,40.2229339,140.0312163,google_places
不明,メガ 能代中央店,秋田県能代市寿域長根３９−８,ChIJgRFGlQmfml8RYjC86v7mWYo,40.191274,140.0234412,google_places
不明,薬王堂 能代寺向店,秋田県能代市寺向９３−１,ChIJ897j0WSfml8R8qdEIESFu-I,40.1842719,140.0519915,google_places
不明,薬王堂 能代出戸店,秋田県能代市出戸後６−２３,ChIJ84N2qy2fml8R-gcivw0iUSg,40.197328,140.0250175,google_places
不明,薬王堂 能代落合店,秋田県能代市落合下前田１９３,ChIJbfgONcieml8RvqZpDyaLk9c,40.2242462,140.0251226,google_places
不明,イオンスタイル能代東,秋田県能代市鰄渕古屋布１−番,ChIJ10OdPeKhml8RTOaZ2jiCliE,40.1876881,140.0810437,google_places
不明,さくら薬局 能代店,秋田県能代市落合上悪土１６３,ChIJj2dwJ8ieml8R9wpvNPemUdk,40.22455799999999,140.023493,google_places
不明,イオン 能代店,秋田県能代市柳町１１−１,ChIJHeMV6OCeml8RtKPwWUvnZWM,40.2090326,140.0246504,google_places
不明,池田薬局 能代おちあい,秋田県能代市落合上悪土２１６−３,ChIJM9wr5beeml8RvHT4VR5ccEk,40.2243305,140.0214993,google_places
不明,イオンタウン能代,秋田県能代市鰄渕古屋布１番,ChIJtaOXJf-fml8RBQy619QaAqs,40.1880627,140.0819617,google_places
不明,ＤＣＭ能代店,秋田県能代市西大瀬１８−１,ChIJAyMWsw2fml8RbC24BRXZaa0,40.1924972,140.0328259,google_places
不明,クオール薬局樽子山店,秋田県能代市追分町２−５１,ChIJxYqa7h6fml8RuiJYruLtqSE,40.20433000000001,140.02971,google_places
不明,大越薬舗,秋田県能代市豊祥岱１−１２,ChIJvTqnkAufml8RoxbbqEYzHOI,40.1908794,140.0293361,google_places
不明,赤玉薬局 川反町店,秋田県能代市川反町１−２５,ChIJSxBEQt2eml8RXIyp1iourYw,40.2132745,140.0224539,google_places
不明,アイン薬局 能代二ツ井店,秋田県能代市二ツ井町比井野９２,ChIJrZ9vAdC8ml8RrKAy9B4VR0M,40.20553719999999,140.2378783,google_places
不明,ザ・ビッグ 能代高塙店,秋田県能代市高塙１４０−１,ChIJtaV5jnqfml8Rc-0ZDiSlAn0,40.184596,140.047246,google_places
不明,アクロス能代,秋田県能代市寺向７４,ChIJRX4MrHyfml8R7P_SIVd_yyE,40.1832296,140.0528366,google_places
不明,赤玉薬局 中和本店,秋田県能代市中和１丁目６−４,ChIJw1A2-Bqfml8RZznx6gHrFgA,40.1996927,140.0297067,google_places
不明,赤玉薬局 落合店,秋田県能代市落合上悪土１６６,ChIJo3nbKMieml8R4YUF_9QnYZY,40.2246144,140.0240126,google_places
不明,神山スパーク薬品(置き薬),秋田県能代市松長布３０１−１５,ChIJfdDMiXCfml8RI-vTydklDA0,40.1853478,140.0449679,google_places
不明,クオール薬局二ツ井店,秋田県能代市二ツ井町荷上場鍋良子出口１０３−１,ChIJzeZW3eG8ml8R074g9r_AWkc,40.2171603,140.244322,google_places
不明,いとく 能代南店,秋田県能代市寿域長根５２−３,ChIJ1eP78Qufml8RskveFfzzYJ0,40.19212479999999,140.0278903,google_places
不明,やまや 能代店,秋田県能代市下野２４−１,ChIJ10qCRdqfml8RAXMYFRYKyHk,40.1879698,140.0401941,google_places
不明,デイリーヤマザキ 東成瀬店,秋田県雄勝郡東成瀬村田子内大橋場１３−１,ChIJqeyFoQcij18RcpPq0cw6F98,39.18483459999999,140.6364964,google_places
不明,日本調剤 羽後薬局,秋田県雄勝郡羽後町南西馬音内１６９−３,ChIJpahJnkXijl8Rp6rZG7_c-e0,39.1957396,140.4083034,google_places
不明,オノザキ薬店,秋田県雄勝郡羽後町貝沢拾三本塚５−５,ChIJSYrodBHijl8Rjo2Ql0QBOpI,39.1951611,140.4385967,google_places
不明,くすりの健生堂,秋田県雄勝郡羽後町西馬音内本町１０５,ChIJjaYYq1vijl8R5i4EcMn40Kg,39.1993452,140.4049047,google_places
不明,ＤＣＭ羽後店,秋田県雄勝郡羽後町南西馬音内２３０−１,ChIJx5bnukjijl8R7fyNT-aSWHE,39.1932791,140.4091651,google_places
不明,薬王堂鹿角花輪店,秋田県鹿角市花輪鉄砲１８−１,ChIJA_cCx3TSml8Ro5ZxcpG3j7k,40.2232382,140.787288,google_places
不明,ハッピー・ドラッグ 鹿角花輪店,秋田県鹿角市花輪上花輪２３７,ChIJr_tu5RfNml8RDfFo6_y7y4U,40.1859534,140.7879305,google_places
ツルハドラッグ,ツルハドラッグ 鹿角店,秋田県鹿角市花輪下タ町２０２,ChIJZ3yYInHNml8RZkYe2WQb-rY,40.2009577,140.7933308,google_places
ツルハドラッグ,ツルハドラッグ 鹿角中央店,秋田県鹿角市花輪下中島８２−１,ChIJ5dx8DRHNml8RhfUipQCnSQk,40.189823,140.787506,google_places
ツルハドラッグ,ツルハドラッグ 毛馬内店,秋田県鹿角市十和田毛馬内南陣場30番地1,ChIJT-DxKbvRml8R1wlvLSRzBeI,40.262744,140.7689352,google_places
不明,ハッピー・ドラッグ 鹿角毛馬内店,秋田県鹿角市十和田毛馬内中陣場１１１−１,ChIJiYI3SKLRml8RS3ZJIuy5-JM,40.26199340000001,140.7709407,google_places
不明,薬王堂 鹿角花輪高井田店,秋田県鹿角市花輪高井田59−３３,ChIJ49y8VgDNml8RgxkiPStZj24,40.18052369999999,140.7865833,google_places
クスリのアオキ,クスリのアオキ マルホンカウボーイ 花輪店,秋田県鹿角市花輪高井田５７,ChIJKyYysCbNml8RXW9Uq0jq83k,40.1796973,140.7870376,google_places
クスリのアオキ,クスリのアオキ鹿角店,秋田県鹿角市花輪小深田２９２,ChIJN2scegDNml8R_Go69fDOwyw,40.2172231,140.7900307,google_places
不明,日本調剤 鹿角薬局,秋田県鹿角市花輪小沼９７−３,ChIJI9Po3xPNml8Ri70TPOpQbSA,40.217425,140.784714,google_places
不明,クスリきむら いとく鹿角ショッピングセンター店,秋田県鹿角市花輪下タ町１６４−１,ChIJX_VVnXHNml8RtuwA0tMzk48,40.19964900000001,140.793111,google_places
不明,杉本健康堂駅前店,秋田県鹿角市花輪下中島９６,ChIJb-4Y0BbNml8R1qVU-KIkTbM,40.1893901,140.7870705,google_places
不明,いとく鹿角ショッピングセンター,秋田県鹿角市花輪下タ町下夕町１６４−１,ChIJ65a2d3HNml8RkzkOFhdYVH4,40.1995747,140.7930893,google_places
不明,タムラ泰生堂,秋田県鹿角市花輪中花輪５３,ChIJSTjNiRbNml8Rqw0QbN0boZ8,40.1887946,140.7899459,google_places
不明,ワークマンプラス 鹿角店,秋田県鹿角市花輪寺ノ後４６,ChIJi8-KASfNml8R9HYxe718fJs,40.19442979999999,140.7874007,google_places
不明,ヤマダデンキ ヤマダアウトレット鹿角店,秋田県鹿角市花輪向畑１１１番,ChIJkWNda4rNml8REEvK6g3f5mY,40.2195759,140.7871971,google_places
不明,サンデー花輪店,秋田県鹿角市花輪蒼前平62番地2,ChIJpdAH9IbNml8RjefDtZzoVJM,40.2130626,140.7907788,google_places
不明,いとく 花輪店,秋田県鹿角市花輪上中島８８,ChIJ6fA2cBfNml8R5FSbKLhB9nI,40.1875831,140.7859664,google_places
不明,ユニバース 毛馬内店,秋田県鹿角市十和田毛馬内中陣場１０１,ChIJV8iGNLvRml8Rs4uNIJxN6eg,40.262474,140.770286,google_places
不明,ケーズデンキ 鹿角花輪店,秋田県鹿角市花輪扇ノ間９８−１,ChIJQY040XbNml8RNU6DwDX7TDM,40.202,140.79194,google_places
不明,ダイソー 生活雑貨館いとく鹿角店,秋田県鹿角市花輪字夕町１６４−１,ChIJjxzkeB7Nml8RWeSBkCfwnNs,40.1989911,140.792803,google_places
不明,ドコモショップ鹿角店,秋田県鹿角市花輪上中島63−２,ChIJ2Vp8CRfNml8RtMiQ3xgSxW0,40.1877311,140.787159,google_places
不明,ヤマト運輸 秋田かづの営業所（秋田かづの）,秋田県鹿角市花輪小深田２７３−３,ChIJEbSZ0IfNml8RmMgHJjXcHQE,40.2152061,140.7903176,google_places
不明,花輪温泉ゆたろう,秋田県鹿角市花輪大川添５５−１,ChIJsz1vCg7Nml8RSuN8oEL1JZY,40.194663,140.7809897,google_places
不明,アクア 鹿角店,秋田県鹿角市花輪扇ノ間２−３,ChIJ_cWMYXHNml8R3j6V4yZ9_8I,40.1998748,140.7917022,google_places
不明,Can★Do 毛馬内店,秋田県鹿角市十和田毛馬内南陣場３０−１,ChIJSRVDgafRml8R6UH9mRwCxFE,40.2627183,140.7689881,google_places
キョーリン,キョーリン製薬グループ工場㈱(Kyorin) 能代工場,秋田県能代市松原１,ChIJCQvoAdaeml8RXFsbg40FQTk,40.216741,140.0449803,google_places
キョーリン,キョーリン製薬グループ㈱(Kyorin) 能代工場 東能代寮,秋田県能代市宮ノ前８,ChIJF8MsRoOfml8R0Hq6tXIYpiE,40.1875523,140.0702032,google_places
キョーリン,キョーリン製薬グループ工場 東能代寮,秋田県能代市宮ノ前９−１,ChIJ3XLOfwCfml8RoTZhkizT4ms,40.188553,140.0708394,google_places
クリエイト,㈱クリエイト 秋田営業所,秋田県秋田市川尻町大川反７３−１,ChIJQQBdeCHDj18R5kksIq-KwFI,39.7106853,140.0899916,google_places
クリエイト,㈱クリエイトホームズ 本店,秋田県秋田市山王３丁目１−１６,ChIJYYkLnsPCj18RweIbDY8SFk4,39.7190658,140.1071174,google_places
クリエイト,㈱アイ･クリエイト,秋田県横手市安田向田２０２,ChIJs07ClgEQj18RmPTmvi-K3Fw,39.2981397,140.5513652,google_places
クリエイト,ヘアーサロン・クリエイト,秋田県秋田市御所野元町２丁目１−４,ChIJu7dj23LBj18RkbBzO9zk_eE,39.6628835,140.1649109,google_places
クリエイト,株式会社ジャパンクリエイト 大仙営業所,秋田県大仙市朝日町１９−３21ヴァンティアン2F,ChIJN2ycsIuhj18RmCD3CW3Fk7E,39.4664563,140.4755186,google_places
クリエイト,create クリエイト,秋田県横手市雄物川町東里東里西7−５,ChIJ65rEAfEDj18RNXEZb3TsbO8,39.2772486,140.4447418,google_places
クリエイト,㈱システムクリエイト,秋田県秋田市山王中島町３−５,ChIJK0xa8djCj18RTvSoV8rKu6I,39.7159261,140.0921644,google_places
クリエイト,株式会社ジャパンクリエイト機械保全トレーニングセンター,秋田県秋田市御所野下堤３丁目１−１内TianmaJapan株式会社秋田工場,ChIJhU2Byd_Bj18RcPVvszy4A_A,39.6663759,140.1639439,google_places
クリエイト,㈱アイ･クリエイト 生産センター,秋田県横手市神明町５−１２,ChIJsQ0shQURj18RoRcs4wyPGDM,39.3080528,140.5670774,google_places
クリエイト,大館リクリエイト,秋田県大館市館下字２３−７Recreate-リクリエイト,ChIJbQS0pSfEml8RS2izjEbKPLM,40.275825,140.549021,google_places
クリエイト,クリエイト麗華,秋田県横手市三本柳街道下２１９−２,ChIJRzpsrpkPj18RhmC8UjUKtf0,39.3214638,140.5388797,google_places
クリエイト,ホームクリエイト２,秋田県秋田市桜３丁目７−６ホームクリエイト２,ChIJSZu3NmPCj18R1gLqTfa5MnA,39.7110692,140.1521173,google_places
クリエイト,株式会社ATcreate(エーティクリエイト),秋田県大館市柄沢７６,ChIJ02BUvtvFml8RrxmMnwxMp1A,40.2629704,140.5791317,google_places
クリエイト,ホームクリエイト2,秋田県秋田市桜３丁目７−６,ChIJoa9GPgDDj18RWqVHjdWScww,39.7110693,140.1521123,google_places
クリエイト,イワタクリエイトスクエア,秋田県秋田市南通亀の町６−１９,ChIJ8-uWhuvCj18RphCKJIWKbzs,39.7112522,140.1195298,google_places
クリエイト,秀和クリエイト㈱,秋田県横手市前郷一番町１３−１７秀和ビル３階,ChIJOSgTff4Pj18RuUdAmL5Akus,39.3104986,140.5640249,google_places
クリエイト,ハイクリエイトＮＫビル,秋田県秋田市大町３丁目４ハイクリエイトＮＫビル,ChIJs72aG-rCj18RCxwN0nZzaWE,39.7175797,140.1148043,google_places
クリエイト,ボナンザクリエイト合同会社,秋田県由利本荘市石脇山ノ神１１−４４９,ChIJqwWu_WFSjl8RDnkeufm2kYM,39.4045924,140.0341881,google_places
コスモス,草生津川コスモスロード,秋田県秋田市八橋本町５丁目５,ChIJRfhcuc3Cj18R_xqz9ixl6dU,39.7257938,140.0939926,google_places
コスモス,コスモス広場,秋田県秋田市八橋大道東１,ChIJRYsxUjPdj18Rmb-0U84xpLE,39.7291114,140.0935915,google_places
コスモス,コスモス畑,秋田県由利本荘市西沢南由利原３５８,ChIJq3_xWAD3jl8R72LjeUDJA8M,39.238627,140.0696795,google_places
コスモス,コスモス,秋田県秋田市新屋前野町９−２５コスモス,ChIJ-zU9nnXEj18RwCH5MCcnB_g,39.6716753,140.0891628,google_places
コスモス,コスモス自然形体院 秋田出張所,秋田県秋田市仁井田栄町１３−１７,ChIJ6_9EPcjDj18R-njPPvnb6_0,39.6842785,140.1271797,google_places
コスモス,フレグランスコスモス,秋田県秋田市牛島東４丁目１−１フレグランスコスモス,ChIJMyWRaavDj18RJll4jcygS_o,39.6969711,140.1190654,google_places
コスモス,コスモス,秋田県秋田市新屋前野町８,ChIJ3X6VFQDFj18Rp13UmwvH_n0,39.67130909999999,140.0888807,google_places
コスモス,指定障害福祉サービス事業所コスモス,秋田県能代市万町１０−４,ChIJbfDVG9ueml8RStbvcKaHiMY,40.215803,140.029762,google_places
コスモス,コスモスハイツ,秋田県秋田市手形山崎町１０−２８,ChIJ63xdOQDDj18Rh3QACVCSQCI,39.7244449,140.1340186,google_places
コスモス,条里コスモス眼科,秋田県横手市条里１丁目１０−１７,ChIJ4eazJlQFj18RzpxU-VSr_Ss,39.3086506,140.5528184,google_places
コスモス,コスモス自然形体院,秋田県湯沢市関口１５−２,ChIJN7n464fgjl8R613_5RtJsIc,39.135235,140.488656,google_places
コスモス,アーバンコスモス,秋田県秋田市中通６丁目４−８,ChIJ__8b-O3Cj18RTnQnIDfnfqY,39.7125139,140.1238461,google_places
コスモス,コスモス美容院,秋田県仙北市田沢湖小松城廻２８,ChIJUY9Yu4eaj18RZVWhb3g9c3I,39.6069296,140.5680637,google_places
コスモス,㈳コスモス成年後見サポートセンター 秋田県支部,秋田県能代市鳳凰岱１２７−１１,ChIJH6rzZgefml8R8VJFirdLusI,40.1952191,140.0151089,google_places
コスモス,アーバンコスモス,秋田県秋田市千秋久保田町６−５５,ChIJX1k7dADDj18Rw7zKv0_lXNw,39.7195234,140.1270768,google_places
コスモス,デイサービスセンターコスモス,秋田県湯沢市相川碇１０８,ChIJq3JClDvcjl8RPWfucEZtfmo,39.0774863,140.4922702,google_places
コスモス,コスモス駐車場｜パークダイレクト,秋田県秋田市手形山崎町１０−１３,ChIJdTamGADDj18RLZSyllx66EQ,39.7240706,140.1339093,google_places
コスモス,コスモス理容,秋田県湯沢市岩崎北３条８０,ChIJ1QkMh34ej18RGegsEnWnjdk,39.206514,140.509761,google_places
コスモス,コスモス美容室,秋田県能代市出戸本町７−３５,ChIJ1fZAnxqfml8R4f1vwAl-bPs,40.198286,140.030232,google_places
コスモス,コスモスパーク,秋田県湯沢市高松戸平１８７,ChIJz5GJdM_djl8RtBei8DviJIQ,39.0675731,140.5044712,google_places
サンドラッグ,サンドーラ,秋田県大仙市福田町１３−３８,ChIJEc50MB2hj18RhNpGuF6ERu8,39.469282,140.4870761,google_places
ツルハドラッグ,調剤薬局ツルハドラッグ 秋田広面西店,秋田県秋田市広面鍋沼10番地1,ChIJ-adLfADDj18RzapYx-2l1-A,39.71583529999999,140.148288,google_places
ハッピードラッグ,ハッピーランドリー,秋田県仙北市田沢湖生保内浮世坂５４,ChIJ74EQS12Ij18RoweB7-JVdbg,39.6976003,140.7226989,google_places
ハッピードラッグ,ホームセンター ハッピー 横手店,秋田県横手市横手町五ノ口８６−１,ChIJG9WBG_cPj18RgzErq747yns,39.3132776,140.5472604,google_places
ハッピードラッグ,ハッピータウン,秋田県横手市条里３丁目２,ChIJeSEECfcPj18RCzER2F3NW_A,39.3150078,140.5537672,google_places
ハッピードラッグ,ハッピーモール,秋田県横手市横手町五ノ口３７−１,ChIJ4aLN4F0Fj18RKAk2BsrHkyQ,39.3139962,140.5468728,google_places
ハッピードラッグ,ホームセンターハッピー本荘店,秋田県由利本荘市石脇田中１２,ChIJTdXYf3NSjl8RBzKmbZGx0KE,39.389581,140.026832,google_places
ハッピードラッグ,ホームセンターハッピー 湯沢店,秋田県湯沢市両神１００−１,ChIJb2su6cThjl8RAjx6lpveNJA,39.1727457,140.4782227,google_places
杏林堂,杏林堂,秋田県能代市南元町３−６０,ChIJKylxLh-fml8RO0SW7uuq2UQ,40.204207,140.032568,google_places
ツルハドラッグ,ツルハドラッグ 大仙協和店,秋田県大仙市協和境字岸館73番地1,official_95e3cf3670d148ee,39.60647242025992,140.3296025810838,official_tsuruha
ツルハドラッグ,ツルハドラッグ 刈和野店,秋田県大仙市刈和野字沼田12-1,official_abbf8b76fd8ba74b,39.54714220390137,140.36762807010723,official_tsuruha
ツルハドラッグ,ツルハドラッグ 中仙店,秋田県大仙市柳田61番地,official_e94696960f3df359,39.5451821,140.5390782514,official_tsuruha
ツルハドラッグ,ツルハドラッグ 秋田御所野店,秋田県秋田市御所野元町1丁目1番17号,official_ffb85d91d7588667,39.66131081353718,140.16384742437523,official_tsuruha
ツルハドラッグ,ツルハドラッグ 秋田広面北店,秋田県秋田市広面字蓮沼94-1,official_7a05aabbf61642bb,39.72583071944427,140.15054980227595,official_tsuruha
ツルハドラッグ,調剤薬局ツルハドラッグ 秋田広面店,秋田県秋田市広面字樋ノ沖93-1,official_9dd90f9c906fb565,39.716676276434434,140.14901917312775,official_tsuruha
ツルハドラッグ,調剤薬局ツルハドラッグ 秋田広面西店,秋田県秋田市広面字鍋沼10番地1,official_d8b7ceb210b3143b,39.7158352856114,140.148287999969,official_tsuruha
ツルハドラッグ,ツルハドラッグ 秋田広面西店,秋田県秋田市広面字鍋沼10-1,official_76afac7f62fa6f88,39.715855470078345,140.14818093903958,official_tsuruha
ツルハドラッグ,調剤薬局ツルハドラッグ 東通店,秋田県秋田市東通8丁目1番31号,official_94e32ed4348f1cfe,39.71214572723404,140.14119164955372,official_tsuruha
ツルハドラッグ,調剤薬局ツルハドラッグ 秋田手形店,秋田県秋田市手形字山崎92-33,official_30a6c1f12d2708f0,39.7201994094107,140.131613327163,official_tsuruha
ツルハドラッグ,調剤薬局ツルハドラッグ 秋田仁井田店,秋田県秋田市仁井田新田2丁目5番16号,official_7161f650ae7d865e,39.678952,140.125855,official_tsuruha
ツルハドラッグ,ツルハドラッグ 秋田牛島店,秋田県秋田市仁井田二ツ屋1丁目4番55号,official_3bc690fbedd98a80,39.6935411469538,140.123328712362,official_tsuruha
ツルハドラッグ,ツルハドラッグ 田沢湖店,秋田県仙北市田沢湖生保内字街道ノ上71-1,official_2e3dba9f1b8feb0a,39.70042864691799,140.72834520203514,official_tsuruha
ツルハドラッグ,ツルハドラッグ 秋田中通店,秋田県秋田市中通2丁目1-46,official_1649c99315452795,39.716523,140.122862,official_tsuruha
ツルハドラッグ,ツルハドラッグ 若竹町店,秋田県大仙市若竹町33-11,official_1f17adf2342daee5,39.46882052499028,140.4700546656955,official_tsuruha
ツルハドラッグ,調剤薬局ツルハドラッグ 大曲福田店,秋田県大仙市福田22番23-6号,official_6c7988f2cfa30e22,39.47022143480057,140.48122651463794,official_tsuruha
ツルハドラッグ,ツルハドラッグ 大曲福田店,秋田県大仙市福田町22番23-6号,official_55dc1cdb8db98197,39.470211671196175,140.48119078096823,official_tsuruha
ツルハドラッグ,調剤薬局ツルハドラッグ 秋田泉南店,秋田県秋田市泉南3丁目23番24号,official_d90ab4dec3bed6ec,39.730427,140.115396,official_tsuruha
ツルハドラッグ,ツルハドラッグ 秋田楢山店,秋田県秋田市楢山川口境4番21号,official_75d3a50d9df4b1fc,39.70419894505296,140.11061600895246,official_tsuruha
ツルハドラッグ,ツルハドラッグ 秋田山王店,秋田県秋田市山王五丁目7番16号,official_de0a229c8055c0e9,39.7148638,140.1043182,official_tsuruha
ツルハドラッグ,ツルハドラッグ 秋田八橋店,秋田県秋田市八橋新川向8-30,official_5addf9e01584ddbb,39.728460091235725,140.10407467637486,official_tsuruha
ツルハドラッグ,ツルハドラッグ 大仙大曲東店,秋田県大仙市戸蒔東89,official_59a2e2817fc513fd,39.458810429683204,140.4967421258644,official_tsuruha
ツルハドラッグ,ツルハドラッグ 茨島店,秋田県秋田市茨島4丁目3-21,official_80a4883db4852ee7,39.69570257403178,140.09966032828052,official_tsuruha
ツルハドラッグ,ツルハドラッグ 秋田泉北店,秋田県秋田市1丁目17番34号,official_cef3e8c196e246d5,39.73411982943502,140.1019577783264,official_tsuruha
ツルハドラッグ,ツルハドラッグ 大曲田町店,秋田県大仙市大曲田町1番27号,official_793910edf255b781,39.45358185435709,140.48110972594307,official_tsuruha
ツルハドラッグ,調剤薬局ツルハドラッグ 秋田川尻店,秋田県秋田市川尻御休町5番27号,official_4d4b860acfcd77e1,39.713507,140.096519,official_tsuruha
ツルハドラッグ,ツルハドラッグ 秋田川尻西店,秋田県秋田市川尻大川町2番15号,official_d5b7c4e39ec2b7bf,39.71189761778185,140.0931930608215,official_tsuruha
ツルハドラッグ,調剤薬局ツルハドラッグ 外旭川店,秋田県秋田市外旭川字小谷地33番地1,official_4f12b0ac6b23a20f,39.75214471926797,140.0975833851357,official_tsuruha
ツルハドラッグ,ツルハドラッグ 大曲店,秋田県大仙市戸蒔字錨27番地,official_aa57858fd1b2e1f3,39.451502747202746,140.49565465933196,official_tsuruha
ツルハドラッグ,ツルハドラッグ 秋田寺内店,秋田県秋田市寺内油田1丁目4番10号,official_e778fdd02b6b443e,39.73222078725929,140.09113730104366,official_tsuruha
ツルハドラッグ,ツルハドラッグ 秋田将軍野店,秋田県秋田市将軍野東三丁目6番41号,official_459b8f92d2624798,39.75899671440041,140.08780940589884,official_tsuruha
ツルハドラッグ,ツルハドラッグ 美郷店,秋田県仙北郡美郷町土崎字上宿240,official_a5a2c3866d6b2b86,39.457258,140.576352,official_tsuruha
ツルハドラッグ,ツルハドラッグ 大曲川目店,秋田県大仙市川目字町東7番地,official_319f82808f7d9e29,39.430507215281786,140.48551584770132,official_tsuruha
ツルハドラッグ,ツルハドラッグ 秋田土崎店,秋田県秋田市土崎港北七丁目2番24号,official_be3c3a32af5ad591,39.76701718142139,140.06940197763,official_tsuruha
ツルハドラッグ,ツルハドラッグ 秋田中野店,秋田県秋田市字琵琶沼431番2,official_164248463d180383,39.7976309,140.0608476,official_tsuruha
ツルハドラッグ,ツルハドラッグ 美郷天神堂店,秋田県仙北郡美郷町天神堂字赤城167-1,official_8f41c8ac53a2c1c1,39.41448954477134,140.55103825826703,official_tsuruha
ツルハドラッグ,ツルハドラッグ 天王長沼店,秋田県潟上市天王字長沼9番2号,official_667177ce7c9e49c3,39.81214835018176,140.05013744456264,official_tsuruha
ツルハドラッグ,ツルハドラッグ 潟上昭和店,秋田県潟上市昭和乱橋字下畑９８番地,official_2fc6e00705bafd49,39.863013024925415,140.061686675438,official_tsuruha
ツルハドラッグ,ツルハドラッグ 五城目店,秋田県南秋田郡五城目町西磯ノ目1丁目2-3,official_791d54b4d285a816,39.94255356520518,140.11151716046237,official_tsuruha
ツルハドラッグ,ツルハドラッグ 大内店,秋田県由利本荘市大内三川字三川34番地2,official_b25d14888a18eb6d,39.44487988374681,140.1073082714611,official_tsuruha
ツルハドラッグ,ツルハドラッグ 八郎潟店,秋田県南秋田郡八郎潟町字上沖谷地47－1,official_5710ae4d53986933,39.9453076161193,140.083949153661,official_tsuruha
ツルハドラッグ,ツルハドラッグ 横手大森店,秋田県横手市大森町字大中島355番地,official_1cd26b935567693d,39.341856271095246,140.43215744661072,official_tsuruha
ツルハドラッグ,ツルハドラッグ 天王西店,秋田県潟上市天王字上江川４７-２９０,official_932e90984c9689c3,39.882800197179165,139.9827334031781,official_tsuruha
ツルハドラッグ,調剤薬局ツルハドラッグ横手平鹿病院前店,秋田県横手市横手町字五ノ口２８－１,official_4ed642cbf1579e28,39.31462700767697,140.54752659437335,official_tsuruha
ツルハドラッグ,ツルハドラッグ 横手平鹿病院前店,秋田県横手市字五ノ口２８－１,official_1de017006edaaaa5,39.314593804990366,140.54752391216434,official_tsuruha
ツルハドラッグ,ツルハドラッグ 横手寿町店,秋田県横手市寿町1番35号,official_870f27d601c94fc1,39.31323134897013,140.56357757998572,official_tsuruha
ツルハドラッグ,ツルハドラッグ 雄物川店,秋田県横手市雄物川町沼館字沼館456-1,official_68b7c89bb7e34c06,39.29499520943426,140.4308419174591,official_tsuruha
ツルハドラッグ,ツルハドラッグ 横手平和町店,秋田県横手市平和町15-31,official_bd0ccd3ff2e943d9,39.308452605479154,140.57110564471753,official_tsuruha
ツルハドラッグ,ツルハドラッグ 本荘店,秋田県由利本荘市中梵天108番,official_3ea86f6df41c5a74,39.38651457298746,140.06366145931887,official_tsuruha
ツルハドラッグ,ツルハドラッグ 米内沢店,秋田県北秋田市米内沢字東川向５,official_da756bd2b420ce1c,40.12503019164935,140.36960925765257,official_tsuruha
ツルハドラッグ,ツルハドラッグ 琴丘店,秋田県山本郡三種町鹿渡字西小瀬川157番,official_969054075a4bef30,40.03414182281343,140.07820438166456,official_tsuruha
ツルハドラッグ,ツルハドラッグ 本荘中央店,秋田県由利本荘市岩渕下18,official_1b61b27378212777,39.3906404272674,140.0506723658467,official_tsuruha
ツルハドラッグ,調剤薬局ツルハドラッグ 横手平鹿店,秋田県横手市平鹿町中吉田字竹原90-1,official_08e8bddfb6f7cf6f,39.2700799,140.4967134,official_tsuruha
ツルハドラッグ,ツルハドラッグ フレスポ本荘店,秋田県由利本荘市石脇字田頭195-2,official_8410108fb5101865,39.389356226782645,140.02790263850866,official_tsuruha
ツルハドラッグ,調剤薬局ツルハドラッグ 男鹿払戸店,秋田県男鹿市払戸字大堤127番1,official_b890cada340f8de1,39.9299934482587,139.936322201628,official_tsuruha
ツルハドラッグ,ツルハドラッグ 男鹿店,秋田県男鹿市脇本脇本字石館16,official_aa93213f24e826e1,39.90923365357806,139.90884073832376,official_tsuruha
ツルハドラッグ,ツルハドラッグ 合川店,秋田県北秋田市李岱字豊田36番1,official_2995711e7841f041,40.155312,140.313949,official_tsuruha
ツルハドラッグ,ツルハドラッグ 男鹿船川店,秋田県男鹿市船川港比詰字大巻144-1,official_6bb85a8a6f18c302,39.901841114666716,139.86227933671466,official_tsuruha
ツルハドラッグ,ツルハ薬局 男鹿みさき店,秋田県男鹿市船川港船川海岸通り一号8−5,official_901bccc7ec1ed9f0,39.883239737614,139.85180649822,official_tsuruha
ツルハドラッグ,調剤薬局ツルハドラッグ 大潟村店,秋田県南秋田郡大潟村中央1-5,official_12ca05d8518fc6fe,40.018551,139.959398,official_tsuruha
ツルハドラッグ,ツルハドラッグ 羽後店,秋田県雄勝郡羽後町字南西馬音内213,official_f05f7e11fba213e7,39.19392543818757,140.4100040953811,official_tsuruha
ツルハドラッグ,ツルハドラッグ 八竜店,秋田県山本郡三種町浜田字東浜田334番地,official_42115b91206c0a2b,40.10026174543338,140.00237196923484,official_tsuruha
ツルハドラッグ,ツルハドラッグ 能代二ツ井店,秋田県能代市二ツ井町字中坪12,official_414cda443bf3fce5,40.20798281891902,140.23443077822904,official_tsuruha
ツルハドラッグ,ツルハドラッグ 鷹巣店,秋田県北秋田市栄字中綱60番地,official_fb872caccc94341c,40.2304751,140.3765901,official_tsuruha
ツルハドラッグ,ツルハドラッグ 湯沢店,秋田県湯沢市字両神28-1,official_4101dee977c9b92e,39.17213861797532,140.48028716209035,official_tsuruha
ツルハドラッグ,ツルハドラッグ 仁賀保店,秋田県にかほ市平沢字上町田19-9,official_e5707064b28262b1,39.289134020623564,139.97346648435862,official_tsuruha
ツルハドラッグ,ツルハドラッグ 湯沢大町店,秋田県湯沢市大町二丁目1番10号,official_982b44428ffc1a76,39.163012,140.491622,official_tsuruha
ツルハドラッグ,ツルハドラッグ 東能代店,秋田県能代市鰄渕古屋布77-1,official_1c0867783c65a409,40.188987534252,140.07840745364794,official_tsuruha
ツルハドラッグ,ツルハドラッグ 大館南店,秋田県大館市字前田165,official_a527db6448d91d04,40.246706421120244,140.57161242698365,official_tsuruha
ツルハドラッグ,ツルハドラッグ 能代店,秋田県能代市字寺向73,official_365a369fd88c2720,40.182435,140.052287,official_tsuruha
ツルハドラッグ,ツルハドラッグ 鹿角中央店,秋田県鹿角市花輪字下中島82-1,official_f9548518e607e9c2,40.189823,140.787506,official_tsuruha
ツルハドラッグ,ツルハドラッグ 鹿角店,秋田県鹿角市花輪字下タ町202,official_6255806222087eb4,40.20095773053195,140.79333082069326,official_tsuruha
ツルハドラッグ,ツルハドラッグ 能代長崎店,秋田県能代市字長崎91,official_89c009150e13bd8d,40.18545300831021,140.0214876479623,official_tsuruha
ツルハドラッグ,ツルハドラッグ 大館店,秋田県大館市片山町3丁目1-1,official_566211e55c5a2fe5,40.27413544544793,140.53812451324097,official_tsuruha
ツルハドラッグ,ツルハドラッグ 能代花園店,秋田県能代市花園町26番26号,official_b39631e0ebb252e1,40.19969223019857,140.02320474813018,official_tsuruha
ツルハドラッグ,調剤薬局ツルハドラッグ 大館中道店,秋田県大館市中道二丁目2番54号,official_816b089aef17eb57,40.282456,140.554949,official_tsuruha
ツルハドラッグ,ツルハドラッグ 大館東店,秋田県大館市字大田面31番地,official_3734794da80319af,40.285337,140.573284,official_tsuruha
ツルハドラッグ,ツルハドラッグ 向能代店,秋田県能代市落合字下大野78番地,official_ce1624fe431662af,40.222933891986855,140.0312163136746,official_tsuruha
ツルハドラッグ,ツルハドラッグ 大館北店,秋田県大館市釈迦内字稲荷山下258,official_164e795b657d3389,40.295767,140.559629,official_tsuruha
ツルハドラッグ,調剤薬局ツルハドラッグ 能代北店,秋田県能代市落合字上前田161番地,official_83729a0cca0ffcf6,40.22702951299889,140.02480910418475,official_tsuruha
ツルハドラッグ,ツルハドラッグ 毛馬内店,秋田県鹿角市十和田毛馬内字南陣場30番地1,official_245a72dc2aebff33,40.262743950349915,140.7689352422473,official_tsuruha
ツルハドラッグ,ツルハドラッグ 象潟北店,秋田県にかほ市象潟町字大門先6-3,official_3a376aae45d8bc63,39.219295,139.9019257,official_tsuruha
ツルハドラッグ,ツルハドラッグ 象潟店,秋田県にかほ市象潟町字武道島149-2,official_979fe53380a8d9e5,39.20580685728201,139.90433741539408,official_tsuruha
ハッピードラッグ,ハッピー・ドラッグ 北秋田鷹巣店,秋田県北秋田市米代町5-14,official_0079f2af6638f8a7,40.220393,140.371095,official_welcia
ハッピードラッグ,ハッピー・ドラッグ 鹿角花輪店,秋田県鹿角市花輪上花輪237,official_37f44728454f1ccc,40.183209,140.791451,official_welcia
ハッピードラッグ,ハッピー・ドラッグ 大館比内店,秋田県大館市比内町扇田伊勢堂岱183-1,official_9fb25a49af10c76c,40.223393,140.591282,official_welcia
ハッピードラッグ,ハッピー・ドラッグ 能代北店,秋田県能代市落合上前田169,official_6b3fc8fb702c0432,40.223119,140.029543,official_welcia
ハッピードラッグ,ハッピー・ドラッグ 大館片山店,秋田県大館市片山町2-25-6,official_9e4fe9ab3f4ca2d0,40.270873,140.54583,official_welcia
ハッピードラッグ,ハッピー・ドラッグ 秋田新屋店,秋田県秋田市新屋鳥木町3-2,official_1cd0ae5346e0fabd,39.673207,140.09298,official_welcia
ハッピードラッグ,ハッピー・ドラッグ 能代南店,秋田県能代市東大瀬51-3,official_947930f76dfa52e0,40.18805,140.040654,official_welcia
ハッピードラッグ,ハッピー・ドラッグ 秋田保戸野店,秋田県秋田市保戸野原の町15-8,official_7d928e8c9ab59136,39.7259,140.118901,official_welcia
ハッピードラッグ,ハッピー・ドラッグ 秋田小坂店,秋田県鹿角郡小坂町小坂字五十刈10-4,official_6f220204af34807f,40.321455,140.745825,official_welcia
ハッピードラッグ,ハッピー・ドラッグ 由利本荘石脇店,秋田県由利本荘市石脇字田尻野22-13,official_a1b429eee37ce59a,39.393066,140.033975,official_welcia
ハッピードラッグ,ハッピー・ドラッグ 鹿角毛馬内店,秋田県鹿角市十和田毛馬内中陣場111-1,official_421cfe8aae37967f,40.258735,140.774404,official_welcia
ハッピードラッグ,ハッピー・ドラッグ 秋田土崎東店,秋田県秋田市土崎港東3-2-26,official_da1600d97d2fbe9e,39.754671,140.079824,official_welcia
