company,store_name,address,latitude,longitude
その他,アリスドラッグ,岩手県一関市千厩町千厩東小田９０,38.9068366,141.3272405
その他,ウメダドラッグストアー,岩手県二戸市石切所枋ノ木４９−４,40.25959539999999,141.2876221
その他,スーパードラッグアサヒ クラソ・プレイス北上店,岩手県北上市本通り２丁目２−１クラソ・プレイス北上1F,39.2887369,141.1160838
その他,スーパードラッグアサヒ 二戸店,岩手県二戸市堀野大谷地５７−１,40.295088,141.3035308
その他,スーパードラッグアサヒ一戸店,岩手県二戸郡一戸町一戸砂森１２３−１,40.2104317,141.3049598
その他,ツルハ高木店,岩手県花巻市高木第１６地割６−１,39.3864302,141.1352571
その他,ドラッグふじや,岩手県二戸市浄法寺町下前田２７−５,40.1847866,141.1557242
その他,ドラッグストアアオキ秋葉町,岩手県奥州市水沢秋葉町１３７,39.1483943,141.1455562
その他,ハッピー,岩手県久慈市川崎町７−２５,40.1895616,141.77291
その他,ハッピーヒルファーム,岩手県岩手郡岩手町土川第４地割９１−７４,39.959757,141.177335
その他,ハッピーライスいわて丸福,岩手県紫波郡矢巾町東徳田第１４地割２,39.5985994,141.1848137
その他,ファミリードラッグ たきじゅう,岩手県二戸市金田一八ツ長１２５−１,40.3133957,141.3100418
その他,ヘルシードラッグまつや,岩手県盛岡市好摩夏間木８３−１２,39.875303,141.169811
その他,レモンドラッグ,岩手県盛岡市館向町３８−１,39.7215936,141.1313039
その他,特定非営利活動法人ハックの家,岩手県下閉伊郡田野畑村菅窪２０−２,39.9250704,141.8943093
ウエルシア,ウエルシアアクロスプラザ盛岡店,岩手県盛岡市津志田南１丁目１−７アクロスプラザ盛岡内,39.6594641,141.1607783
ウエルシア,ウエルシアイオンタウン盛岡駅前店,岩手県盛岡市盛岡駅前北通１１−３０,39.70571229999999,141.1337289
ウエルシア,ウエルシア一関山目店,岩手県一関市山前田53−１,38.9347133,141.1222027
ウエルシア,ウエルシア一関山目店,岩手県一関市山目前田53-1,38.931812,141.125689
ウエルシア,ウエルシア一関末広店,岩手県一関市末広１丁目８−１８,38.9277338,141.126149
ウエルシア,ウエルシア北上さくら通り店,岩手県北上市さくら通り１丁目１−３４,39.2954069,141.1181357
ウエルシア,ウエルシア奥州江刺店,岩手県奥州市江刺八日町１丁目４−１０−２,39.1895929,141.172002
ウエルシア,ウエルシア水沢大畑店,岩手県奥州市水沢大畑小路３１,39.139815,141.1375629
ウエルシア,ウエルシア水沢大畑店,岩手県奥州市水沢字大畑小路31,39.136934,141.141051
ウエルシア,ウエルシア水沢桜屋敷店,岩手県奥州市水沢桜屋敷２９１−１,39.1239879,141.1291227
ウエルシア,ウエルシア水沢桜屋敷店,岩手県奥州市水沢字桜屋敷291-1,39.121109,141.132619
ウエルシア,ウエルシア盛岡前九年店,岩手県盛岡市前九年３丁目６−２６,39.7168875,141.1234484
ウエルシア,ウエルシア盛岡本宮店,岩手県盛岡市本宮６丁目１−６５,39.6882303,141.1259914
ウエルシア,ウエルシア盛岡本町通店,岩手県盛岡市本町通２丁目１３−８,39.70771,141.147723
ウエルシア,ウエルシア盛岡永井店,岩手県盛岡市永井２２地割37−１,39.653978,141.1546357
ウエルシア,ウエルシア盛岡西松園店,岩手県盛岡市西松園４丁目２０−１,39.7575508,141.1607638
ウエルシア,ウエルシア花巻南川原店,岩手県花巻市南川原町１２６−１,39.383479,141.1168167
カワチ薬品,カワチ薬品 一関店,岩手県一関市赤荻堺72,38.9392483,141.108
カワチ薬品,カワチ薬品 三関店,岩手県一関市三関神田１１８,38.9230699,141.1437659
カワチ薬品,カワチ薬品 前沢店,岩手県奥州市前沢向田１丁目１８,39.0483268,141.1298367
カワチ薬品,カワチ薬品 北上店,岩手県北上市北鬼柳３２地割１５,39.2850898,141.1058897
カワチ薬品,カワチ薬品 大船渡店,岩手県大船渡市大船渡町野々田１５７−７,39.0595868,141.720277
カワチ薬品,カワチ薬品 巣子店,岩手県滝沢市巣子１５６−６,39.77415999999999,141.1290562
カワチ薬品,カワチ薬品 水沢北店,岩手県奥州市水沢佐倉河東沖ノ目７８,39.1494277,141.1562803
カワチ薬品,カワチ薬品 水沢水山店,岩手県奥州市水沢水山１８５,39.1435809,141.1247611
カワチ薬品,カワチ薬品 盛岡みたけ店,岩手県盛岡市みたけ４丁目２−１,39.7420091,141.120181
カワチ薬品,カワチ薬品 矢巾店,岩手県紫波郡矢巾町西徳田第５地割88−１,39.6136109,141.1689112
カワチ薬品,カワチ薬品 花巻店,岩手県花巻市上小舟渡３４４−３,39.397107,141.1216821
コスモス,つなぎコスモスロード,岩手県盛岡市繋上猿田,39.6840417,141.029854
コスモス,ガーデンコスモス,岩手県一関市山目境７０−３ガーデンコスモス,38.9340294,141.111592
コスモス,ガーデンコスモス,岩手県一関市山目境７０−３,38.9340294,141.111592
コスモス,ケアサポートコスモス,岩手県北上市大通り４丁目１−１０,39.2853196,141.1088364
コスモス,コスモス,岩手県奥州市水沢寺小路３,39.1409885,141.1430513
コスモス,コスモス,岩手県盛岡市厨川４丁目８−１８コスモス,39.749879,141.1290233
コスモス,コスモス,岩手県盛岡市みたけ４丁目２９−６,39.7463546,141.1223635
コスモス,コスモス,岩手県盛岡市八幡町１−７,39.69804200000001,141.157411
コスモス,コスモス A,岩手県滝沢市牧野林コスモスA,39.7453896,141.1058049
コスモス,コスモス A,岩手県滝沢市牧野林３０３−５０,39.7453565,141.1058097
コスモス,コスモス B,岩手県滝沢市牧野林３０３−４９,39.7454177,141.1059698
コスモス,コスモスB,岩手県滝沢市牧野林コスモスB,39.7454177,141.1059698
コスモス,コスモスB,岩手県盛岡市天昌寺町４−６１コスモスB,39.7105482,141.1224306
コスモス,コスモスの家,岩手県久慈市夏井町夏井第３地割第3地割２２－７,40.2254387,141.748786
コスモス,コスモスの家知的障害者通所授産施設,岩手県奥州市胆沢南都田小十文字３３９−１,39.1197885,141.0672946
コスモス,コスモスハイツ,岩手県北上市大曲町９−３コスモスハイツ,39.2867283,141.1099725
コスモス,コスモスハイツ,岩手県北上市大曲町９−３,39.2867283,141.1099725
コスモス,コスモスレディースクリニック,岩手県一関市田村町５−５−５６,38.9304381,141.1320473
コスモス,コスモス・ワン,岩手県北上市柳原町３丁目１４コスモス・ワン,39.2942837,141.1147841
コスモス,コスモス公園,岩手県釜石市甲子町第５地割,39.2508349,141.7669807
コスモス,コスモス園,岩手県久慈市夏井町夏井第３地割,40.2250942,141.7485253
コスモス,コスモス治療院,岩手県滝沢市葉の木沢山１３１５−７,39.779289,141.145888
コスモス,コスモス美容室,岩手県西磐井郡平泉町平泉高田前９０−３,38.9667729,141.1220054
コスモス,コーポコスモス,岩手県北上市中野町１丁目２−４コーポコスモス,39.2872755,141.1247039
コスモス,コーポコスモス,岩手県盛岡市繋萪内沢コーポコスモス,39.6739364,141.0162701
コスモス,ドラッグコスモス,岩手県盛岡市上太田金財９２−１,39.692652,141.091334
コスモス,岩手医科大学附属病院 コスモス館,岩手県紫波郡矢巾町医大通２丁目１−１２,39.6135348,141.1636861
コスモス,秋桜（コスモス）,岩手県盛岡市青山３丁目３１−１６,39.7281236,141.1125727
サンドラック,サンドラッグ 盛南店,岩手県盛岡市向中野７丁目１４−１０,39.6756488,141.1383897
サンドラック,サンドラッグ 花巻店,岩手県花巻市桜木町２丁目７４−３,39.3825438,141.1087091
サンドラック,サンドラッグ盛岡三ツ割店,岩手県盛岡市三ツ割４丁目４−３２,39.7294429,141.160177
サンドラック,サンドラッグ盛岡上田店,岩手県盛岡市本町通３丁目１２−５,39.7108381,141.145988
サンドラック,サンドラッグ盛岡南サンサ,岩手県盛岡市津志田西２丁目１７−５０,39.6619559,141.1481884
サンドラック,サンドラッグ紫波,岩手県紫波郡紫波町日詰丸盛１９０−１,39.5575444,141.1606581
サンドラック,サンドラッグ鉈屋町,岩手県盛岡市鉈屋町１１−１１,39.6906663,141.1564348
サンドラック,サンドラッグ青山,岩手県盛岡市青山２丁目５−５５,39.726281,141.114427
ツルハドラッグ,ツルハドラッグ かど店,岩手県盛岡市門１丁目５−５０,39.67109600000001,141.1688703
ツルハドラッグ,ツルハドラッグ みたけ店,岩手県盛岡市みたけ３丁目３５−１５,39.7405491,141.1191006
ツルハドラッグ,ツルハドラッグ マリオス店,岩手県盛岡市盛岡駅西通２丁目９−１マリオス立体5F内,39.70145,141.1336541
ツルハドラッグ,ツルハドラッグ 一関中里店,岩手県一関市中里雲南６３63番地,38.9394302,141.1425002
ツルハドラッグ,ツルハドラッグ 一関中里店,岩手県一関市中里字雲南63番地,38.93943016571208,141.14250024403765
ツルハドラッグ,ツルハドラッグ 三本柳店,岩手県盛岡市三本柳５地割２８−２,39.6581092,141.1625545
ツルハドラッグ,ツルハドラッグ 上田店,岩手県盛岡市上田１丁目３−２６,39.712794,141.1474578
ツルハドラッグ,ツルハドラッグ 久慈店,岩手県久慈市長内町第２９地割29地割8-1,40.1875197,141.7839836
ツルハドラッグ,ツルハドラッグ 久慈店,岩手県久慈市長内町29地割8-1,40.18751974101599,141.7839836114494
ツルハドラッグ,ツルハドラッグ 久慈荒町店,岩手県久慈市荒町第３地割14番1,40.1922215,141.757972
ツルハドラッグ,ツルハドラッグ 八幡平バイパス店,岩手県八幡平市大更第３４地割３９２−１,39.91478499999999,141.1064037
ツルハドラッグ,ツルハドラッグ 前沢店,岩手県奥州市前沢竹沢82番地,39.0533398,141.1324332
ツルハドラッグ,ツルハドラッグ 前沢店,岩手県奥州市前沢字竹沢82番地,39.05333976841818,141.13243323313523
ツルハドラッグ,ツルハドラッグ 北上常盤台店,岩手県北上市常盤台４丁目１−５１,39.3070512,141.1140393
ツルハドラッグ,ツルハドラッグ 北上常盤台店,岩手県北上市常盤台四丁目1番51号,39.307051229814,141.114039251364
ツルハドラッグ,ツルハドラッグ 北上店,岩手県北上市柳原町１丁目４−１４０,39.2931058,141.1120098
ツルハドラッグ,ツルハドラッグ 北上東店,岩手県北上市里分４地割３３−１,39.2953611,141.1349335
ツルハドラッグ,ツルハドラッグ 北上江釣子店,岩手県北上市上江釣子６地割３３−３,39.302342,141.0642983
ツルハドラッグ,ツルハドラッグ 北上流通センター店,岩手県北上市流通センター９,39.3156594,141.1001753
ツルハドラッグ,ツルハドラッグ 北上流通センター店,岩手県北上市流通センター9番74号,39.3156593668403,141.100175271758
ツルハドラッグ,ツルハドラッグ 北上若宮町店,岩手県北上市若宮町２丁目３−456番地,39.281878,141.1158966
ツルハドラッグ,ツルハドラッグ 北上若宮町店,岩手県北上市若宮町2丁目456番地,39.28187803141341,141.11589661271367
ツルハドラッグ,ツルハドラッグ 北上鬼柳店,岩手県北上市鬼柳町都鳥190番地2,39.2740705,141.1000784
ツルハドラッグ,ツルハドラッグ 大槌店,岩手県上閉伊郡大槌町大槌第２３地割字沢山8番地1,39.3657081,141.9036452
ツルハドラッグ,ツルハドラッグ 大船渡北店,岩手県大船渡市立根町桑原43番地1,39.1077185,141.7117962
ツルハドラッグ,ツルハドラッグ 大船渡北店,岩手県大船渡市立根町字桑原43番地1,39.107321,141.712121
ツルハドラッグ,ツルハドラッグ 大船渡店,岩手県大船渡市盛町内ノ目１４−５,39.0811202,141.7121569
ツルハドラッグ,ツルハドラッグ 大船渡店,岩手県大船渡市盛町字内ノ目14-5,39.08112015191837,141.71215687729816
ツルハドラッグ,ツルハドラッグ 大船渡笹崎店,岩手県大船渡市大船渡町笹崎１３２−１,39.0578366,141.7196139
ツルハドラッグ,ツルハドラッグ 大船渡笹崎店,岩手県大船渡市大船渡町字笹崎132-1,39.0578366442551,141.7196138516127
ツルハドラッグ,ツルハドラッグ 大船渡赤崎店,岩手県大船渡市赤崎町諏訪前３９−７,39.0847495,141.7194101
ツルハドラッグ,ツルハドラッグ 大船渡赤崎店,岩手県大船渡市赤崎町字諏訪前39-7,39.084749472929104,141.7194100570431
ツルハドラッグ,ツルハドラッグ 大通2丁目店,岩手県盛岡市大通２丁目３−５,39.703276,141.1467361
ツルハドラッグ,ツルハドラッグ 奥州胆沢店,岩手県奥州市胆沢南都田宇南田１４０,39.1416258,141.0976311
ツルハドラッグ,ツルハドラッグ 奥州胆沢店,岩手県奥州市胆沢南都田字宇南田140,39.14162578,141.0976311
ツルハドラッグ,ツルハドラッグ 宮古中央店,岩手県宮古市保久田８−５,39.6435235,141.947287
ツルハドラッグ,ツルハドラッグ 宮古千徳店,岩手県宮古市上鼻２丁目８−７５,39.6310318,141.9105293
ツルハドラッグ,ツルハドラッグ 宮古千徳店,岩手県宮古市上鼻2丁目8－75,39.63103181796216,141.9105292899455
ツルハドラッグ,ツルハドラッグ 宮古南町店,岩手県宮古市南町１４−３,39.6387545,141.9488774
ツルハドラッグ,ツルハドラッグ 宮古磯鶏南店,岩手県宮古市実田１丁目４−６,39.625074,141.959621
ツルハドラッグ,ツルハドラッグ 宮古磯鶏南店,岩手県宮古市1丁目4-6,39.625074,141.959621
ツルハドラッグ,ツルハドラッグ 宮古磯鶏店,岩手県宮古市磯鶏石崎２−１２,39.631951,141.963016
ツルハドラッグ,ツルハドラッグ 岩手山田店,岩手県下閉伊郡山田町中央町５6号,39.4682524,141.9511174
ツルハドラッグ,ツルハドラッグ 岩手山田店,岩手県下閉伊郡山田町中央町5番6号,39.46825240470024,141.95111741260732
ツルハドラッグ,ツルハドラッグ 岩泉店,岩手県下閉伊郡岩泉町岩泉太田18−１,39.8472934,141.7889803
ツルハドラッグ,ツルハドラッグ 岩泉店,岩手県下閉伊郡岩泉町岩泉字太田18-1,39.8472934,141.7889803
ツルハドラッグ,ツルハドラッグ 水沢台町店,岩手県奥州市水沢台町６−６,39.1307907,141.1531807
ツルハドラッグ,ツルハドラッグ 水沢大鐘店,岩手県奥州市水沢南大鐘１丁目８５,39.1277558,141.1400689
ツルハドラッグ,ツルハドラッグ 江刺店,岩手県奥州市江刺西大通り９−５,39.1964655,141.1711745
ツルハドラッグ,ツルハドラッグ 沼宮内店,岩手県岩手郡岩手町五日市第１１地割１１７−１,39.9648956,141.214874
ツルハドラッグ,ツルハドラッグ 沼宮内店,岩手県岩手郡岩手町大字五日市第11地割117-1,39.96489556043908,141.21487398957404
ツルハドラッグ,ツルハドラッグ 滝沢室小路店,岩手県滝沢市室小路672−１８,39.735382,141.100647
ツルハドラッグ,ツルハドラッグ 滝沢巣子店,岩手県滝沢市巣子９５−１,39.7727013,141.1308977
ツルハドラッグ,ツルハドラッグ 盛岡みたけ北店,岩手県盛岡市みたけ２丁目１２−１０,39.7450244,141.1253254
ツルハドラッグ,ツルハドラッグ 盛岡三ツ割店,岩手県盛岡市三ツ割４丁目９−１,39.7297234,141.1617147
ツルハドラッグ,ツルハドラッグ 盛岡三ツ割店,岩手県盛岡市4丁目9番1号,39.72972341430752,141.1617147264587
ツルハドラッグ,ツルハドラッグ 盛岡上堂店,岩手県盛岡市上堂１丁目１７−３６,39.7245515,141.1210356
ツルハドラッグ,ツルハドラッグ 盛岡乙部店,岩手県盛岡市乙部４地割23番5,39.6182416,141.1898634
ツルハドラッグ,ツルハドラッグ 盛岡八幡店,岩手県盛岡市八幡町１２22号,39.6947035,141.1607611
ツルハドラッグ,ツルハドラッグ 盛岡八幡店,岩手県盛岡市八幡町12番22号,39.69470351498658,141.16076107636144
ツルハドラッグ,ツルハドラッグ 盛岡南仙北店,岩手県盛岡市南仙北１丁目２１−３９,39.6787873,141.1532971
ツルハドラッグ,ツルハドラッグ 盛岡向中野店,岩手県盛岡市向中野５丁目２９38号,39.6769583,141.1397956
ツルハドラッグ,ツルハドラッグ 盛岡向中野店,岩手県盛岡市向中野5丁目29番38号,39.67695829466397,141.1397956411045
ツルハドラッグ,ツルハドラッグ 盛岡向中野東店,岩手県盛岡市向中野２丁目１−１,39.68435119999999,141.1429709
ツルハドラッグ,ツルハドラッグ 盛岡向中野東店,岩手県盛岡市向中野二丁目1番1号,39.6843512,141.1429709
ツルハドラッグ,ツルハドラッグ 盛岡愛宕店,岩手県盛岡市愛宕町１１−１９,39.7092055,141.1612467
ツルハドラッグ,ツルハドラッグ 盛岡本宮店,岩手県盛岡市本宮７丁目３−２３,39.68501699999999,141.123587
ツルハドラッグ,ツルハドラッグ 盛岡本宮店,岩手県盛岡市本宮七丁目3番23号,39.685017,141.123587
ツルハドラッグ,ツルハドラッグ 盛岡本町通店,岩手県盛岡市本町通１丁目２−１５,39.70607710000001,141.1560737
ツルハドラッグ,ツルハドラッグ 盛岡津志田店,岩手県盛岡市津志田中央２丁目１７17番地33号,39.6614191,141.154295
ツルハドラッグ,ツルハドラッグ 盛岡津志田西店,岩手県盛岡市津志田西２丁目２−１５,39.665364,141.150748
ツルハドラッグ,ツルハドラッグ 盛岡盛南店,岩手県盛岡市向中野６丁目１４−１７,39.6735242,141.1427556
ツルハドラッグ,ツルハドラッグ 盛岡盛南店,岩手県盛岡市向中野六丁目14番17号,39.67352418751229,141.14275562698364
ツルハドラッグ,ツルハドラッグ 盛岡神明町店,岩手県盛岡市神明町４−２０,39.7007566,141.1581696
ツルハドラッグ,ツルハドラッグ 盛岡神明町店,岩手県盛岡市４−２０,39.70075657073236,141.15816955396733
ツルハドラッグ,ツルハドラッグ 盛岡菜園店,岩手県盛岡市菜園２丁目７−２８,39.7015036,141.1445915
ツルハドラッグ,ツルハドラッグ 盛岡菜園店,岩手県盛岡市菜園二丁目7-28,39.70150357579868,141.14459148174743
ツルハドラッグ,ツルハドラッグ 盛岡西見前店,岩手県盛岡市西見前１４地割１４９,39.639493,141.168991
ツルハドラッグ,ツルハドラッグ 盛岡青山店,岩手県盛岡市月が丘２丁目１−３５,39.7299833,141.1067616
ツルハドラッグ,ツルハドラッグ 紫波中央店,岩手県紫波郡紫波町日詰中新田２１１−１,39.5557429,141.1615915
ツルハドラッグ,ツルハドラッグ 紫波中央店,岩手県紫波郡紫波町日詰字中新田211-1,39.55574286040492,141.1615915139717
ツルハドラッグ,ツルハドラッグ 紫波南店,岩手県紫波郡紫波町北日詰大日堂40番地1,39.5376527,141.1666827
ツルハドラッグ,ツルハドラッグ 紫波南店,岩手県紫波郡紫波町北日詰字大日堂40番地1,39.53765274,141.1666827
ツルハドラッグ,ツルハドラッグ 紫波店,岩手県紫波郡紫波町高水寺大坊１８３−１,39.5687123,141.164862
ツルハドラッグ,ツルハドラッグ 紫波店,岩手県紫波郡紫波町高水寺字大坊183-1,39.5687123,141.1648620239252
ツルハドラッグ,ツルハドラッグ 花巻大迫店,岩手県花巻市大迫町大迫第１３地割149番地,39.472103,141.2791699
ツルハドラッグ,ツルハドラッグ 花巻御田屋町店,岩手県花巻市御田屋町４−１６,39.3853247,141.123935
ツルハドラッグ,ツルハドラッグ 花巻本館店,岩手県花巻市本館３丁目2−９,39.4072773,141.1173725
ツルハドラッグ,ツルハドラッグ 花巻本館店,岩手県花巻市本館三丁目2-9,39.4072773,141.1173725
ツルハドラッグ,ツルハドラッグ 花巻東店,岩手県花巻市南新田２７４−２,39.4030802,141.0985079
ツルハドラッグ,ツルハドラッグ 花巻温泉くらし館店,岩手県花巻市湯本第１地割125番地25,39.4516426,141.0706639
ツルハドラッグ,ツルハドラッグ 花巻温泉くらし館店,岩手県花巻市湯本第一地割125番地25,39.45164256866838,141.07066390859833
ツルハドラッグ,ツルハドラッグ 花巻温泉店,岩手県花巻市湯本第１地割１２５−１７,39.452318,141.069668
ツルハドラッグ,ツルハドラッグ 花巻石鳥谷店,岩手県花巻市石鳥谷町八幡第４地割53番2,39.484632,141.14871
ツルハドラッグ,ツルハドラッグ 花巻高木店,岩手県花巻市高木第１６地割６８−６,39.386093,141.1368942
ツルハドラッグ,ツルハドラッグ 西大通店,岩手県花巻市西大通り２丁目１25号,39.3922879,141.1043862
ツルハドラッグ,ツルハドラッグ 遠野店,岩手県遠野市松崎町白岩地森２９,39.340549,141.5344048
ツルハドラッグ,ツルハドラッグ 遠野店,岩手県遠野市松崎町白岩字地森29,39.34054895024435,141.5344048071276
ツルハドラッグ,ツルハドラッグ 遠野松崎店,岩手県遠野市松崎町白岩１９地割48番地1,39.336919,141.5468469
ツルハドラッグ,ツルハドラッグ 金ケ崎店,岩手県胆沢郡金ケ崎町西根本宮後１5番地,39.1969002,141.1129518
ツルハドラッグ,ツルハドラッグ 釜石中妻店,岩手県釜石市中妻町２丁目１−１３,39.2701645,141.8590666
ツルハドラッグ,ツルハドラッグ 釜石店,岩手県釜石市只越町２丁目４−１７,39.274559,141.8842464
ツルハドラッグ,ツルハドラッグ 雫石店,岩手県岩手郡雫石町千刈田９７−２,39.6956269,140.9779781
ツルハドラッグ,ツルハドラッグ 高田アップルロード店,岩手県陸前高田市米崎町西風道２４１−１,39.010672,141.6742782
ツルハドラッグ,ツルハドラッグ 高田アップルロード店,岩手県陸前高田市米崎町字西風道241-1,39.010671952425824,141.6742781607132
ツルハドラッグ,ツルハドラッグ 高田中央店,岩手県陸前高田市高田町館の沖303番地3,39.0163834,141.6304498
ツルハドラッグ,ツルハドラッグ 高田中央店,岩手県陸前高田市高田町字館の沖303番地3,39.01638336811784,141.63044976420974
ツルハドラッグ,ツルハドラッグ 高田北店,岩手県陸前高田市竹駒町滝の里１５−１,39.0320364,141.6186693
ツルハドラッグ,ツルハドラッグ 黒石野店,岩手県盛岡市黒石野２丁目１８−１,39.7410952,141.1459149
ツルハドラッグ,証明写真機Ki-Re-i ツルハドラッグ宮古中央,岩手県宮古市保久田８−１０,39.6436085,141.947036
ハッピードラッグ,ハッピー・ドラッグ 二戸福岡店,岩手県二戸市福岡長嶺５０−７,40.2807552,141.2989925
ハッピードラッグ,ハッピー・ドラッグ 岩手種市店,岩手県九戸郡洋野町種市第２３地割８２−１,40.412304,141.713635
マツモトキヨシ,ドラッグストア マツモトキヨシ アクロスプラザ盛岡みたけ店,岩手県盛岡市みたけ２丁目８−３０,39.742765,141.124022
マツモトキヨシ,ドラッグストア マツモトキヨシ 一関店,岩手県一関市山目寺前２０20番地,38.937732,141.1225641
マツモトキヨシ,ドラッグストア マツモトキヨシ 上盛岡店,岩手県盛岡市北山１丁目９−３０,39.7126934,141.1487779
マツモトキヨシ,ドラッグストア マツモトキヨシ 二戸荷渡店,岩手県二戸市石切所荷渡１４−３,40.2662031,141.2916196
マツモトキヨシ,ドラッグストア マツモトキヨシ 千厩店,岩手県一関市千厩町千厩古ケ口８８,38.9132811,141.3291845
マツモトキヨシ,ドラッグストア マツモトキヨシ 水沢店,岩手県奥州市水沢田小路55番1,39.1402424,141.1341409
マツモトキヨシ,ドラッグストア マツモトキヨシ 遠野店,岩手県遠野市松崎町白岩９地割７４−１,39.3408365,141.5310824
マツモトキヨシ,薬 マツモトキヨシ アネックスカワトク店,岩手県盛岡市緑が丘４丁目１−５０,39.7354229,141.1427318
マツモトキヨシ,薬 マツモトキヨシ クロステラス盛岡店,岩手県盛岡市大通３丁目４−１,39.7031133,141.142646
マツモトキヨシ,薬 マツモトキヨシ マイヤタウングラン店,岩手県盛岡市西仙北１丁目３８−２０,39.6861277,141.1471876
マツモトキヨシ,薬 マツモトキヨシ 盛岡駅ビルフェザン店,岩手県盛岡市盛岡駅前通１−４４おでんせ館BF,39.7017604,141.1363997
マツモトキヨシ,薬マツモトキヨシ シーナシーナ花巻店,岩手県花巻市下小舟渡１１８−１,39.3935015,141.117084
薬王堂,㈱薬王堂 岩手ドライセンター,岩手県紫波郡矢巾町広宮沢第４地割３１１,39.6299453,141.1147036
薬王堂,薬王堂 CocoテラスY,岩手県紫波郡矢巾町医大通２丁目７−７,39.6160681,141.1652857
薬王堂,薬王堂 オアシスタウンやはば店,岩手県紫波郡矢巾町医大通２丁目１−５,39.6185993,141.1653621
薬王堂,薬王堂 一戸越田橋店,岩手県二戸郡一戸町一戸越田橋２８−１,40.2254547,141.2933679
薬王堂,薬王堂 一関三関店,岩手県一関市三関神田１７８−１,38.92487879999999,141.1442577
薬王堂,薬王堂 一関千厩店,岩手県一関市千厩町千厩古ケ口３０−４,38.910925,141.328119
薬王堂,薬王堂 一関大東店,岩手県一関市大東町摺沢荒屋敷３０−７,38.99631189999999,141.3225711
薬王堂,薬王堂 一関山目店,岩手県一関市山目中野５２−１,38.9347377,141.1154474
薬王堂,薬王堂 一関東山店,岩手県一関市東山町長坂町２８８−１,38.990347,141.252609
薬王堂,薬王堂 一関藤沢店,岩手県一関市藤沢町新沼石合２７−１,38.8700213,141.3532424
薬王堂,薬王堂 一関青葉店,岩手県一関市青葉１丁目５−１１,38.930269,141.126794
薬王堂,薬王堂 久慈SC店,岩手県久慈市長内町第３０地割７５−１０,40.1915875,141.7846722
薬王堂,薬王堂 久慈川崎店,岩手県久慈市川崎町１１−１８,40.1915619,141.7710781
薬王堂,薬王堂 久慈店,岩手県久慈市旭町第９地割１６−１,40.19874000000001,141.775768
薬王堂,薬王堂 久慈柏崎店,岩手県久慈市柏崎１丁目２５,40.1859313,141.7680869
薬王堂,薬王堂 久慈西の沢店,岩手県久慈市西の沢第６地割３５−２,40.1903494,141.7549543
薬王堂,薬王堂 二戸堀野店,岩手県二戸市堀野長地４４−１,40.294237,141.2995067
薬王堂,薬王堂 二戸店,岩手県二戸市石切所荷渡１−１２,40.2703442,141.2969666
薬王堂,薬王堂 二戸福岡店,岩手県二戸市福岡八幡下６９−３,40.2643505,141.2946249
薬王堂,薬王堂 八幡平店,岩手県八幡平市大更第１８地割８８−１４,39.8985479,141.0949173
薬王堂,薬王堂 北上SP店,岩手県北上市九年橋３丁目１３−７,39.282165,141.108777
薬王堂,薬王堂 北上和賀店,岩手県北上市和賀町藤根１７地割３６−１,39.3045782,141.0333691
薬王堂,薬王堂 北上常盤台店,岩手県北上市さくら通り３丁目９−３５,39.2980029,141.1173922
薬王堂,薬王堂 北上村崎野店,岩手県北上市村崎野１９地割１２８−１,39.33879779999999,141.1076731
薬王堂,薬王堂 北上江釣子店,岩手県北上市上江釣子１６地割５１−１,39.3009449,141.0777295
薬王堂,薬王堂 北上鬼柳店,岩手県北上市鬼柳町荒高１５６,39.2732672,141.1040808
薬王堂,薬王堂 北上黒沢尻店,岩手県北上市黒沢尻１丁目１３−７,39.292248,141.129734
薬王堂,薬王堂 大槌上町店,岩手県上閉伊郡大槌町上町５−２８,39.3567768,141.8966918
薬王堂,薬王堂 大船渡店,岩手県大船渡市猪川町中井沢１５−１,39.092136,141.7142901
薬王堂,薬王堂 大船渡新田店,岩手県大船渡市大船渡町新田４１−１０,39.0700696,141.7194749
薬王堂,薬王堂 大船渡盛店,岩手県大船渡市盛町舘下５−１,39.083884,141.708466
薬王堂,薬王堂 大船渡茶屋前店,岩手県大船渡市大船渡町茶屋前６２−１,39.0621234,141.7199176
薬王堂,薬王堂 奥州前沢店,岩手県奥州市前沢あすか通４丁目１−１,39.0550922,141.1259548
薬王堂,薬王堂 奥州胆沢店,岩手県奥州市胆沢南都田宇南田１６９−１,39.14198409999999,141.0988364
薬王堂,薬王堂 宮古千徳店,岩手県宮古市上鼻２丁目５−６３,39.631653,141.913038
薬王堂,薬王堂 宮古宮町店,岩手県宮古市宮町３丁目１０−４８,39.6390178,141.9388761
薬王堂,薬王堂 宮古小山田店,岩手県宮古市小山田２丁目３−４５,39.632735,141.9407724
薬王堂,薬王堂 宮古磯鶏店,岩手県宮古市神林４５−１０,39.621559,141.962778
薬王堂,薬王堂 宮古西町店,岩手県宮古市田の神１丁目３−１１,39.6474384,141.9391434
薬王堂,薬王堂 山田大沢店,岩手県下閉伊郡山田町大沢第２地割３１−１,39.4823303,141.9676091
薬王堂,薬王堂 岩手一戸店,岩手県二戸郡一戸町一戸砂森５７−１,40.205392,141.304138
薬王堂,薬王堂 岩手九戸店,岩手県九戸郡九戸村長興寺第３地割９−２,40.2226937,141.4178221
薬王堂,薬王堂 岩手住田店,岩手県気仙郡住田町世田米川向４８−１,39.1433554,141.5718403
薬王堂,薬王堂 岩手大槌店,岩手県上閉伊郡大槌町大槌第２２地割２３,39.3644993,141.904543
薬王堂,薬王堂 岩手大釜店,岩手県滝沢市大釜竹鼻１６３−７,39.7039209,141.0737389
薬王堂,薬王堂 岩手山田店,岩手県下閉伊郡山田町境田町１６−６,39.460469,141.954991
薬王堂,薬王堂 岩手岩泉店,岩手県下閉伊郡岩泉町岩泉三本松４２−１１,39.8476845,141.802507
薬王堂,薬王堂 岩手川崎店,岩手県一関市川崎町薄衣六反１５４,38.8983006,141.2755148
薬王堂,薬王堂 岩手平泉店,岩手県西磐井郡平泉町平泉上野台２７８−８,38.9809786,141.1167202
薬王堂,薬王堂 岩手沼宮内店,岩手県岩手郡岩手町五日市第１１地割１３２−１,39.966716,141.216124
薬王堂,薬王堂 岩手洋野店,岩手県九戸郡洋野町種市第２３地割９１−８,40.412175,141.710727
薬王堂,薬王堂 岩手牧野林店,岩手県滝沢市牧野林２９１−３,39.746064,141.110128
薬王堂,薬王堂 岩手矢巾店,岩手県紫波郡矢巾町南矢幅第７地割４４５,39.6116816,141.1542371
薬王堂,薬王堂 岩手葛巻店,岩手県岩手郡葛巻町葛巻第８地割６−１３,40.036376,141.4515657
薬王堂,薬王堂 岩手西和賀店,岩手県和賀郡西和賀町大沓３６地割５９−２,39.3249513,140.7839825
薬王堂,薬王堂 岩手西根店,岩手県八幡平市大更第３５地割３２−２,39.922617,141.09548
薬王堂,薬王堂 岩手軽米店,岩手県九戸郡軽米町上舘第１５地割１４４−２,40.321871,141.473709
薬王堂,薬王堂 岩手野田店,岩手県久慈市宇部町第１３地割５５−１,40.118569,141.8085459
薬王堂,薬王堂 岩手金ケ崎店,岩手県胆沢郡金ケ崎町西根寄添田３−１,39.1926812,141.0951817
薬王堂,薬王堂 岩手金ケ崎東店,岩手県胆沢郡金ケ崎町西根杉土手６８−１,39.2024377,141.114513
薬王堂,薬王堂 岩手雫石店,岩手県岩手郡雫石町千刈田８７,39.6980247,140.976533
薬王堂,薬王堂 岩手鵜飼店,岩手県滝沢市鵜飼石留３８,39.731379,141.096166
薬王堂,薬王堂 村崎野南店,岩手県北上市村崎野１５地割２７１−７,39.3243894,141.112318
薬王堂,薬王堂 水沢SC店,岩手県奥州市水沢八反町２８−２,39.1544151,141.1326368
薬王堂,薬王堂 水沢慶徳店,岩手県奥州市水沢佐倉河慶徳４６−１,39.1440261,141.1526826
薬王堂,薬王堂 水沢日高店,岩手県奥州市水沢谷地明円２７,39.1400837,141.1308765
薬王堂,薬王堂 水沢桜屋敷店,岩手県奥州市水沢桜屋敷２８２,39.1248044,141.1294397
薬王堂,薬王堂 水沢町屋敷店,岩手県奥州市水沢真城町屋敷７９−１,39.1264929,141.1613781
薬王堂,薬王堂 江刺岩谷堂店,岩手県奥州市江刺岩谷堂御所橋１−１,39.1975772,141.1704599
薬王堂,薬王堂 江刺店,岩手県奥州市江刺杉ノ町２−２,39.184408,141.174039
薬王堂,薬王堂 江刺愛宕店,岩手県奥州市江刺愛宕大畑１５３−１,39.1583002,141.177768
薬王堂,薬王堂 沼宮内北店,岩手県岩手郡岩手町五日市第８地割９５番地１,39.9777966,141.2272662
薬王堂,薬王堂 滝沢SC店,岩手県滝沢市鵜飼先古川３−１,39.7362962,141.0798718
薬王堂,薬王堂 滝沢室小路店,岩手県滝沢市室小路１２１−１,39.7338147,141.1011004
薬王堂,薬王堂 滝沢巣子店,岩手県滝沢市巣子７６１−２,39.7841394,141.1461559
薬王堂,薬王堂 盛岡みたけ店,岩手県盛岡市月が丘３丁目４０−１０,39.738295,141.109473
薬王堂,薬王堂 盛岡三ツ割店,岩手県盛岡市三ツ割５丁目１８−１,39.7298238,141.1632462
薬王堂,薬王堂 盛岡中野店,岩手県盛岡市中野１丁目１６−１,39.693576,141.1692361
薬王堂,薬王堂 盛岡厨川店,岩手県盛岡市厨川５丁目１３−１,39.7506608,141.1282292
薬王堂,薬王堂 盛岡向中野店,岩手県盛岡市向中野１丁目１０−２７,39.6813661,141.1435904
薬王堂,薬王堂 盛岡太田店,岩手県盛岡市本宮５丁目８−２０,39.6890168,141.1183482
薬王堂,薬王堂 盛岡山王店,岩手県盛岡市山王町１０−６,39.699934,141.16458
薬王堂,薬王堂 盛岡本宮店,岩手県盛岡市本宮３丁目１１−１５,39.691712,141.1330385
薬王堂,薬王堂 盛岡津志田店,岩手県盛岡市津志田中央３丁目１−７,39.6639521,141.1536745
薬王堂,薬王堂 盛岡渋民店,岩手県盛岡市渋民５７−１,39.8429458,141.1688045
薬王堂,薬王堂 盛岡箱清水店,岩手県盛岡市箱清水１丁目２１−１２,39.73475810000001,141.1311655
薬王堂,薬王堂 盛岡緑が丘店,岩手県盛岡市緑が丘３丁目１−１０,39.7333764,141.142866
薬王堂,薬王堂 盛岡都南店,岩手県盛岡市永井２０地割２４−８,39.6539761,141.1494161
薬王堂,薬王堂 盛岡青山店,岩手県盛岡市青山１丁目１８−１５,39.720825,141.114298
薬王堂,薬王堂 盛岡飯岡店,岩手県盛岡市北飯岡４丁目４−６,39.6720014,141.1314869
薬王堂,薬王堂 矢巾SC店,岩手県紫波郡矢巾町医大通２丁目４−１４,39.6142946,141.1657146
薬王堂,薬王堂 石鳥谷八幡店,岩手県花巻市石鳥谷町八幡第２地割２−１,39.4787756,141.1466405
薬王堂,薬王堂 紫波古館店,岩手県紫波郡紫波町高水寺古屋敷６７−１,39.575148,141.1634296
薬王堂,薬王堂 紫波日詰店,岩手県紫波郡紫波町日詰下丸森９０−１,39.5566293,141.1657586
薬王堂,薬王堂 紫波桜町店,岩手県紫波郡紫波町桜町田頭１３５−１,39.5469842,141.1638999
薬王堂,薬王堂 花巻不動店,岩手県花巻市不動７２−１,39.3790027,141.1100325
薬王堂,薬王堂 花巻南店,岩手県花巻市上根子欠端１５０−１,39.3803062,141.0892402
薬王堂,薬王堂 花巻小舟渡店,岩手県花巻市上小舟渡３４−２,39.3984516,141.1238035
薬王堂,薬王堂 花巻材木町店,岩手県花巻市材木町７−２０,39.3867217,141.1099609
薬王堂,薬王堂 花巻東和店,岩手県花巻市東和町土沢６区２２８,39.382895,141.230169
薬王堂,薬王堂 花巻松園店,岩手県花巻市松園町１丁目５−７,39.4069654,141.1076332
薬王堂,薬王堂 花巻石鳥谷店,岩手県花巻市石鳥谷町好地第１５地割３５−９,39.502996,141.155741
薬王堂,薬王堂 花巻高木店,岩手県花巻市高木第１８地割49−番地,39.3841119,141.1385222
薬王堂,薬王堂 花泉店,岩手県一関市花泉町金沢水門１５５,38.845913,141.178657
薬王堂,薬王堂 花泉涌津店,岩手県一関市花泉町涌津上三ノ町１８,38.8287992,141.1873381
薬王堂,薬王堂 西根平舘店,岩手県八幡平市平舘第９地割１９７,39.9493249,141.0923592
薬王堂,薬王堂 遠野店,岩手県遠野市松崎町白岩１８地割９４−１,39.33554840000001,141.547934
薬王堂,薬王堂 遠野松崎店,岩手県遠野市松崎町白岩９地割３６−８,39.3379771,141.5328942
薬王堂,薬王堂 釜石小佐野店,岩手県釜石市小佐野町４丁目１−４,39.263309,141.8368466
薬王堂,薬王堂 釜石平田店,岩手県釜石市平田町１丁目９０１,39.2464334,141.8895811
薬王堂,薬王堂 釜石店,岩手県釜石市野田町３丁目３−１,39.258603,141.824295
薬王堂,薬王堂 釜石鈴子店,岩手県釜石市鈴子町１３−２,39.27438799999999,141.867057
薬王堂,薬王堂 釜石鵜住居店,岩手県釜石市鵜住居町１丁目４−１,39.3217317,141.8848607
薬王堂,薬王堂 高田滝の里店,岩手県陸前高田市竹駒町滝の里１,39.0310602,141.6177613
薬王堂,薬王堂 高田米崎店,岩手県陸前高田市米崎町松峰５６,39.0119717,141.6559114
薬王堂,薬王堂 高田馬場前店,岩手県陸前高田市高田町馬場前３０４−５,39.01566330000001,141.6265827
薬王堂,薬王堂ホールディングス㈱ 東北RDC,岩手県花巻市空港南２丁目１０,39.4096757,141.1366186
薬王堂,薬王堂北上本石店,岩手県北上市本石町２丁目４４−１,39.2912673,141.1165887
薬王堂,薬王堂花巻西宮野目店,岩手県花巻市西宮野目第１３地割４９,39.4135711,141.1253612
薬王堂,薬王堂遠野白岩店,岩手県遠野市松崎町白岩２４地割３４−１,39.3417479,141.5414016
