company,store_name,address,latitude,longitude,都道府県,place_id,source
サンドラッグ,サンドラッグ 八戸青葉店,青森県八戸市北白山台５丁目１−７サンドラッグ八戸店内,40.486988,141.465363,青森県,,
サンドラッグ,サンドラッグ 十和田東店,青森県十和田市東一番町４−１３,40.62331,141.213531,青森県,,
サンドラッグ,サンドラッグ 十和田西店,青森県十和田市西二十三番町２９−２０,40.603466,141.200272,青森県,,
サンドラッグ,サンドラッグ 弘前樹木店,青森県弘前市樹木５丁目９−１ハルル樹木内,40.588379,140.459824,青森県,,
サンドラッグ,サンドラッグ 青森浜田店,青森県青森市大字浜田玉川１９６−１０,40.799046,140.759537,青森県,,
スーパードラッグアサヒ,スーパードラッグアサヒ おいらせ町	下田店	〒039-2114,青森県上北郡おいらせ町高田69-1,40.601444,141.422485,青森県,,
スーパードラッグアサヒ,スーパードラッグアサヒ さくら野弘前店	〒036-8092,青森県弘前市大字城東北3-10-1さくら野弘前店1F,40.607147,140.496246,青森県,,
スーパードラッグアサヒ,スーパードラッグアサヒ むつ市	むつ店	〒035-0073,青森県むつ市中央1-149,41.292587,141.186218,青森県,,
スーパードラッグアサヒ,スーパードラッグアサヒ 三沢市	ビードルプラザ店	〒033-0037,青森県三沢市松園町3-10-1,40.676052,141.363541,青森県,,
スーパードラッグアサヒ,スーパードラッグアサヒ 三沢市	三沢店	〒033-0022,青森県三沢市大字三沢字堀口94-242,40.682018,141.379715,青森県,,
スーパードラッグアサヒ,スーパードラッグアサヒ 五所川原市	柏店	〒037-0076,青森県五所川原市大字小曲字枝村42-1,40.80756,140.42421,青森県,,
スーパードラッグアサヒ,スーパードラッグアサヒ 八戸市	類家店	〒031-0001,青森県八戸市類家4-22-13,40.504387,141.507004,青森県,,
スーパードラッグアサヒ,スーパードラッグアサヒ 八戸店	〒039-1164,青森県八戸市下長2-1-12,40.531277,141.474106,青森県,,
スーパードラッグアサヒ,スーパードラッグアサヒ 十和田市	十和田店	〒034-0041,青森県十和田市大字相坂字白上248-14,40.597298,141.22319,青森県,,
スーパードラッグアサヒ,スーパードラッグアサヒ 弘前市	南大町店	〒036-8171,青森県弘前市大字取上1-1-1,40.590691,140.487488,青森県,,
スーパードラッグアサヒ,スーパードラッグアサヒ 東北町	上北店	〒039-2404,青森県上北郡東北町上北北3丁目24-85,40.728584,141.253662,青森県,,
スーパードラッグアサヒ,スーパードラッグアサヒ 板柳町	板柳店	〒038-3672,青森県北津軽郡板柳町大字灰沼字岩井42,40.700245,140.457703,青森県,,
スーパードラッグアサヒ,スーパードラッグアサヒ 湊高台店	〒031-0823,青森県八戸市湊高台1-3-2,40.508301,141.531738,青森県,,
スーパードラッグアサヒ,スーパードラッグアサヒ 藤崎町	藤崎店	〒038-3803,青森県南津軽郡藤崎町大字西豊田3-1-25,40.653049,140.505646,青森県,,
スーパードラッグアサヒ,スーパードラッグアサヒ 野辺地町	野辺地店	〒039-3171,青森県上北郡野辺地町字二本木46-1,40.866802,141.112457,青森県,,
スーパードラッグアサヒ,スーパードラッグアサヒ 青森中央店	〒030-0847,青森県青森市東大野2-11-3,40.799435,140.746429,青森県,,
スーパードラッグアサヒ,スーパードラッグアサヒ 青森佃店	〒030-0962,青森県青森市佃3-5-33,40.820782,140.781952,青森県,,
スーパードラッグアサヒ,スーパードラッグアサヒ 青森市	青森店	〒030-0947,青森県青森市浜館2-4-8,40.806564,140.785141,青森県,,
スーパードラッグアサヒ,スーパードラッグアサヒ 青森西バイパス店	〒038-0006,青森県青森市三好2-2-22,40.831306,140.704559,青森県,,
スーパードラッグアサヒ,スーパードラッグアサヒ 鯵ヶ沢町	鯵ヶ沢店	〒038-2761,青森県西津軽郡鰺ヶ沢町大字舞戸町字西禿18-1,40.775501,140.22641,青森県,,
スーパードラッグアサヒ,スーパードラッグアサヒ 黒石富士見店	〒036-0515,青森県黒石市富士見103-3,40.666679,140.600586,青森県,,
スーパードラッグアサヒ,スーパードラッグアサヒ 黒石市	黒石バイパス店	〒036-0357,青森県黒石市追子野木１-571-1,40.637512,140.59198,青森県,,
ツルハドラッグ,ツルハドラッグ つがる柏店,青森県つがる市柏広須志野田166-1,40.8019544,140.4004748,青森県,,
ツルハドラッグ,ツルハドラッグ みなと店,青森県八戸市湊町字新井田道12-1,40.51419184135771,141.53553132134672,青森県,,
ツルハドラッグ,ツルハドラッグ むつ大平店,青森県むつ市大平町21番6号,41.28257794710055,141.16845277547466,青森県,,
ツルハドラッグ,ツルハドラッグ むつ店,青森県むつ市小川町1丁目9番31号,41.29365466500383,141.2068195575452,青森県,,
ツルハドラッグ,ツルハドラッグ むつ旭町店,青森県むつ市旭町3番12号,41.28654707,141.178976,青森県,,
ツルハドラッグ,ツルハドラッグ むつ柳町店,青森県むつ市大字田名部字前田３８-１,41.30376651096708,141.2201889569981,青森県,,
ツルハドラッグ,ツルハドラッグ アクロス五所川原店,青森県五所川原市大字唐笠柳字藤巻626番地,40.8020814714284,140.46127721846634,青森県,,
ツルハドラッグ,ツルハドラッグ 七戸店,青森県上北郡七戸町字笊田川久保32-2,40.6969642,141.1624569,青森県,,
ツルハドラッグ,ツルハドラッグ 三戸店,青森県三戸郡三戸町川守田字下比良35外,40.39763769555472,141.26336447175828,青森県,,
ツルハドラッグ,ツルハドラッグ 三沢南山店,青森県三沢市大字三沢字南山73番3号,40.68843427143086,141.38881694631252,青森県,,
ツルハドラッグ,ツルハドラッグ 三沢南町店,青森県三沢市南町2丁目31-161,40.67432848238827,141.37258722736183,青森県,,
ツルハドラッグ,ツルハドラッグ 五所川原広田店,青森県五所川原市大字広田字柳沼41-2,40.78393259862032,140.4622430824731,青森県,,
ツルハドラッグ,ツルハドラッグ 五所川原店,青森県五所川原市唐笠柳517-7,40.8020452297734,140.46126122155945,青森県,,
ツルハドラッグ,ツルハドラッグ 五所川原本町店,青森県五所川原市字本町25-2,40.808863,140.442471,青森県,,
ツルハドラッグ,ツルハドラッグ 五所川原松島店,青森県五所川原市大字漆川字袖掛158番18,40.80955200808168,140.45966523436178,青森県,,
ツルハドラッグ,ツルハドラッグ 八戸八太郎店,青森県八戸市八太郎2丁目22番１,40.537877,141.487481,青森県,,
ツルハドラッグ,ツルハドラッグ 八戸大杉平店,青森県八戸市根城2丁目2番6,40.500828,141.481534,青森県,,
ツルハドラッグ,ツルハドラッグ 八戸小中野店,青森県八戸市小中野4丁目5番18号,40.5190816247942,141.51280818556333,青森県,,
ツルハドラッグ,ツルハドラッグ 八戸市民病院前店,青森県八戸市田向3丁目2番19号,40.494973681776266,141.51440525821906,青森県,,
ツルハドラッグ,ツルハドラッグ 八戸諏訪店,青森県八戸市諏訪3丁目3番20号,40.508000857674176,141.51232704017931,青森県,,
ツルハドラッグ,ツルハドラッグ 八戸鮫店,青森県八戸市21-1,40.52728844307057,141.55497592576026,青森県,,
ツルハドラッグ,ツルハドラッグ 十八日町店,青森県八戸市十八日町27,40.51176813,141.4952374,青森県,,
ツルハドラッグ,ツルハドラッグ 十和田中央店,青森県十和田市稲生町13番39号,40.61590042161712,141.211471500988,青森県,,
ツルハドラッグ,ツルハドラッグ 十和田南店,青森県十和田市東四番町４番３０号,40.60762644898588,141.2212141545129,青森県,,
ツルハドラッグ,ツルハドラッグ 城東店,青森県弘前市大字田園2丁目3-1,40.60258363184197,140.5064082365123,青森県,,
ツルハドラッグ,ツルハドラッグ 大野店,青森県青森市金沢3丁目12番21号,40.80869790478009,140.73467621877217,青森県,,
ツルハドラッグ,ツルハドラッグ 安原店,青森県弘前市泉野1丁目4番地5,40.57585023674751,140.49319152147845,青森県,,
ツルハドラッグ,ツルハドラッグ 平内店,青森県東津軽郡平内町小湊家ノ下15-4,40.925130171283584,140.9596801461838,青森県,,
ツルハドラッグ,ツルハドラッグ 平賀店,青森県平川市小和森上松岡216番,40.58868782,140.5685905,青森県,,
ツルハドラッグ,ツルハドラッグ 弘前堅田店,青森県弘前市大字堅田2丁目2番22,40.61543861319086,140.4899134776937,青森県,,
ツルハドラッグ,ツルハドラッグ 弘前境関店,青森県弘前市大字境関一丁目2-2,40.6118168,140.5045591,青森県,,
ツルハドラッグ,ツルハドラッグ 弘前外崎店,青森県弘前市大字外崎３丁目５-１,40.596418892086845,140.49864640340763,青森県,,
ツルハドラッグ,ツルハドラッグ 弘前岩木店,青森県弘前市大字一町田字村元714,40.6142839033875,140.424319045126,青森県,,
ツルハドラッグ,ツルハドラッグ 弘前樹木店,青森県弘前市大字樹木4丁目3番地1,40.5894496,140.4559565,青森県,,
ツルハドラッグ,ツルハドラッグ 弘前浜の町店,青森県弘前市大字浜の町西2丁目2-7,40.61986970890262,140.4587859153852,青森県,,
ツルハドラッグ,ツルハドラッグ 弘前石渡店,青森県弘前市大字石渡4丁目13番地4,40.629467,140.458713,青森県,,
ツルハドラッグ,ツルハドラッグ 弘前神田店,青森県弘前市大字神田5丁目6-2,40.62608096759652,140.49202089495736,青森県,,
ツルハドラッグ,ツルハドラッグ 弘前西城北店,青森県弘前市大字西城北1丁目2番４,40.615524,140.471459,青森県,,
ツルハドラッグ,ツルハドラッグ 弘前駅前店,青森県弘前市大字駅前2丁目6番地2,40.6009741123861,140.47943513435862,青森県,,
ツルハドラッグ,ツルハドラッグ 本八戸駅前店,青森県八戸市城下2丁目1-12,40.517225,141.487377,青森県,,
ツルハドラッグ,ツルハドラッグ 板柳店,青森県北津軽郡板柳町大字灰沼字東267-1,40.70611298036508,140.45539504637617,青森県,,
ツルハドラッグ,ツルハドラッグ 板柳福野田店,青森県北津軽郡板柳町大字福野田字実田4番地15,40.69562678453772,140.46167123502855,青森県,,
ツルハドラッグ,ツルハドラッグ 河原木店,青森県八戸市下長四丁目1-9,40.53429771950413,141.47739899172663,青森県,,
ツルハドラッグ,ツルハドラッグ 浪岡店,青森県青森市浪岡大字杉沢字井ノ下144-1,40.72048064665738,140.5894194983303,青森県,,
ツルハドラッグ,ツルハドラッグ 湊高台店,青森県八戸市湊高台三丁目7-1,40.50762739166064,141.543710855208,青森県,,
ツルハドラッグ,ツルハドラッグ 福地南部店,青森県三戸郡南部町大字苫米地字白山堂1-2,40.46768239362834,141.38802220144083,青森県,,
ツルハドラッグ,ツルハドラッグ 野辺地店,青森県上北郡野辺地町字野辺地41-1,40.86358188399405,141.12659880634058,青森県,,
ツルハドラッグ,ツルハドラッグ 青森三内店,青森県青森市大字三内字玉作1-51,40.82185646999999,140.71121088220897,青森県,,
ツルハドラッグ,ツルハドラッグ 青森南佃店,青森県青森市南佃一丁目４４番１号,40.81257143599318,140.78234985798088,青森県,,
ツルハドラッグ,ツルハドラッグ 青森原別店,青森県青森市原別一丁目１番３３号,40.8366382,140.7979665,青森県,,
ツルハドラッグ,ツルハドラッグ 青森富田店,青森県青森市富田3丁目9-1,40.83257182202839,140.71175283494867,青森県,,
ツルハドラッグ,ツルハドラッグ 青森新城店,青森県青森市大字新城字平岡175-38,40.82837353057511,140.67601169062652,青森県,,
ツルハドラッグ,ツルハドラッグ 青森新田店,青森県青森市新田2丁目2番16号,40.84061273515477,140.71573303288437,青森県,,
ツルハドラッグ,ツルハドラッグ 青森本町店,青森県青森市本町4丁目9番5号,40.82880190616066,140.75371678089294,青森県,,
ツルハドラッグ,ツルハドラッグ 青森桜川店,青森県青森市桜川七丁目5番10号,40.80889621043765,140.77069816140144,青森県,,
ツルハドラッグ,ツルハドラッグ 青森浜田店,青森県青森市大字浜田字玉川251番地2,40.79711217904705,140.7622215459227,青森県,,
ツルハドラッグ,ツルハドラッグ 青森港町店,青森県青森市港町三丁目6番24号,40.8303899,140.7692391,青森県,,
ツルハドラッグ,ツルハドラッグ 鯵ヶ沢店,青森県西津軽郡鰺ヶ沢町大字舞戸町字久富17-8,40.77583203,140.2257741,青森県,,
ハッピードラッグ,ハッピー・ドラッグ つがる木造店,青森県つがる市木造浮巣51-1,40.810645,140.395574,青森県,,
ハッピードラッグ,ハッピー・ドラッグ つがる森田店,青森県つがる市森田町山田渕浪90,40.780508,140.36678,青森県,,
ハッピードラッグ,ハッピー・ドラッグ むつとまぶモール店,青森県むつ市金曲1-2-4,41.283433,141.214524,青森県,,
ハッピードラッグ,ハッピー・ドラッグ むつ中央店,青森県むつ市旭町2-30,41.283129,141.183424,青森県,,
ハッピードラッグ,ハッピー・ドラッグ むつ大畑店,青森県むつ市大畑町中島39-26,41.403783,141.170383,青森県,,
ハッピードラッグ,ハッピー・ドラッグ むつ金谷店,青森県むつ市金谷2-22-1,41.295066,141.19667,青森県,,
ハッピードラッグ,ハッピー・ドラッグ 三沢堀口店,青森県三沢市堀口3-1-5,40.683934,141.386587,青森県,,
ハッピードラッグ,ハッピー・ドラッグ 三沢岡三沢店,青森県三沢市下久保1-1-3,40.684369,141.382455,青森県,,
ハッピードラッグ,ハッピー・ドラッグ 三沢松園町店,青森県三沢市松園町3-1-1,40.674847,141.368903,青森県,,
ハッピードラッグ,ハッピー・ドラッグ 五所川原広田店,青森県五所川原市姥萢船橋242-6,40.784289,140.460814,青森県,,
ハッピードラッグ,ハッピー・ドラッグ 五所川原松島店,青森県五所川原市一ツ谷548-1,40.805709,140.456903,青森県,,
ハッピードラッグ,ハッピー・ドラッグ 五所川原金木店,青森県五所川原市金木町沢部454-8,40.903056,140.446779,青森県,,
ハッピードラッグ,ハッピー・ドラッグ 八戸一番町店,青森県八戸市尻内町八百刈39-2,40.505064,141.441873,青森県,,
ハッピードラッグ,ハッピー・ドラッグ 八戸下長店,青森県八戸市下長3-13-8,40.535099,141.477051,青森県,,
ハッピードラッグ,ハッピー・ドラッグ 八戸吹上店,青森県八戸市吹上2-16-22,40.496428,141.503346,青森県,,
ハッピードラッグ,ハッピー・ドラッグ 八戸売市店,青森県八戸市根城9-5-3,40.505568,141.472543,青森県,,
ハッピードラッグ,ハッピー・ドラッグ 八戸旭ヶ丘店,青森県八戸市新井田字小久保尻16-127,40.495856,141.544894,青森県,,
ハッピードラッグ,ハッピー・ドラッグ 八戸根城店,青森県八戸市根城2-26-27,40.499443,141.480025,青森県,,
ハッピードラッグ,ハッピー・ドラッグ 八戸桔梗野店,青森県八戸市松ケ丘5-1,40.550865,141.452854,青森県,,
ハッピードラッグ,ハッピー・ドラッグ 八戸湊中道店,青森県八戸市湊町中道55,40.518589,141.536147,青森県,,
ハッピードラッグ,ハッピー・ドラッグ 八戸湊高台中央店,青森県八戸市湊高台4-18-13,40.505286,141.545293,青森県,,
ハッピードラッグ,ハッピー・ドラッグ 八戸湊高台店,青森県八戸市湊高台5-1-18,40.506509,141.536784,青森県,,
ハッピードラッグ,ハッピー・ドラッグ 八戸田向店,青森県八戸市田向2-12-8,40.491787,141.515007,青森県,,
ハッピードラッグ,ハッピー・ドラッグ 八戸類家中央店,青森県八戸市類家4-41-5,40.502468,141.511957,青森県,,
ハッピードラッグ,ハッピー・ドラッグ 八戸類家店,青森県八戸市南類家3-2-12,40.498848,141.513074,青森県,,
ハッピードラッグ,ハッピー・ドラッグ 十和田元町東店,青森県十和田市元町東3-3-35,40.621949,141.218807,青森県,,
ハッピードラッグ,ハッピー・ドラッグ 十和田元町西店,青森県十和田市元町西4-3-30,40.618589,141.204319,青森県,,
ハッピードラッグ,ハッピー・ドラッグ 十和田穂並町店,青森県十和田市穂並町7-3,40.603315,141.223328,青森県,,
ハッピードラッグ,ハッピー・ドラッグ 十和田西金崎店,青森県十和田市西23-60-19,40.601616,141.198278,青森県,,
ハッピードラッグ,ハッピー・ドラッグ 平川尾上店,青森県平川市尾上栄松48-1,40.613764,140.583891,青森県,,
ハッピードラッグ,ハッピー・ドラッグ 平川平賀店,青森県平川市本町平野12-9,40.582093,140.571788,青森県,,
ハッピードラッグ,ハッピー・ドラッグ 弘前和徳店,青森県弘前市和徳町165,40.604943,140.48602,青森県,,
ハッピードラッグ,ハッピー・ドラッグ 弘前土手町店,青森県弘前市土手町89-1,40.596992,140.477446,青森県,,
ハッピードラッグ,ハッピー・ドラッグ 弘前城東中央店,青森県弘前市城東中央3-3-1,40.597082,140.497479,青森県,,
ハッピードラッグ,ハッピー・ドラッグ 弘前城東店,青森県弘前市田園3-5-12,40.599837,140.512123,青森県,,
ハッピードラッグ,ハッピー・ドラッグ 弘前堅田店,青森県弘前市青山1-11-2,40.615255,140.487325,青森県,,
ハッピードラッグ,ハッピー・ドラッグ 弘前大原店,青森県弘前市大原2-5-26,40.573979,140.452479,青森県,,
ハッピードラッグ,ハッピー・ドラッグ 弘前岩木店,青森県弘前市一町田村元712-1,40.612079,140.428223,青森県,,
ハッピードラッグ,ハッピー・ドラッグ 弘前桔梗野店,青森県弘前市桔梗野1-2-2,40.589691,140.468779,青森県,,
ハッピードラッグ,ハッピー・ドラッグ 弘前樋の口店,青森県弘前市樋の口2-9-6イオンタウン弘前樋の口内,40.599868,140.44703,青森県,,
ハッピードラッグ,ハッピー・ドラッグ 弘前浜の町店,青森県弘前市浜の町西1-5-21,40.615243,140.462646,青森県,,
ハッピードラッグ,ハッピー・ドラッグ 青森おいらせ店,青森県上北郡おいらせ町牛込平80-1,40.599789,141.441271,青森県,,
ハッピードラッグ,ハッピー・ドラッグ 青森おいらせ青葉店,青森県上北郡おいらせ町青葉5-50-1486,40.651178,141.378161,青森県,,
ハッピードラッグ,ハッピー・ドラッグ 青森のぎわ店,青森県青森市羽白字沢田306-1,40.853836,140.683825,青森県,,
ハッピードラッグ,ハッピー・ドラッグ 青森やえだ店,青森県青森市東造道3-15-1,40.824278,140.801889,青森県,,
ハッピードラッグ,ハッピー・ドラッグ 青森三内店,青森県青森市三内玉作2-72,40.818378,140.714279,青森県,,
ハッピードラッグ,ハッピー・ドラッグ 青森三戸店,青森県三戸郡三戸町同心町字古間木平1-1,40.374186,141.255155,青森県,,
ハッピードラッグ,ハッピー・ドラッグ 青森上北町店,青森県上北郡東北町旭北1-3-16,40.733073,141.268691,青森県,,
ハッピードラッグ,ハッピー・ドラッグ 青森中央店,青森県青森市東大野2-8-4,40.796086,140.748254,青森県,,
ハッピードラッグ,ハッピー・ドラッグ 青森中里店,青森県北津軽郡中泊町中里字紅葉坂159-1,40.959513,140.437351,青森県,,
ハッピードラッグ,ハッピー・ドラッグ 青森久須志店,青森県青森市久須志3-18-7,40.81481,140.730349,青森県,,
ハッピードラッグ,ハッピー・ドラッグ 青森五戸店,青森県三戸郡五戸町中道8-1,40.519683,141.312707,青森県,,
ハッピードラッグ,ハッピー・ドラッグ 青森佃店,青森県青森市中佃3-7-13,40.814907,140.789682,青森県,,
ハッピードラッグ,ハッピー・ドラッグ 青森八重田SC店,青森県青森市造道3-25-1,40.828967,140.793161,青森県,,
ハッピードラッグ,ハッピー・ドラッグ 青森六戸店,青森県上北郡六戸町犬落瀬後田52-5,40.603486,141.329874,青森県,,
ハッピードラッグ,ハッピー・ドラッグ 青森勝田店,青森県青森市勝田1-20-1,40.816122,140.757998,青森県,,
ハッピードラッグ,ハッピー・ドラッグ 青森南佃店,青森県青森市南佃2-7-10,40.812788,140.787182,青森県,,
ハッピードラッグ,ハッピー・ドラッグ 青森大間店,青森県下北郡大間町大間字奥戸上道17-1,41.521306,140.909112,青森県,,
ハッピードラッグ,ハッピー・ドラッグ 青森大鰐店,青森県南津軽郡大鰐町大鰐字前田5-1,40.520586,140.570876,青森県,,
ハッピードラッグ,ハッピー・ドラッグ 青森奥野店,青森県青森市奥野2-26-10,40.809791,140.766625,青森県,,
ハッピードラッグ,ハッピー・ドラッグ 青森幸畑店,青森県青森市幸畑5-1-3,40.778286,140.784694,青森県,,
ハッピードラッグ,ハッピー・ドラッグ 青森戸山店,青森県青森市蛍沢4-2-8,40.795259,140.806862,青森県,,
ハッピードラッグ,ハッピー・ドラッグ 青森新城店,青森県青森市新城平岡258-258,40.822786,140.688678,青森県,,
ハッピードラッグ,ハッピー・ドラッグ 青森旭町通店,青森県青森市金沢3-27-22,40.80763,140.73959,青森県,,
ハッピードラッグ,ハッピー・ドラッグ 青森松原店,青森県青森市松原3-13-21,40.815185,140.767812,青森県,,
ハッピードラッグ,ハッピー・ドラッグ 青森沖館店,青森県青森市柳川2-4-22,40.828351,140.731489,青森県,,
ハッピードラッグ,ハッピー・ドラッグ 青森油川店,青森県青森市油川浪返102-1,40.846487,140.705956,青森県,,
ハッピードラッグ,ハッピー・ドラッグ 青森浜館店,青森県青森市浜館6-4-21,40.803592,140.789956,青森県,,
ハッピードラッグ,ハッピー・ドラッグ 青森浪岡店,青森県青森市浪岡大字浪岡字若松124-1,40.705452,140.592859,青森県,,
ハッピードラッグ,ハッピー・ドラッグ 青森浪打店,青森県青森市佃1-20-30,40.819786,140.780063,青森県,,
ハッピードラッグ,ハッピー・ドラッグ 青森浪館店,青森県青森市浪館前田4-6-1,40.810129,140.724581,青森県,,
ハッピードラッグ,ハッピー・ドラッグ 青森深浦店,青森県西津軽郡深浦町深浦苗代沢27-1,40.651665,139.942309,青森県,,
ハッピードラッグ,ハッピー・ドラッグ 青森藤崎店,青森県南津軽郡藤崎町葛野新岡元109,40.656702,140.502598,青森県,,
ハッピードラッグ,ハッピー・ドラッグ 青森蟹田店,青森県東津軽郡外ヶ浜町蟹田中師火箱沢29-3,41.045786,140.634884,青森県,,
ハッピードラッグ,ハッピー・ドラッグ 青森西大野店,青森県青森市西大野3-13-8,40.798188,140.731644,青森県,,
ハッピードラッグ,ハッピー・ドラッグ 青森観光通店,青森県青森市緑3-11-8,40.803019,140.757499,青森県,,
ハッピードラッグ,ハッピー・ドラッグ 青森野辺地店,青森県上北郡野辺地町二本木25-5,40.864206,141.116413,青森県,,
ハッピードラッグ,ハッピー・ドラッグ 青森階上店,青森県三戸郡階上町道仏字耳ヶ吠33-44,40.449751,141.621649,青森県,,
ハッピードラッグ,ハッピー・ドラッグ 青森鰺ヶ沢店,青森県西津軽郡鰺ヶ沢町舞戸町字下富田58-1,40.771172,140.226105,青森県,,
ハッピードラッグ,ハッピー・ドラッグ 青森鶴田店,青森県北津軽郡鶴田町鶴田沖津47-1,40.747891,140.430809,青森県,,
ハッピードラッグ,ハッピー・ドラッグ 黒石北美店,青森県黒石市北美町1-42-2,40.650746,140.606304,青森県,,
マツモトキヨシ,ドラッグストア マツモトキヨシ シンフォニープラザ八戸沼館店,青森県八戸市沼館４丁目４−８,40.529518,141.49292,青森県,,
マツモトキヨシ,ドラッグストア マツモトキヨシ 八戸石堂店,青森県八戸市石堂４丁目１５−１２,40.534271,141.480194,青森県,,
マツモトキヨシ,ドラッグストア マツモトキヨシ 弘前堅田店,青森県弘前市宮川１丁目2−１３,40.611458,140.482773,青森県,,
マツモトキヨシ,薬 マツモトキヨシ ラピア八戸店,青森県八戸市江陽２丁目１４−１ショッピングセンターラピア3F,40.520836,141.503159,青森県,,
マツモトキヨシ,薬 マツモトキヨシ 弘前駅ビルアプリーズ店,青森県弘前市表町2−１１,40.598759,140.485107,青森県,,
マツモトキヨシ,薬 マツモトキヨシ 青森＆ラビナ店,青森県青森市柳川１丁目１−５,40.828552,140.734726,青森県,,
マツモトキヨシ,薬マツモトキヨシ 青森ELM店,青森県五所川原市唐笠柳藤巻５１７−１ELM1F,40.800228,140.452988,青森県,,
薬王堂,薬王堂 おいらせモール店,青森県上北郡おいらせ町緑ヶ丘一丁目50-2,40.665264,141.365921,青森県,,
薬王堂,薬王堂 おいらせ上久保店,青森県上北郡おいらせ町上久保63番地34,40.64753,141.377304,青森県,,
薬王堂,薬王堂 おいらせ百石店,青森県上北郡おいらせ町獺野50-1,40.600449,141.425827,青森県,,
薬王堂,薬王堂 つがる木造店,青森県つがる市木造浮巣56番地1,40.815411,140.388626,青森県,,
薬王堂,薬王堂 つがる柏店,青森県つがる市柏下古川花崎142,40.79845,140.428329,青森県,,
薬王堂,薬王堂 つがる稲垣店,青森県つがる市稲垣町沼崎船橋1番地80,40.87891,140.390457,青森県,,
薬王堂,薬王堂 むつ下北町店,青森県むつ市下北町2番34号,41.283916,141.189682,青森県,,
薬王堂,薬王堂 むつ中央店,青森県むつ市中央2丁目19番11号,41.292187,141.17984,青森県,,
薬王堂,薬王堂 むつ大平店,青森県むつ市大平町６番地１,41.284428,141.171432,青森県,,
薬王堂,薬王堂 むつ大畑店,青森県むつ市大畑町松ノ木160番地1,41.393997,141.149796,青森県,,
薬王堂,薬王堂 むつ柳町店,青森県むつ市柳町四丁目11番51号,41.304802,141.216965,青森県,,
薬王堂,薬王堂 むつ横迎町店,青森県むつ市横迎町一丁目11番45号,41.289909,141.218491,青森県,,
薬王堂,薬王堂 三戸川守田店,青森県三戸郡三戸町三戸町大字川守田字沖中61番地1,40.378445,141.258743,青森県,,
薬王堂,薬王堂 三沢南山店,青森県三沢市南山三丁目172番地10号,40.678589,141.399506,青森県,,
薬王堂,薬王堂 上北北店,青森県上北郡東北町上北北二丁目33番地197,40.730637,141.253372,青森県,,
薬王堂,薬王堂 五戸下中崎店,青森県三戸郡五戸町字下中崎9番地2,40.525494,141.310913,青森県,,
薬王堂,薬王堂 五所川原新宮店,青森県五所川原市幾世森175-1,40.820438,140.445877,青森県,,
薬王堂,薬王堂 五所川原石岡店,青森県五所川原市大字唐笠柳字藤巻592番地2号,40.800228,140.452988,青森県,,
薬王堂,薬王堂 五所川原稲実店,青森県五所川原市大字稲実字米崎22番3,40.790485,140.463638,青森県,,
薬王堂,薬王堂 五所川原金木店,青森県五所川原市金木町玉水178番地8,40.920578,140.55191,青森県,,
薬王堂,薬王堂 八戸ニュータウン店,青森県八戸市西白山台四丁目6番1号,40.478619,141.455475,青森県,,
薬王堂,薬王堂 八戸南郷店,青森県八戸市南郷市野沢字黒坂11番地17,40.401711,141.445816,青森県,,
薬王堂,薬王堂 八戸城下店,青森県八戸市沼館一丁目1番18号,40.523144,141.49054,青森県,,
薬王堂,薬王堂 八戸尻内店,青森県八戸市大字尻内町字直田11-3,40.517273,141.425751,青森県,,
薬王堂,薬王堂 八戸新井田店,青森県八戸市新井田西一丁目1番3号,40.502281,141.514954,青森県,,
薬王堂,薬王堂 八戸河原木店,青森県八戸市大字河原木字二階堀5番1,40.544437,141.458054,青森県,,
薬王堂,薬王堂 八戸田向店,青森県八戸市田向二丁目1番23号,40.495106,141.509018,青森県,,
薬王堂,薬王堂 八戸白銀店,青森県八戸市白銀町八森19番地2,40.519367,141.532486,青森県,,
薬王堂,薬王堂 八戸長根店,青森県八戸市長根三丁目11番1号,40.513653,141.481674,青森県,,
薬王堂,薬王堂 十和田三本木店,青森県十和田市大字三本木字本金崎229-2,40.61158,141.184418,青森県,,
薬王堂,薬王堂 十和田元町店,青森県十和田市元町西5丁目1番7,40.621765,141.200592,青森県,,
薬王堂,薬王堂 十和田東店,青森県十和田市東十三番町18-3,40.62101,141.225983,青森県,,
薬王堂,薬王堂 十和田稲吉店,青森県十和田市東十四番町43番8-2号,40.61319,141.229233,青森県,,
薬王堂,薬王堂 岡三沢店,青森県三沢市東岡三沢一丁目80番地3号,40.691471,141.380814,青森県,,
薬王堂,薬王堂 平川大光寺店,青森県平川市大光寺三村井70番地3,40.590481,140.557953,青森県,,
薬王堂,薬王堂 平川柏木店,青森県平川市柏木町藤山13番地10,40.582558,140.564438,青森県,,
薬王堂,薬王堂 弘前安原店,青森県弘前市大字泉野5丁目5-1,40.572285,140.493835,青森県,,
薬王堂,薬王堂 弘前富田町店,青森県弘前市大字富田町162番地,40.586243,140.476028,青森県,,
薬王堂,薬王堂 弘前早稲田店,青森県弘前市早稲田一丁目4-5,40.604378,140.51207,青森県,,
薬王堂,薬王堂 弘前桔梗野店,青森県弘前市大字桔梗野二丁目11番1,40.59309,140.463516,青森県,,
薬王堂,薬王堂 弘前相馬店,青森県弘前市湯口字一ノ細川51番地1,40.581623,140.410675,青森県,,
薬王堂,薬王堂 弘前石渡店,青森県弘前市石渡2丁目5番地4,40.62899,140.455917,青森県,,
薬王堂,薬王堂 弘前若葉店,青森県弘前市大字清水一丁目2-2,40.586399,140.455521,青森県,,
薬王堂,薬王堂 階上蒼前店,青森県三戸郡階上町蒼前西七丁目9番3209,40.478752,141.573395,青森県,,
薬王堂,薬王堂 青森七戸店,青森県上北郡七戸町字笊田川久保18,40.698574,141.164688,青森県,,
薬王堂,薬王堂 青森三戸店,青森県三戸郡三戸町大字同心町字金堀2番地6,40.370941,141.244858,青森県,,
薬王堂,薬王堂 青森上北店,青森県上北郡東北町旭南二丁目324番地1,40.731979,141.273026,青森県,,
薬王堂,薬王堂 青森中泊店,青森県北津軽郡中泊町大字中里字紅葉坂168番5,41.022434,140.489685,青森県,,
薬王堂,薬王堂 青森乙供店,青森県上北郡東北町字上笹橋37番地8,40.781414,141.216248,青森県,,
薬王堂,薬王堂 青森五戸店,青森県三戸郡五戸町字下モ沢向13-3,40.523994,141.304047,青森県,,
薬王堂,薬王堂 青森六ヶ所店,青森県上北郡六ヶ所村大字尾駮字家ノ前１番地95,40.95129,141.345825,青森県,,
薬王堂,薬王堂 青森六戸店,青森県上北郡六戸町大字犬落瀬字前谷地23番地,40.610001,141.320038,青森県,,
薬王堂,薬王堂 青森南部町店,青森県三戸郡南部町大字沖田面字沖中85-1,40.420063,141.282471,青森県,,
薬王堂,薬王堂 青森南部福地店,青森県三戸郡南部町大字苫米地字白山堂23番地3,40.476719,141.374115,青森県,,
薬王堂,薬王堂 青森名川店,青森県三戸郡南部町大字斗賀字沼田68番,40.467491,141.341461,青森県,,
薬王堂,薬王堂 青森大間店,青森県下北郡大間町大字大間字上野5-4,41.52702,140.920334,青森県,,
薬王堂,薬王堂 青森大鰐店,青森県南津軽郡大鰐町大字蔵館字湯ノ沢2番地1,40.525684,140.579086,青森県,,
薬王堂,薬王堂 青森天間林店,青森県上北郡七戸町字森ノ上130番44,40.745522,141.164612,青森県,,
薬王堂,薬王堂 青森常盤店,青森県南津軽郡藤崎町榊字亀田10番地24,40.669079,140.529343,青森県,,
薬王堂,薬王堂 青森平内店,青森県東津軽郡平内町小湊新道27-1,40.927029,140.964249,青森県,,
薬王堂,薬王堂 青森新城店,青森県青森市大字新城字平岡259番地64,40.82962,140.685883,青森県,,
薬王堂,薬王堂 青森板柳SC店,青森県北津軽郡板柳町大字福野田字常盤5-1,40.703167,140.452606,青森県,,
薬王堂,薬王堂 青森浪岡店,青森県青森市浪岡大字浪岡字若松113番地1,40.709408,140.589828,青森県,,
薬王堂,薬王堂 青森野辺地店,青森県上北郡野辺地町字上前田7-1,40.85535,141.130829,青森県,,
薬王堂,薬王堂 青森階上店,青森県三戸郡階上町道仏字耳ヶ吠6-269,40.462357,141.603928,青森県,,
薬王堂,薬王堂 青森鶴田店,青森県北津軽郡鶴田町大字鶴田字早瀬119番地2,40.754078,140.427032,青森県,,
薬王堂,薬王堂 黒石あけぼの店,青森県黒石市あけぼの町60番2,40.656586,140.608307,青森県,,
薬王堂,薬王堂 黒石富士見店,青森県黒石市富士見118,40.665565,140.599045,青森県,,
薬王堂,薬王堂 黒石西ケ丘店,青森県黒石市西ケ丘301番地1,40.648609,140.586441,青森県,,
その他,アリスドラッグ,岩手県一関市千厩町千厩東小田９０,38.9068366,141.3272405,岩手県,,
その他,ウメダドラッグストアー,岩手県二戸市石切所枋ノ木４９−４,40.25959539999999,141.2876221,岩手県,,
その他,スーパードラッグアサヒ クラソ・プレイス北上店,岩手県北上市本通り２丁目２−１クラソ・プレイス北上1F,39.2887369,141.1160838,岩手県,,
その他,スーパードラッグアサヒ 二戸店,岩手県二戸市堀野大谷地５７−１,40.295088,141.3035308,岩手県,,
その他,スーパードラッグアサヒ一戸店,岩手県二戸郡一戸町一戸砂森１２３−１,40.2104317,141.3049598,岩手県,,
その他,ツルハ高木店,岩手県花巻市高木第１６地割６−１,39.3864302,141.1352571,岩手県,,
その他,ドラッグふじや,岩手県二戸市浄法寺町下前田２７−５,40.1847866,141.1557242,岩手県,,
その他,ドラッグストアアオキ秋葉町,岩手県奥州市水沢秋葉町１３７,39.1483943,141.1455562,岩手県,,
その他,ハッピー,岩手県久慈市川崎町７−２５,40.1895616,141.77291,岩手県,,
その他,ハッピーヒルファーム,岩手県岩手郡岩手町土川第４地割９１−７４,39.959757,141.177335,岩手県,,
その他,ハッピーライスいわて丸福,岩手県紫波郡矢巾町東徳田第１４地割２,39.5985994,141.1848137,岩手県,,
その他,ファミリードラッグ たきじゅう,岩手県二戸市金田一八ツ長１２５−１,40.3133957,141.3100418,岩手県,,
その他,ヘルシードラッグまつや,岩手県盛岡市好摩夏間木８３−１２,39.875303,141.169811,岩手県,,
その他,レモンドラッグ,岩手県盛岡市館向町３８−１,39.7215936,141.1313039,岩手県,,
その他,特定非営利活動法人ハックの家,岩手県下閉伊郡田野畑村菅窪２０−２,39.9250704,141.8943093,岩手県,,
ウエルシア,ウエルシアアクロスプラザ盛岡店,岩手県盛岡市津志田南１丁目１−７アクロスプラザ盛岡内,39.6594641,141.1607783,岩手県,,
ウエルシア,ウエルシアイオンタウン盛岡駅前店,岩手県盛岡市盛岡駅前北通１１−３０,39.70571229999999,141.1337289,岩手県,,
ウエルシア,ウエルシア一関山目店,岩手県一関市山前田53−１,38.9347133,141.1222027,岩手県,,
ウエルシア,ウエルシア一関山目店,岩手県一関市山目前田53-1,38.931812,141.125689,岩手県,,
ウエルシア,ウエルシア一関末広店,岩手県一関市末広１丁目８−１８,38.9277338,141.126149,岩手県,,
ウエルシア,ウエルシア北上さくら通り店,岩手県北上市さくら通り１丁目１−３４,39.2954069,141.1181357,岩手県,,
ウエルシア,ウエルシア奥州江刺店,岩手県奥州市江刺八日町１丁目４−１０−２,39.1895929,141.172002,岩手県,,
ウエルシア,ウエルシア水沢大畑店,岩手県奥州市水沢大畑小路３１,39.139815,141.1375629,岩手県,,
ウエルシア,ウエルシア水沢大畑店,岩手県奥州市水沢字大畑小路31,39.136934,141.141051,岩手県,,
ウエルシア,ウエルシア水沢桜屋敷店,岩手県奥州市水沢桜屋敷２９１−１,39.1239879,141.1291227,岩手県,,
ウエルシア,ウエルシア水沢桜屋敷店,岩手県奥州市水沢字桜屋敷291-1,39.121109,141.132619,岩手県,,
ウエルシア,ウエルシア盛岡前九年店,岩手県盛岡市前九年３丁目６−２６,39.7168875,141.1234484,岩手県,,
ウエルシア,ウエルシア盛岡本宮店,岩手県盛岡市本宮６丁目１−６５,39.6882303,141.1259914,岩手県,,
ウエルシア,ウエルシア盛岡本町通店,岩手県盛岡市本町通２丁目１３−８,39.70771,141.147723,岩手県,,
ウエルシア,ウエルシア盛岡永井店,岩手県盛岡市永井２２地割37−１,39.653978,141.1546357,岩手県,,
ウエルシア,ウエルシア盛岡西松園店,岩手県盛岡市西松園４丁目２０−１,39.7575508,141.1607638,岩手県,,
ウエルシア,ウエルシア花巻南川原店,岩手県花巻市南川原町１２６−１,39.383479,141.1168167,岩手県,,
カワチ薬品,カワチ薬品 一関店,岩手県一関市赤荻堺72,38.9392483,141.108,岩手県,,
カワチ薬品,カワチ薬品 三関店,岩手県一関市三関神田１１８,38.9230699,141.1437659,岩手県,,
カワチ薬品,カワチ薬品 前沢店,岩手県奥州市前沢向田１丁目１８,39.0483268,141.1298367,岩手県,,
カワチ薬品,カワチ薬品 北上店,岩手県北上市北鬼柳３２地割１５,39.2850898,141.1058897,岩手県,,
カワチ薬品,カワチ薬品 大船渡店,岩手県大船渡市大船渡町野々田１５７−７,39.0595868,141.720277,岩手県,,
カワチ薬品,カワチ薬品 巣子店,岩手県滝沢市巣子１５６−６,39.77415999999999,141.1290562,岩手県,,
カワチ薬品,カワチ薬品 水沢北店,岩手県奥州市水沢佐倉河東沖ノ目７８,39.1494277,141.1562803,岩手県,,
カワチ薬品,カワチ薬品 水沢水山店,岩手県奥州市水沢水山１８５,39.1435809,141.1247611,岩手県,,
カワチ薬品,カワチ薬品 盛岡みたけ店,岩手県盛岡市みたけ４丁目２−１,39.7420091,141.120181,岩手県,,
カワチ薬品,カワチ薬品 矢巾店,岩手県紫波郡矢巾町西徳田第５地割88−１,39.6136109,141.1689112,岩手県,,
カワチ薬品,カワチ薬品 花巻店,岩手県花巻市上小舟渡３４４−３,39.397107,141.1216821,岩手県,,
コスモス,つなぎコスモスロード,岩手県盛岡市繋上猿田,39.6840417,141.029854,岩手県,,
コスモス,ガーデンコスモス,岩手県一関市山目境７０−３ガーデンコスモス,38.9340294,141.111592,岩手県,,
コスモス,ガーデンコスモス,岩手県一関市山目境７０−３,38.9340294,141.111592,岩手県,,
コスモス,ケアサポートコスモス,岩手県北上市大通り４丁目１−１０,39.2853196,141.1088364,岩手県,,
コスモス,コスモス,岩手県奥州市水沢寺小路３,39.1409885,141.1430513,岩手県,,
コスモス,コスモス,岩手県盛岡市厨川４丁目８−１８コスモス,39.749879,141.1290233,岩手県,,
コスモス,コスモス,岩手県盛岡市みたけ４丁目２９−６,39.7463546,141.1223635,岩手県,,
コスモス,コスモス,岩手県盛岡市八幡町１−７,39.69804200000001,141.157411,岩手県,,
コスモス,コスモス A,岩手県滝沢市牧野林コスモスA,39.7453896,141.1058049,岩手県,,
コスモス,コスモス A,岩手県滝沢市牧野林３０３−５０,39.7453565,141.1058097,岩手県,,
コスモス,コスモス B,岩手県滝沢市牧野林３０３−４９,39.7454177,141.1059698,岩手県,,
コスモス,コスモスB,岩手県滝沢市牧野林コスモスB,39.7454177,141.1059698,岩手県,,
コスモス,コスモスB,岩手県盛岡市天昌寺町４−６１コスモスB,39.7105482,141.1224306,岩手県,,
コスモス,コスモスの家,岩手県久慈市夏井町夏井第３地割第3地割２２－７,40.2254387,141.748786,岩手県,,
コスモス,コスモスの家知的障害者通所授産施設,岩手県奥州市胆沢南都田小十文字３３９−１,39.1197885,141.0672946,岩手県,,
コスモス,コスモスハイツ,岩手県北上市大曲町９−３コスモスハイツ,39.2867283,141.1099725,岩手県,,
コスモス,コスモスハイツ,岩手県北上市大曲町９−３,39.2867283,141.1099725,岩手県,,
コスモス,コスモスレディースクリニック,岩手県一関市田村町５−５−５６,38.9304381,141.1320473,岩手県,,
コスモス,コスモス・ワン,岩手県北上市柳原町３丁目１４コスモス・ワン,39.2942837,141.1147841,岩手県,,
コスモス,コスモス公園,岩手県釜石市甲子町第５地割,39.2508349,141.7669807,岩手県,,
コスモス,コスモス園,岩手県久慈市夏井町夏井第３地割,40.2250942,141.7485253,岩手県,,
コスモス,コスモス治療院,岩手県滝沢市葉の木沢山１３１５−７,39.779289,141.145888,岩手県,,
コスモス,コスモス美容室,岩手県西磐井郡平泉町平泉高田前９０−３,38.9667729,141.1220054,岩手県,,
コスモス,コーポコスモス,岩手県北上市中野町１丁目２−４コーポコスモス,39.2872755,141.1247039,岩手県,,
コスモス,コーポコスモス,岩手県盛岡市繋萪内沢コーポコスモス,39.6739364,141.0162701,岩手県,,
コスモス,ドラッグコスモス,岩手県盛岡市上太田金財９２−１,39.692652,141.091334,岩手県,,
コスモス,岩手医科大学附属病院 コスモス館,岩手県紫波郡矢巾町医大通２丁目１−１２,39.6135348,141.1636861,岩手県,,
コスモス,秋桜（コスモス）,岩手県盛岡市青山３丁目３１−１６,39.7281236,141.1125727,岩手県,,
サンドラック,サンドラッグ 盛南店,岩手県盛岡市向中野７丁目１４−１０,39.6756488,141.1383897,岩手県,,
サンドラック,サンドラッグ 花巻店,岩手県花巻市桜木町２丁目７４−３,39.3825438,141.1087091,岩手県,,
サンドラック,サンドラッグ盛岡三ツ割店,岩手県盛岡市三ツ割４丁目４−３２,39.7294429,141.160177,岩手県,,
サンドラック,サンドラッグ盛岡上田店,岩手県盛岡市本町通３丁目１２−５,39.7108381,141.145988,岩手県,,
サンドラック,サンドラッグ盛岡南サンサ,岩手県盛岡市津志田西２丁目１７−５０,39.6619559,141.1481884,岩手県,,
サンドラック,サンドラッグ紫波,岩手県紫波郡紫波町日詰丸盛１９０−１,39.5575444,141.1606581,岩手県,,
サンドラック,サンドラッグ鉈屋町,岩手県盛岡市鉈屋町１１−１１,39.6906663,141.1564348,岩手県,,
サンドラック,サンドラッグ青山,岩手県盛岡市青山２丁目５−５５,39.726281,141.114427,岩手県,,
ツルハドラッグ,ツルハドラッグ かど店,岩手県盛岡市門１丁目５−５０,39.67109600000001,141.1688703,岩手県,,
ツルハドラッグ,ツルハドラッグ みたけ店,岩手県盛岡市みたけ３丁目３５−１５,39.7405491,141.1191006,岩手県,,
ツルハドラッグ,ツルハドラッグ マリオス店,岩手県盛岡市盛岡駅西通２丁目９−１マリオス立体5F内,39.70145,141.1336541,岩手県,,
ツルハドラッグ,ツルハドラッグ 一関中里店,岩手県一関市中里雲南６３63番地,38.9394302,141.1425002,岩手県,,
ツルハドラッグ,ツルハドラッグ 一関中里店,岩手県一関市中里字雲南63番地,38.93943016571208,141.14250024403765,岩手県,,
ツルハドラッグ,ツルハドラッグ 三本柳店,岩手県盛岡市三本柳５地割２８−２,39.6581092,141.1625545,岩手県,,
ツルハドラッグ,ツルハドラッグ 上田店,岩手県盛岡市上田１丁目３−２６,39.712794,141.1474578,岩手県,,
ツルハドラッグ,ツルハドラッグ 久慈店,岩手県久慈市長内町第２９地割29地割8-1,40.1875197,141.7839836,岩手県,,
ツルハドラッグ,ツルハドラッグ 久慈店,岩手県久慈市長内町29地割8-1,40.18751974101599,141.7839836114494,岩手県,,
ツルハドラッグ,ツルハドラッグ 久慈荒町店,岩手県久慈市荒町第３地割14番1,40.1922215,141.757972,岩手県,,
ツルハドラッグ,ツルハドラッグ 八幡平バイパス店,岩手県八幡平市大更第３４地割３９２−１,39.91478499999999,141.1064037,岩手県,,
ツルハドラッグ,ツルハドラッグ 前沢店,岩手県奥州市前沢竹沢82番地,39.0533398,141.1324332,岩手県,,
ツルハドラッグ,ツルハドラッグ 前沢店,岩手県奥州市前沢字竹沢82番地,39.05333976841818,141.13243323313523,岩手県,,
ツルハドラッグ,ツルハドラッグ 北上常盤台店,岩手県北上市常盤台４丁目１−５１,39.3070512,141.1140393,岩手県,,
ツルハドラッグ,ツルハドラッグ 北上常盤台店,岩手県北上市常盤台四丁目1番51号,39.307051229814,141.114039251364,岩手県,,
ツルハドラッグ,ツルハドラッグ 北上店,岩手県北上市柳原町１丁目４−１４０,39.2931058,141.1120098,岩手県,,
ツルハドラッグ,ツルハドラッグ 北上東店,岩手県北上市里分４地割３３−１,39.2953611,141.1349335,岩手県,,
ツルハドラッグ,ツルハドラッグ 北上江釣子店,岩手県北上市上江釣子６地割３３−３,39.302342,141.0642983,岩手県,,
ツルハドラッグ,ツルハドラッグ 北上流通センター店,岩手県北上市流通センター９,39.3156594,141.1001753,岩手県,,
ツルハドラッグ,ツルハドラッグ 北上流通センター店,岩手県北上市流通センター9番74号,39.3156593668403,141.100175271758,岩手県,,
ツルハドラッグ,ツルハドラッグ 北上若宮町店,岩手県北上市若宮町２丁目３−456番地,39.281878,141.1158966,岩手県,,
ツルハドラッグ,ツルハドラッグ 北上若宮町店,岩手県北上市若宮町2丁目456番地,39.28187803141341,141.11589661271367,岩手県,,
ツルハドラッグ,ツルハドラッグ 北上鬼柳店,岩手県北上市鬼柳町都鳥190番地2,39.2740705,141.1000784,岩手県,,
ツルハドラッグ,ツルハドラッグ 大槌店,岩手県上閉伊郡大槌町大槌第２３地割字沢山8番地1,39.3657081,141.9036452,岩手県,,
ツルハドラッグ,ツルハドラッグ 大船渡北店,岩手県大船渡市立根町桑原43番地1,39.1077185,141.7117962,岩手県,,
ツルハドラッグ,ツルハドラッグ 大船渡北店,岩手県大船渡市立根町字桑原43番地1,39.107321,141.712121,岩手県,,
ツルハドラッグ,ツルハドラッグ 大船渡店,岩手県大船渡市盛町内ノ目１４−５,39.0811202,141.7121569,岩手県,,
ツルハドラッグ,ツルハドラッグ 大船渡店,岩手県大船渡市盛町字内ノ目14-5,39.08112015191837,141.71215687729816,岩手県,,
ツルハドラッグ,ツルハドラッグ 大船渡笹崎店,岩手県大船渡市大船渡町笹崎１３２−１,39.0578366,141.7196139,岩手県,,
ツルハドラッグ,ツルハドラッグ 大船渡笹崎店,岩手県大船渡市大船渡町字笹崎132-1,39.0578366442551,141.7196138516127,岩手県,,
ツルハドラッグ,ツルハドラッグ 大船渡赤崎店,岩手県大船渡市赤崎町諏訪前３９−７,39.0847495,141.7194101,岩手県,,
ツルハドラッグ,ツルハドラッグ 大船渡赤崎店,岩手県大船渡市赤崎町字諏訪前39-7,39.084749472929104,141.7194100570431,岩手県,,
ツルハドラッグ,ツルハドラッグ 大通2丁目店,岩手県盛岡市大通２丁目３−５,39.703276,141.1467361,岩手県,,
ツルハドラッグ,ツルハドラッグ 奥州胆沢店,岩手県奥州市胆沢南都田宇南田１４０,39.1416258,141.0976311,岩手県,,
ツルハドラッグ,ツルハドラッグ 奥州胆沢店,岩手県奥州市胆沢南都田字宇南田140,39.14162578,141.0976311,岩手県,,
ツルハドラッグ,ツルハドラッグ 宮古中央店,岩手県宮古市保久田８−５,39.6435235,141.947287,岩手県,,
ツルハドラッグ,ツルハドラッグ 宮古千徳店,岩手県宮古市上鼻２丁目８−７５,39.6310318,141.9105293,岩手県,,
ツルハドラッグ,ツルハドラッグ 宮古千徳店,岩手県宮古市上鼻2丁目8－75,39.63103181796216,141.9105292899455,岩手県,,
ツルハドラッグ,ツルハドラッグ 宮古南町店,岩手県宮古市南町１４−３,39.6387545,141.9488774,岩手県,,
ツルハドラッグ,ツルハドラッグ 宮古磯鶏南店,岩手県宮古市実田１丁目４−６,39.625074,141.959621,岩手県,,
ツルハドラッグ,ツルハドラッグ 宮古磯鶏南店,岩手県宮古市1丁目4-6,39.625074,141.959621,岩手県,,
ツルハドラッグ,ツルハドラッグ 宮古磯鶏店,岩手県宮古市磯鶏石崎２−１２,39.631951,141.963016,岩手県,,
ツルハドラッグ,ツルハドラッグ 岩手山田店,岩手県下閉伊郡山田町中央町５6号,39.4682524,141.9511174,岩手県,,
ツルハドラッグ,ツルハドラッグ 岩手山田店,岩手県下閉伊郡山田町中央町5番6号,39.46825240470024,141.95111741260732,岩手県,,
ツルハドラッグ,ツルハドラッグ 岩泉店,岩手県下閉伊郡岩泉町岩泉太田18−１,39.8472934,141.7889803,岩手県,,
ツルハドラッグ,ツルハドラッグ 岩泉店,岩手県下閉伊郡岩泉町岩泉字太田18-1,39.8472934,141.7889803,岩手県,,
ツルハドラッグ,ツルハドラッグ 水沢台町店,岩手県奥州市水沢台町６−６,39.1307907,141.1531807,岩手県,,
ツルハドラッグ,ツルハドラッグ 水沢大鐘店,岩手県奥州市水沢南大鐘１丁目８５,39.1277558,141.1400689,岩手県,,
ツルハドラッグ,ツルハドラッグ 江刺店,岩手県奥州市江刺西大通り９−５,39.1964655,141.1711745,岩手県,,
ツルハドラッグ,ツルハドラッグ 沼宮内店,岩手県岩手郡岩手町五日市第１１地割１１７−１,39.9648956,141.214874,岩手県,,
ツルハドラッグ,ツルハドラッグ 沼宮内店,岩手県岩手郡岩手町大字五日市第11地割117-1,39.96489556043908,141.21487398957404,岩手県,,
ツルハドラッグ,ツルハドラッグ 滝沢室小路店,岩手県滝沢市室小路672−１８,39.735382,141.100647,岩手県,,
ツルハドラッグ,ツルハドラッグ 滝沢巣子店,岩手県滝沢市巣子９５−１,39.7727013,141.1308977,岩手県,,
ツルハドラッグ,ツルハドラッグ 盛岡みたけ北店,岩手県盛岡市みたけ２丁目１２−１０,39.7450244,141.1253254,岩手県,,
ツルハドラッグ,ツルハドラッグ 盛岡三ツ割店,岩手県盛岡市三ツ割４丁目９−１,39.7297234,141.1617147,岩手県,,
ツルハドラッグ,ツルハドラッグ 盛岡三ツ割店,岩手県盛岡市4丁目9番1号,39.72972341430752,141.1617147264587,岩手県,,
ツルハドラッグ,ツルハドラッグ 盛岡上堂店,岩手県盛岡市上堂１丁目１７−３６,39.7245515,141.1210356,岩手県,,
ツルハドラッグ,ツルハドラッグ 盛岡乙部店,岩手県盛岡市乙部４地割23番5,39.6182416,141.1898634,岩手県,,
ツルハドラッグ,ツルハドラッグ 盛岡八幡店,岩手県盛岡市八幡町１２22号,39.6947035,141.1607611,岩手県,,
ツルハドラッグ,ツルハドラッグ 盛岡八幡店,岩手県盛岡市八幡町12番22号,39.69470351498658,141.16076107636144,岩手県,,
ツルハドラッグ,ツルハドラッグ 盛岡南仙北店,岩手県盛岡市南仙北１丁目２１−３９,39.6787873,141.1532971,岩手県,,
ツルハドラッグ,ツルハドラッグ 盛岡向中野店,岩手県盛岡市向中野５丁目２９38号,39.6769583,141.1397956,岩手県,,
ツルハドラッグ,ツルハドラッグ 盛岡向中野店,岩手県盛岡市向中野5丁目29番38号,39.67695829466397,141.1397956411045,岩手県,,
ツルハドラッグ,ツルハドラッグ 盛岡向中野東店,岩手県盛岡市向中野２丁目１−１,39.68435119999999,141.1429709,岩手県,,
ツルハドラッグ,ツルハドラッグ 盛岡向中野東店,岩手県盛岡市向中野二丁目1番1号,39.6843512,141.1429709,岩手県,,
ツルハドラッグ,ツルハドラッグ 盛岡愛宕店,岩手県盛岡市愛宕町１１−１９,39.7092055,141.1612467,岩手県,,
ツルハドラッグ,ツルハドラッグ 盛岡本宮店,岩手県盛岡市本宮７丁目３−２３,39.68501699999999,141.123587,岩手県,,
ツルハドラッグ,ツルハドラッグ 盛岡本宮店,岩手県盛岡市本宮七丁目3番23号,39.685017,141.123587,岩手県,,
ツルハドラッグ,ツルハドラッグ 盛岡本町通店,岩手県盛岡市本町通１丁目２−１５,39.70607710000001,141.1560737,岩手県,,
ツルハドラッグ,ツルハドラッグ 盛岡津志田店,岩手県盛岡市津志田中央２丁目１７17番地33号,39.6614191,141.154295,岩手県,,
ツルハドラッグ,ツルハドラッグ 盛岡津志田西店,岩手県盛岡市津志田西２丁目２−１５,39.665364,141.150748,岩手県,,
ツルハドラッグ,ツルハドラッグ 盛岡盛南店,岩手県盛岡市向中野６丁目１４−１７,39.6735242,141.1427556,岩手県,,
ツルハドラッグ,ツルハドラッグ 盛岡盛南店,岩手県盛岡市向中野六丁目14番17号,39.67352418751229,141.14275562698364,岩手県,,
ツルハドラッグ,ツルハドラッグ 盛岡神明町店,岩手県盛岡市神明町４−２０,39.7007566,141.1581696,岩手県,,
ツルハドラッグ,ツルハドラッグ 盛岡神明町店,岩手県盛岡市４−２０,39.70075657073236,141.15816955396733,岩手県,,
ツルハドラッグ,ツルハドラッグ 盛岡菜園店,岩手県盛岡市菜園２丁目７−２８,39.7015036,141.1445915,岩手県,,
ツルハドラッグ,ツルハドラッグ 盛岡菜園店,岩手県盛岡市菜園二丁目7-28,39.70150357579868,141.14459148174743,岩手県,,
ツルハドラッグ,ツルハドラッグ 盛岡西見前店,岩手県盛岡市西見前１４地割１４９,39.639493,141.168991,岩手県,,
ツルハドラッグ,ツルハドラッグ 盛岡青山店,岩手県盛岡市月が丘２丁目１−３５,39.7299833,141.1067616,岩手県,,
ツルハドラッグ,ツルハドラッグ 紫波中央店,岩手県紫波郡紫波町日詰中新田２１１−１,39.5557429,141.1615915,岩手県,,
ツルハドラッグ,ツルハドラッグ 紫波中央店,岩手県紫波郡紫波町日詰字中新田211-1,39.55574286040492,141.1615915139717,岩手県,,
ツルハドラッグ,ツルハドラッグ 紫波南店,岩手県紫波郡紫波町北日詰大日堂40番地1,39.5376527,141.1666827,岩手県,,
ツルハドラッグ,ツルハドラッグ 紫波南店,岩手県紫波郡紫波町北日詰字大日堂40番地1,39.53765274,141.1666827,岩手県,,
ツルハドラッグ,ツルハドラッグ 紫波店,岩手県紫波郡紫波町高水寺大坊１８３−１,39.5687123,141.164862,岩手県,,
ツルハドラッグ,ツルハドラッグ 紫波店,岩手県紫波郡紫波町高水寺字大坊183-1,39.5687123,141.1648620239252,岩手県,,
ツルハドラッグ,ツルハドラッグ 花巻大迫店,岩手県花巻市大迫町大迫第１３地割149番地,39.472103,141.2791699,岩手県,,
ツルハドラッグ,ツルハドラッグ 花巻御田屋町店,岩手県花巻市御田屋町４−１６,39.3853247,141.123935,岩手県,,
ツルハドラッグ,ツルハドラッグ 花巻本館店,岩手県花巻市本館３丁目2−９,39.4072773,141.1173725,岩手県,,
ツルハドラッグ,ツルハドラッグ 花巻本館店,岩手県花巻市本館三丁目2-9,39.4072773,141.1173725,岩手県,,
ツルハドラッグ,ツルハドラッグ 花巻東店,岩手県花巻市南新田２７４−２,39.4030802,141.0985079,岩手県,,
ツルハドラッグ,ツルハドラッグ 花巻温泉くらし館店,岩手県花巻市湯本第１地割125番地25,39.4516426,141.0706639,岩手県,,
ツルハドラッグ,ツルハドラッグ 花巻温泉くらし館店,岩手県花巻市湯本第一地割125番地25,39.45164256866838,141.07066390859833,岩手県,,
ツルハドラッグ,ツルハドラッグ 花巻温泉店,岩手県花巻市湯本第１地割１２５−１７,39.452318,141.069668,岩手県,,
ツルハドラッグ,ツルハドラッグ 花巻石鳥谷店,岩手県花巻市石鳥谷町八幡第４地割53番2,39.484632,141.14871,岩手県,,
ツルハドラッグ,ツルハドラッグ 花巻高木店,岩手県花巻市高木第１６地割６８−６,39.386093,141.1368942,岩手県,,
ツルハドラッグ,ツルハドラッグ 西大通店,岩手県花巻市西大通り２丁目１25号,39.3922879,141.1043862,岩手県,,
ツルハドラッグ,ツルハドラッグ 遠野店,岩手県遠野市松崎町白岩地森２９,39.340549,141.5344048,岩手県,,
ツルハドラッグ,ツルハドラッグ 遠野店,岩手県遠野市松崎町白岩字地森29,39.34054895024435,141.5344048071276,岩手県,,
ツルハドラッグ,ツルハドラッグ 遠野松崎店,岩手県遠野市松崎町白岩１９地割48番地1,39.336919,141.5468469,岩手県,,
ツルハドラッグ,ツルハドラッグ 金ケ崎店,岩手県胆沢郡金ケ崎町西根本宮後１5番地,39.1969002,141.1129518,岩手県,,
ツルハドラッグ,ツルハドラッグ 釜石中妻店,岩手県釜石市中妻町２丁目１−１３,39.2701645,141.8590666,岩手県,,
ツルハドラッグ,ツルハドラッグ 釜石店,岩手県釜石市只越町２丁目４−１７,39.274559,141.8842464,岩手県,,
ツルハドラッグ,ツルハドラッグ 雫石店,岩手県岩手郡雫石町千刈田９７−２,39.6956269,140.9779781,岩手県,,
ツルハドラッグ,ツルハドラッグ 高田アップルロード店,岩手県陸前高田市米崎町西風道２４１−１,39.010672,141.6742782,岩手県,,
ツルハドラッグ,ツルハドラッグ 高田アップルロード店,岩手県陸前高田市米崎町字西風道241-1,39.010671952425824,141.6742781607132,岩手県,,
ツルハドラッグ,ツルハドラッグ 高田中央店,岩手県陸前高田市高田町館の沖303番地3,39.0163834,141.6304498,岩手県,,
ツルハドラッグ,ツルハドラッグ 高田中央店,岩手県陸前高田市高田町字館の沖303番地3,39.01638336811784,141.63044976420974,岩手県,,
ツルハドラッグ,ツルハドラッグ 高田北店,岩手県陸前高田市竹駒町滝の里１５−１,39.0320364,141.6186693,岩手県,,
ツルハドラッグ,ツルハドラッグ 黒石野店,岩手県盛岡市黒石野２丁目１８−１,39.7410952,141.1459149,岩手県,,
ツルハドラッグ,証明写真機Ki-Re-i ツルハドラッグ宮古中央,岩手県宮古市保久田８−１０,39.6436085,141.947036,岩手県,,
ハッピードラッグ,ハッピー・ドラッグ 二戸福岡店,岩手県二戸市福岡長嶺５０−７,40.2807552,141.2989925,岩手県,,
ハッピードラッグ,ハッピー・ドラッグ 岩手種市店,岩手県九戸郡洋野町種市第２３地割８２−１,40.412304,141.713635,岩手県,,
マツモトキヨシ,ドラッグストア マツモトキヨシ アクロスプラザ盛岡みたけ店,岩手県盛岡市みたけ２丁目８−３０,39.742765,141.124022,岩手県,,
マツモトキヨシ,ドラッグストア マツモトキヨシ 一関店,岩手県一関市山目寺前２０20番地,38.937732,141.1225641,岩手県,,
マツモトキヨシ,ドラッグストア マツモトキヨシ 上盛岡店,岩手県盛岡市北山１丁目９−３０,39.7126934,141.1487779,岩手県,,
マツモトキヨシ,ドラッグストア マツモトキヨシ 二戸荷渡店,岩手県二戸市石切所荷渡１４−３,40.2662031,141.2916196,岩手県,,
マツモトキヨシ,ドラッグストア マツモトキヨシ 千厩店,岩手県一関市千厩町千厩古ケ口８８,38.9132811,141.3291845,岩手県,,
マツモトキヨシ,ドラッグストア マツモトキヨシ 水沢店,岩手県奥州市水沢田小路55番1,39.1402424,141.1341409,岩手県,,
マツモトキヨシ,ドラッグストア マツモトキヨシ 遠野店,岩手県遠野市松崎町白岩９地割７４−１,39.3408365,141.5310824,岩手県,,
マツモトキヨシ,薬 マツモトキヨシ アネックスカワトク店,岩手県盛岡市緑が丘４丁目１−５０,39.7354229,141.1427318,岩手県,,
マツモトキヨシ,薬 マツモトキヨシ クロステラス盛岡店,岩手県盛岡市大通３丁目４−１,39.7031133,141.142646,岩手県,,
マツモトキヨシ,薬 マツモトキヨシ マイヤタウングラン店,岩手県盛岡市西仙北１丁目３８−２０,39.6861277,141.1471876,岩手県,,
マツモトキヨシ,薬 マツモトキヨシ 盛岡駅ビルフェザン店,岩手県盛岡市盛岡駅前通１−４４おでんせ館BF,39.7017604,141.1363997,岩手県,,
マツモトキヨシ,薬マツモトキヨシ シーナシーナ花巻店,岩手県花巻市下小舟渡１１８−１,39.3935015,141.117084,岩手県,,
薬王堂,㈱薬王堂 岩手ドライセンター,岩手県紫波郡矢巾町広宮沢第４地割３１１,39.6299453,141.1147036,岩手県,,
薬王堂,薬王堂 CocoテラスY,岩手県紫波郡矢巾町医大通２丁目７−７,39.6160681,141.1652857,岩手県,,
薬王堂,薬王堂 オアシスタウンやはば店,岩手県紫波郡矢巾町医大通２丁目１−５,39.6185993,141.1653621,岩手県,,
薬王堂,薬王堂 一戸越田橋店,岩手県二戸郡一戸町一戸越田橋２８−１,40.2254547,141.2933679,岩手県,,
薬王堂,薬王堂 一関三関店,岩手県一関市三関神田１７８−１,38.92487879999999,141.1442577,岩手県,,
薬王堂,薬王堂 一関千厩店,岩手県一関市千厩町千厩古ケ口３０−４,38.910925,141.328119,岩手県,,
薬王堂,薬王堂 一関大東店,岩手県一関市大東町摺沢荒屋敷３０−７,38.99631189999999,141.3225711,岩手県,,
薬王堂,薬王堂 一関山目店,岩手県一関市山目中野５２−１,38.9347377,141.1154474,岩手県,,
薬王堂,薬王堂 一関東山店,岩手県一関市東山町長坂町２８８−１,38.990347,141.252609,岩手県,,
薬王堂,薬王堂 一関藤沢店,岩手県一関市藤沢町新沼石合２７−１,38.8700213,141.3532424,岩手県,,
薬王堂,薬王堂 一関青葉店,岩手県一関市青葉１丁目５−１１,38.930269,141.126794,岩手県,,
薬王堂,薬王堂 久慈SC店,岩手県久慈市長内町第３０地割７５−１０,40.1915875,141.7846722,岩手県,,
薬王堂,薬王堂 久慈川崎店,岩手県久慈市川崎町１１−１８,40.1915619,141.7710781,岩手県,,
薬王堂,薬王堂 久慈店,岩手県久慈市旭町第９地割１６−１,40.19874000000001,141.775768,岩手県,,
薬王堂,薬王堂 久慈柏崎店,岩手県久慈市柏崎１丁目２５,40.1859313,141.7680869,岩手県,,
薬王堂,薬王堂 久慈西の沢店,岩手県久慈市西の沢第６地割３５−２,40.1903494,141.7549543,岩手県,,
薬王堂,薬王堂 二戸堀野店,岩手県二戸市堀野長地４４−１,40.294237,141.2995067,岩手県,,
薬王堂,薬王堂 二戸店,岩手県二戸市石切所荷渡１−１２,40.2703442,141.2969666,岩手県,,
薬王堂,薬王堂 二戸福岡店,岩手県二戸市福岡八幡下６９−３,40.2643505,141.2946249,岩手県,,
薬王堂,薬王堂 八幡平店,岩手県八幡平市大更第１８地割８８−１４,39.8985479,141.0949173,岩手県,,
薬王堂,薬王堂 北上SP店,岩手県北上市九年橋３丁目１３−７,39.282165,141.108777,岩手県,,
薬王堂,薬王堂 北上和賀店,岩手県北上市和賀町藤根１７地割３６−１,39.3045782,141.0333691,岩手県,,
薬王堂,薬王堂 北上常盤台店,岩手県北上市さくら通り３丁目９−３５,39.2980029,141.1173922,岩手県,,
薬王堂,薬王堂 北上村崎野店,岩手県北上市村崎野１９地割１２８−１,39.33879779999999,141.1076731,岩手県,,
薬王堂,薬王堂 北上江釣子店,岩手県北上市上江釣子１６地割５１−１,39.3009449,141.0777295,岩手県,,
薬王堂,薬王堂 北上鬼柳店,岩手県北上市鬼柳町荒高１５６,39.2732672,141.1040808,岩手県,,
薬王堂,薬王堂 北上黒沢尻店,岩手県北上市黒沢尻１丁目１３−７,39.292248,141.129734,岩手県,,
薬王堂,薬王堂 大槌上町店,岩手県上閉伊郡大槌町上町５−２８,39.3567768,141.8966918,岩手県,,
薬王堂,薬王堂 大船渡店,岩手県大船渡市猪川町中井沢１５−１,39.092136,141.7142901,岩手県,,
薬王堂,薬王堂 大船渡新田店,岩手県大船渡市大船渡町新田４１−１０,39.0700696,141.7194749,岩手県,,
薬王堂,薬王堂 大船渡盛店,岩手県大船渡市盛町舘下５−１,39.083884,141.708466,岩手県,,
薬王堂,薬王堂 大船渡茶屋前店,岩手県大船渡市大船渡町茶屋前６２−１,39.0621234,141.7199176,岩手県,,
薬王堂,薬王堂 奥州前沢店,岩手県奥州市前沢あすか通４丁目１−１,39.0550922,141.1259548,岩手県,,
薬王堂,薬王堂 奥州胆沢店,岩手県奥州市胆沢南都田宇南田１６９−１,39.14198409999999,141.0988364,岩手県,,
薬王堂,薬王堂 宮古千徳店,岩手県宮古市上鼻２丁目５−６３,39.631653,141.913038,岩手県,,
薬王堂,薬王堂 宮古宮町店,岩手県宮古市宮町３丁目１０−４８,39.6390178,141.9388761,岩手県,,
薬王堂,薬王堂 宮古小山田店,岩手県宮古市小山田２丁目３−４５,39.632735,141.9407724,岩手県,,
薬王堂,薬王堂 宮古磯鶏店,岩手県宮古市神林４５−１０,39.621559,141.962778,岩手県,,
薬王堂,薬王堂 宮古西町店,岩手県宮古市田の神１丁目３−１１,39.6474384,141.9391434,岩手県,,
薬王堂,薬王堂 山田大沢店,岩手県下閉伊郡山田町大沢第２地割３１−１,39.4823303,141.9676091,岩手県,,
薬王堂,薬王堂 岩手一戸店,岩手県二戸郡一戸町一戸砂森５７−１,40.205392,141.304138,岩手県,,
薬王堂,薬王堂 岩手九戸店,岩手県九戸郡九戸村長興寺第３地割９−２,40.2226937,141.4178221,岩手県,,
薬王堂,薬王堂 岩手住田店,岩手県気仙郡住田町世田米川向４８−１,39.1433554,141.5718403,岩手県,,
薬王堂,薬王堂 岩手大槌店,岩手県上閉伊郡大槌町大槌第２２地割２３,39.3644993,141.904543,岩手県,,
薬王堂,薬王堂 岩手大釜店,岩手県滝沢市大釜竹鼻１６３−７,39.7039209,141.0737389,岩手県,,
薬王堂,薬王堂 岩手山田店,岩手県下閉伊郡山田町境田町１６−６,39.460469,141.954991,岩手県,,
薬王堂,薬王堂 岩手岩泉店,岩手県下閉伊郡岩泉町岩泉三本松４２−１１,39.8476845,141.802507,岩手県,,
薬王堂,薬王堂 岩手川崎店,岩手県一関市川崎町薄衣六反１５４,38.8983006,141.2755148,岩手県,,
薬王堂,薬王堂 岩手平泉店,岩手県西磐井郡平泉町平泉上野台２７８−８,38.9809786,141.1167202,岩手県,,
薬王堂,薬王堂 岩手沼宮内店,岩手県岩手郡岩手町五日市第１１地割１３２−１,39.966716,141.216124,岩手県,,
薬王堂,薬王堂 岩手洋野店,岩手県九戸郡洋野町種市第２３地割９１−８,40.412175,141.710727,岩手県,,
薬王堂,薬王堂 岩手牧野林店,岩手県滝沢市牧野林２９１−３,39.746064,141.110128,岩手県,,
薬王堂,薬王堂 岩手矢巾店,岩手県紫波郡矢巾町南矢幅第７地割４４５,39.6116816,141.1542371,岩手県,,
薬王堂,薬王堂 岩手葛巻店,岩手県岩手郡葛巻町葛巻第８地割６−１３,40.036376,141.4515657,岩手県,,
薬王堂,薬王堂 岩手西和賀店,岩手県和賀郡西和賀町大沓３６地割５９−２,39.3249513,140.7839825,岩手県,,
薬王堂,薬王堂 岩手西根店,岩手県八幡平市大更第３５地割３２−２,39.922617,141.09548,岩手県,,
薬王堂,薬王堂 岩手軽米店,岩手県九戸郡軽米町上舘第１５地割１４４−２,40.321871,141.473709,岩手県,,
薬王堂,薬王堂 岩手野田店,岩手県久慈市宇部町第１３地割５５−１,40.118569,141.8085459,岩手県,,
薬王堂,薬王堂 岩手金ケ崎店,岩手県胆沢郡金ケ崎町西根寄添田３−１,39.1926812,141.0951817,岩手県,,
薬王堂,薬王堂 岩手金ケ崎東店,岩手県胆沢郡金ケ崎町西根杉土手６８−１,39.2024377,141.114513,岩手県,,
薬王堂,薬王堂 岩手雫石店,岩手県岩手郡雫石町千刈田８７,39.6980247,140.976533,岩手県,,
薬王堂,薬王堂 岩手鵜飼店,岩手県滝沢市鵜飼石留３８,39.731379,141.096166,岩手県,,
薬王堂,薬王堂 村崎野南店,岩手県北上市村崎野１５地割２７１−７,39.3243894,141.112318,岩手県,,
薬王堂,薬王堂 水沢SC店,岩手県奥州市水沢八反町２８−２,39.1544151,141.1326368,岩手県,,
薬王堂,薬王堂 水沢慶徳店,岩手県奥州市水沢佐倉河慶徳４６−１,39.1440261,141.1526826,岩手県,,
薬王堂,薬王堂 水沢日高店,岩手県奥州市水沢谷地明円２７,39.1400837,141.1308765,岩手県,,
薬王堂,薬王堂 水沢桜屋敷店,岩手県奥州市水沢桜屋敷２８２,39.1248044,141.1294397,岩手県,,
薬王堂,薬王堂 水沢町屋敷店,岩手県奥州市水沢真城町屋敷７９−１,39.1264929,141.1613781,岩手県,,
薬王堂,薬王堂 江刺岩谷堂店,岩手県奥州市江刺岩谷堂御所橋１−１,39.1975772,141.1704599,岩手県,,
薬王堂,薬王堂 江刺店,岩手県奥州市江刺杉ノ町２−２,39.184408,141.174039,岩手県,,
薬王堂,薬王堂 江刺愛宕店,岩手県奥州市江刺愛宕大畑１５３−１,39.1583002,141.177768,岩手県,,
薬王堂,薬王堂 沼宮内北店,岩手県岩手郡岩手町五日市第８地割９５番地１,39.9777966,141.2272662,岩手県,,
薬王堂,薬王堂 滝沢SC店,岩手県滝沢市鵜飼先古川３−１,39.7362962,141.0798718,岩手県,,
薬王堂,薬王堂 滝沢室小路店,岩手県滝沢市室小路１２１−１,39.7338147,141.1011004,岩手県,,
薬王堂,薬王堂 滝沢巣子店,岩手県滝沢市巣子７６１−２,39.7841394,141.1461559,岩手県,,
薬王堂,薬王堂 盛岡みたけ店,岩手県盛岡市月が丘３丁目４０−１０,39.738295,141.109473,岩手県,,
薬王堂,薬王堂 盛岡三ツ割店,岩手県盛岡市三ツ割５丁目１８−１,39.7298238,141.1632462,岩手県,,
薬王堂,薬王堂 盛岡中野店,岩手県盛岡市中野１丁目１６−１,39.693576,141.1692361,岩手県,,
薬王堂,薬王堂 盛岡厨川店,岩手県盛岡市厨川５丁目１３−１,39.7506608,141.1282292,岩手県,,
薬王堂,薬王堂 盛岡向中野店,岩手県盛岡市向中野１丁目１０−２７,39.6813661,141.1435904,岩手県,,
薬王堂,薬王堂 盛岡太田店,岩手県盛岡市本宮５丁目８−２０,39.6890168,141.1183482,岩手県,,
薬王堂,薬王堂 盛岡山王店,岩手県盛岡市山王町１０−６,39.699934,141.16458,岩手県,,
薬王堂,薬王堂 盛岡本宮店,岩手県盛岡市本宮３丁目１１−１５,39.691712,141.1330385,岩手県,,
薬王堂,薬王堂 盛岡津志田店,岩手県盛岡市津志田中央３丁目１−７,39.6639521,141.1536745,岩手県,,
薬王堂,薬王堂 盛岡渋民店,岩手県盛岡市渋民５７−１,39.8429458,141.1688045,岩手県,,
薬王堂,薬王堂 盛岡箱清水店,岩手県盛岡市箱清水１丁目２１−１２,39.73475810000001,141.1311655,岩手県,,
薬王堂,薬王堂 盛岡緑が丘店,岩手県盛岡市緑が丘３丁目１−１０,39.7333764,141.142866,岩手県,,
薬王堂,薬王堂 盛岡都南店,岩手県盛岡市永井２０地割２４−８,39.6539761,141.1494161,岩手県,,
薬王堂,薬王堂 盛岡青山店,岩手県盛岡市青山１丁目１８−１５,39.720825,141.114298,岩手県,,
薬王堂,薬王堂 盛岡飯岡店,岩手県盛岡市北飯岡４丁目４−６,39.6720014,141.1314869,岩手県,,
薬王堂,薬王堂 矢巾SC店,岩手県紫波郡矢巾町医大通２丁目４−１４,39.6142946,141.1657146,岩手県,,
薬王堂,薬王堂 石鳥谷八幡店,岩手県花巻市石鳥谷町八幡第２地割２−１,39.4787756,141.1466405,岩手県,,
薬王堂,薬王堂 紫波古館店,岩手県紫波郡紫波町高水寺古屋敷６７−１,39.575148,141.1634296,岩手県,,
薬王堂,薬王堂 紫波日詰店,岩手県紫波郡紫波町日詰下丸森９０−１,39.5566293,141.1657586,岩手県,,
薬王堂,薬王堂 紫波桜町店,岩手県紫波郡紫波町桜町田頭１３５−１,39.5469842,141.1638999,岩手県,,
薬王堂,薬王堂 花巻不動店,岩手県花巻市不動７２−１,39.3790027,141.1100325,岩手県,,
薬王堂,薬王堂 花巻南店,岩手県花巻市上根子欠端１５０−１,39.3803062,141.0892402,岩手県,,
薬王堂,薬王堂 花巻小舟渡店,岩手県花巻市上小舟渡３４−２,39.3984516,141.1238035,岩手県,,
薬王堂,薬王堂 花巻材木町店,岩手県花巻市材木町７−２０,39.3867217,141.1099609,岩手県,,
薬王堂,薬王堂 花巻東和店,岩手県花巻市東和町土沢６区２２８,39.382895,141.230169,岩手県,,
薬王堂,薬王堂 花巻松園店,岩手県花巻市松園町１丁目５−７,39.4069654,141.1076332,岩手県,,
薬王堂,薬王堂 花巻石鳥谷店,岩手県花巻市石鳥谷町好地第１５地割３５−９,39.502996,141.155741,岩手県,,
薬王堂,薬王堂 花巻高木店,岩手県花巻市高木第１８地割49−番地,39.3841119,141.1385222,岩手県,,
薬王堂,薬王堂 花泉店,岩手県一関市花泉町金沢水門１５５,38.845913,141.178657,岩手県,,
薬王堂,薬王堂 花泉涌津店,岩手県一関市花泉町涌津上三ノ町１８,38.8287992,141.1873381,岩手県,,
薬王堂,薬王堂 西根平舘店,岩手県八幡平市平舘第９地割１９７,39.9493249,141.0923592,岩手県,,
薬王堂,薬王堂 遠野店,岩手県遠野市松崎町白岩１８地割９４−１,39.33554840000001,141.547934,岩手県,,
薬王堂,薬王堂 遠野松崎店,岩手県遠野市松崎町白岩９地割３６−８,39.3379771,141.5328942,岩手県,,
薬王堂,薬王堂 釜石小佐野店,岩手県釜石市小佐野町４丁目１−４,39.263309,141.8368466,岩手県,,
薬王堂,薬王堂 釜石平田店,岩手県釜石市平田町１丁目９０１,39.2464334,141.8895811,岩手県,,
薬王堂,薬王堂 釜石店,岩手県釜石市野田町３丁目３−１,39.258603,141.824295,岩手県,,
薬王堂,薬王堂 釜石鈴子店,岩手県釜石市鈴子町１３−２,39.27438799999999,141.867057,岩手県,,
薬王堂,薬王堂 釜石鵜住居店,岩手県釜石市鵜住居町１丁目４−１,39.3217317,141.8848607,岩手県,,
薬王堂,薬王堂 高田滝の里店,岩手県陸前高田市竹駒町滝の里１,39.0310602,141.6177613,岩手県,,
薬王堂,薬王堂 高田米崎店,岩手県陸前高田市米崎町松峰５６,39.0119717,141.6559114,岩手県,,
薬王堂,薬王堂 高田馬場前店,岩手県陸前高田市高田町馬場前３０４−５,39.01566330000001,141.6265827,岩手県,,
薬王堂,薬王堂ホールディングス㈱ 東北RDC,岩手県花巻市空港南２丁目１０,39.4096757,141.1366186,岩手県,,
薬王堂,薬王堂北上本石店,岩手県北上市本石町２丁目４４−１,39.2912673,141.1165887,岩手県,,
薬王堂,薬王堂花巻西宮野目店,岩手県花巻市西宮野目第１３地割４９,39.4135711,141.1253612,岩手県,,
薬王堂,薬王堂遠野白岩店,岩手県遠野市松崎町白岩２４地割３４−１,39.3417479,141.5414016,岩手県,,
アークドラッグ,アークドラッグ 仙台泉店,宮城県仙台市泉区大沢３丁目９−１ホームセンタームサシ仙台泉店内,38.3544071,140.8771803,宮城県,,
イオンドラッグ,イオンドラッグ新利府,宮城県宮城郡利府町新中道３丁目１−１,38.3226226,140.972317,宮城県,,
イオンドラッグ,イオンドラッグ船岡店,宮城県柴田郡柴田町西船迫２丁目１−１５,38.0633458,140.7626768,宮城県,,
ウエルシア,PUDOステーション ウエルシア仙台沖野店,宮城県仙台市若林区沖野２丁目１６−２０望月製餡所,38.2289051,140.912896,宮城県,,
ウエルシア,ウエルシア仙台あすと長町店,宮城県仙台市太白区八本松２丁目２−８,38.2298336,140.8902913,宮城県,,
ウエルシア,ウエルシア仙台中山店,宮城県仙台市青葉区中山５丁目２−３,38.2912827,140.8441189,宮城県,,
ウエルシア,ウエルシア仙台八乙女中央店,宮城県仙台市泉区八乙女中央５丁目１３−１１,38.310752,140.887036,宮城県,,
ウエルシア,ウエルシア仙台八木山南店,宮城県仙台市太白区八木山南２丁目１291F,38.2356449,140.8380757,宮城県,,
ウエルシア,ウエルシア仙台富沢西店,宮城県仙台市太白区富沢西４丁目２０−１６,38.2124698,140.8593416,宮城県,,
ウエルシア,ウエルシア仙台市名坂店,宮城県仙台市泉区市名坂山岸５１−３,38.3194065,140.9002903,宮城県,,
ウエルシア,ウエルシア仙台木町通店,宮城県仙台市青葉区木町通１丁目８−１,38.270206,140.862828,宮城県,,
ウエルシア,ウエルシア仙台柳生店,宮城県仙台市太白区柳生３丁目４−２,38.1912506,140.8731828,宮城県,,
ウエルシア,ウエルシア仙台沖野店,宮城県仙台市若林区沖野２丁目１６−２０,38.2289266,140.9130401,宮城県,,
ウエルシア,ウエルシア仙台泉中央一丁目店,宮城県仙台市泉区泉中央１丁目20−１,38.324572,140.878072,宮城県,,
ウエルシア,ウエルシア仙台泉中央店,宮城県仙台市泉区泉中央４丁目20−１,38.3221024,140.8860386,宮城県,,
ウエルシア,ウエルシア仙台泉高森店,宮城県仙台市泉区高森４丁目２−５３９,38.3327763,140.8471574,宮城県,,
ウエルシア,ウエルシア仙台落合2丁目店,宮城県仙台市青葉区落合２丁目１６−１,38.2732302,140.7867131,宮城県,,
ウエルシア,ウエルシア仙台長命ケ丘店,宮城県仙台市泉区長命ケ丘４丁目１−１,38.3149428,140.8383975,宮城県,,
ウエルシア,ウエルシア仙台鶴が丘店,宮城県仙台市泉区鶴が丘１丁目３７−２,38.3158211,140.9235243,宮城県,,
ウエルシア,ウエルシア利府青山店,宮城県宮城郡利府町青山２丁目１−９,38.3385543,140.9662274,宮城県,,
ウエルシア,ウエルシア古川中里店,宮城県大崎市古川中里２丁目７−１,38.56845020000001,140.9610172,宮城県,,
ウエルシア,ウエルシア名取増田店,宮城県名取市増田柳田5番地の1,38.1721665,140.8931306,宮城県,,
ウエルシア,ウエルシア名取大手町店,宮城県名取市大手町５丁目3−２,38.1689478,140.8803567,宮城県,,
ウエルシア,ウエルシア塩釜舟入店,宮城県塩竈市舟入２丁目３,38.3111141,141.0330335,宮城県,,
ウエルシア,ウエルシア大河原高砂店,宮城県柴田郡大河原町高砂町２−７,38.051415,140.7477697,宮城県,,
ウエルシア,ウエルシア岩沼中央店,宮城県岩沼市中央４丁目１１−１３,38.120266,140.871382,宮城県,,
ウエルシア,ウエルシア本塩釜駅前店,宮城県塩竈市海岸通１１−１,38.3191681,141.0230865,宮城県,,
ウエルシア,ウエルシア石巻赤十字病院前店,宮城県石巻市あけぼの北１丁目1−７,38.4566022,141.2775556,宮城県,,
ウエルシア,ウエルシア船岡中央店,宮城県柴田郡柴田町船岡中央３丁目１８−１０,38.053766,140.771063,宮城県,,
カワチ薬品,カワチ薬品 あすと長町店,宮城県仙台市太白区あすと長町３丁目１２−２０,38.2178645,140.884663,宮城県,,
カワチ薬品,カワチ薬品 アクロスプラザ南光台東店,宮城県仙台市泉区松森陣ケ原１３−１０,38.3014375,140.911535,宮城県,,
カワチ薬品,カワチ薬品 フォレオ宮の杜店,宮城県仙台市宮城野区東仙台４丁目１４−１０,38.2760549,140.9095961,宮城県,,
カワチ薬品,カワチ薬品 仙台ゆめタウン店,宮城県仙台市宮城野区中野３丁目３−１６,38.2706496,140.9867023,宮城県,,
カワチ薬品,カワチ薬品 仙台東店,宮城県仙台市若林区伊在２丁目３−１,38.2463601,140.9359676,宮城県,,
カワチ薬品,カワチ薬品 南吉成店,宮城県仙台市青葉区南吉成１丁目１５−３,38.2868803,140.819489,宮城県,,
カワチ薬品,カワチ薬品 古川店,宮城県大崎市古川穂波６丁目１−１０,38.5657317,140.9404944,宮城県,,
カワチ薬品,カワチ薬品 古川駅東店,宮城県大崎市古川駅東２丁目１０−１６,38.5727728,140.9738553,宮城県,,
カワチ薬品,カワチ薬品 塩がま店,宮城県塩竈市杉の入１丁目２１−１１,38.330933,141.0364138,宮城県,,
カワチ薬品,カワチ薬品 多賀城店,宮城県多賀城市笠神４丁目８−１,38.3030197,141.0342476,宮城県,,
カワチ薬品,カワチ薬品 大河原店,宮城県柴田郡大河原町広表３９−１８,38.046701,140.719267,宮城県,,
カワチ薬品,カワチ薬品 富沢店,宮城県仙台市太白区富沢２丁目２１−１８,38.2185935,140.8614276,宮城県,,
カワチ薬品,カワチ薬品 富谷店,宮城県富谷市成田８丁目２−３,38.3600231,140.8928541,宮城県,,
カワチ薬品,カワチ薬品 岩切店,宮城県仙台市宮城野区岩切分台２丁目１２−６,38.3067475,140.959889,宮城県,,
カワチ薬品,カワチ薬品 岩沼店,宮城県岩沼市たけくま２丁目３−５７,38.1077274,140.8540112,宮城県,,
カワチ薬品,カワチ薬品 愛子店,宮城県仙台市青葉区上愛子榎２−１,38.2696836,140.7623097,宮城県,,
カワチ薬品,カワチ薬品 栗生店,宮城県仙台市青葉区栗生６丁目１２−１,38.2674993,140.7827608,宮城県,,
カワチ薬品,カワチ薬品 気仙沼店,宮城県気仙沼市赤岩杉ノ沢１２−１,38.8885998,141.5646579,宮城県,,
カワチ薬品,カワチ薬品 石巻伊原津店,宮城県石巻市伊原津２丁目３−１９,38.419371,141.3365404,宮城県,,
カワチ薬品,カワチ薬品 石巻蛇田店,宮城県石巻市蛇田東道下28−１,38.4597025,141.2826345,宮城県,,
カワチ薬品,カワチ薬品 石巻西店,宮城県石巻市恵み野４丁目１−１６,38.4414026,141.2696599,宮城県,,
カワチ薬品,カワチ薬品 美田園店,宮城県名取市美田園５丁目５−６,38.1573645,140.918437,宮城県,,
カワチ薬品,カワチ薬品 若林店,宮城県仙台市若林区若林２丁目７−３０,38.23017249999999,140.8978211,宮城県,,
カワチ薬品,カワチ薬品 荒井駅前店,宮城県仙台市若林区荒井東１丁目８−１,38.2409337,140.9507676,宮城県,,
カワチ薬品,カワチ薬品 野村店,宮城県仙台市泉区野村菅間前７−１,38.3274787,140.8672838,宮城県,,
カワチ薬品,カワチ薬品 長命ケ丘店,宮城県仙台市泉区長命ケ丘５丁目２３−３,38.311965,140.8327229,宮城県,,
ココカラファイン,ココカラファイン セルバテラス店,宮城県仙台市泉区泉中央１丁目6−３セルバテラス1F,38.3243865,140.8811433,宮城県,,
ココカラファイン,ココカラファイン 五橋店,宮城県仙台市若林区連坊小路１４２−１コンフォート五橋ステーション1F,38.252017,140.8843647,宮城県,,
ココカラファイン,ココカラファイン 仙台イービーンズ店,宮城県仙台市青葉区中央４丁目１−１イービーンズ1F,38.2586233,140.8797421,宮城県,,
ココカラファイン,ココカラファイン 名取駅前店 - 閉業 -,宮城県名取市増田４丁目７−番20号グローリオレジデンス名取駅前2F,38.1735333,140.8839258,宮城県,,
ココカラファイン,ココカラファイン 柴田店,宮城県柴田郡柴田町船岡新栄４丁目6−２１,38.05024239999999,140.7825506,宮城県,,
サンドラッグ,サンドラッグ あすと長町店,宮城県仙台市太白区あすと長町２丁目２−１０,38.2245357,140.8854741,宮城県,,
サンドラッグ,サンドラッグ 中山台店,宮城県仙台市青葉区中山台２丁目６０−１,38.3033983,140.8150456,宮城県,,
サンドラッグ,サンドラッグ 仙台一番町店,宮城県仙台市青葉区一番町３丁目１０−２３ベルモーズビル１階,38.261813,140.8712631,宮城県,,
サンドラッグ,サンドラッグ 仙台中央通り店,宮城県仙台市青葉区中央２丁目２−２１,38.2611571,140.876541,宮城県,,
サンドラッグ,サンドラッグ 仙台八幡町店,宮城県仙台市青葉区八幡３丁目１−５０１F,38.2691964,140.849573,宮城県,,
サンドラッグ,サンドラッグ 仙台幸町店,宮城県仙台市宮城野区幸町３丁目１−２,38.2749096,140.8995106,宮城県,,
サンドラッグ,サンドラッグ 仙台泉古内店,宮城県仙台市泉区古内坂ノ上１−２３,38.3200497,140.8428694,宮城県,,
サンドラッグ,サンドラッグ 佐沼店,宮城県登米市迫町佐沼中江２丁目４−９,38.6916133,141.1902575,宮城県,,
サンドラッグ,サンドラッグ 八乙女店,宮城県仙台市泉区八乙女１丁目３−９,38.31076669999999,140.8911984,宮城県,,
サンドラッグ,サンドラッグ 利府店,宮城県宮城郡利府町利府堀切前１５−１,38.3292201,140.9725828,宮城県,,
サンドラッグ,サンドラッグ 利府野中店,宮城県宮城郡利府町加瀬十三本塚１６７,38.318368,140.9977841,宮城県,,
サンドラッグ,サンドラッグ 南小泉店,宮城県仙台市若林区南小泉４丁目１０−６,38.239014,140.9065365,宮城県,,
サンドラッグ,サンドラッグ 名取バイパス店,宮城県名取市上余田字千刈田２８３−１,38.18747949999999,140.8904595,宮城県,,
サンドラッグ,サンドラッグ 大河原フォルテ店,宮城県柴田郡大河原町小島２−１,38.0651587,140.7376337,宮城県,,
サンドラッグ,サンドラッグ 富谷店,宮城県富谷市大清水２丁目13−１,38.3653885,140.8788021,宮城県,,
サンドラッグ,サンドラッグ 岩沼相の原店,宮城県岩沼市相の原１丁目８−２７,38.1154724,140.8706038,宮城県,,
サンドラッグ,サンドラッグ 愛子店,宮城県仙台市青葉区上愛子新宮前２２−１,38.267802,140.7599832,宮城県,,
サンドラッグ,サンドラッグ 石巻中里店,宮城県石巻市南中里２丁目９−４５,38.4408508,141.3016827,宮城県,,
サンドラッグ,サンドラッグ 高森店,宮城県仙台市泉区高森７丁目２内,38.341106,140.8552029,宮城県,,
サンドラッグ,サンドラッグ 鶴ヶ谷店,宮城県仙台市宮城野区鶴ケ谷２丁目８−７,38.290997,140.9135329,宮城県,,
セイムス,ドラッグストア セイムス 石巻東中里店,宮城県石巻市東中里２丁目１１−１１,38.4412973,141.3083514,宮城県,,
セイムス,ドラッグセイムス 仙台宮町店,宮城県仙台市青葉区宮町１丁目１−５９,38.2670377,140.8832606,宮城県,,
セイムス,ドラッグセイムス 仙台榴岡店,宮城県仙台市宮城野区榴岡４丁目１−８,38.2592244,140.8871955,宮城県,,
セイムス,ドラッグセイムス 仙台若林4丁目店,宮城県仙台市若林区若林４丁目１−１２,38.2310836,140.8996432,宮城県,,
セイムス,ドラッグセイムス 名取増田店,宮城県名取市増田９丁目３−３６,38.1802911,140.8874575,宮城県,,
セイムス,ドラッグセイムス 大崎古川東店,宮城県大崎市古川駅東２丁目９−７,38.5729586,140.9722647,宮城県,,
セイムス,ドラッグセイムス 岩沼舘下店,宮城県岩沼市館下１丁目１−１０,38.1091525,140.8633101,宮城県,,
セイムス,ドラッグセイムス 村田小泉店,宮城県柴田郡村田町小泉西浦８−１,38.10749029999999,140.7249998,宮城県,,
セイムス,ドラッグセイムス 気仙沼店,宮城県気仙沼市四反田１５２,38.9026347,141.5553489,宮城県,,
セイムス,ドラッグセイムス 石巻大街道店,宮城県石巻市大街道西１丁目１−２,38.4305039,141.2781971,宮城県,,
セイムス,ドラッグセイムス仙台西中田店,宮城県仙台市太白区西中田５丁目１７−７５,38.19502629999999,140.8744587,宮城県,,
ダイコクドラッグ,ダイコクドラッグ 仙台クリスロード店,宮城県仙台市青葉区中央２丁目２−３０1F,38.2612692,140.8773555,宮城県,,
ダイコクドラッグ,ダイコクドラッグ仙台マーブルロード店,宮城県仙台市青葉区一番町３丁目１−２１,38.26062719999999,140.8739224,宮城県,,
ツルハドラッグ,ツルハドラッグ TIC一番町店,宮城県仙台市青葉区青葉区一番町４丁目９−１８,38.265132,140.870328,宮城県,,
ツルハドラッグ,ツルハドラッグ あすと長町店,宮城県仙台市太白区あすと長町４丁目３−５,38.224185,140.887708,宮城県,,
ツルハドラッグ,ツルハドラッグ なないろの里店,宮城県仙台市若林区なないろの里３丁目4番地11,38.2375762,140.932267,宮城県,,
ツルハドラッグ,ツルハドラッグ 一番町店,宮城県仙台市青葉区一番町４丁目９−５,38.2651673,140.8702303,宮城県,,
ツルハドラッグ,ツルハドラッグ 中田７丁目店,宮城県名取市上余田千刈田2−１９,38.188317,140.886759,宮城県,,
ツルハドラッグ,ツルハドラッグ 二十人町店,宮城県仙台市宮城野区二十人町309−８,38.2626351,140.8935154,宮城県,,
ツルハドラッグ,ツルハドラッグ 亘理店,宮城県亘理郡亘理町逢隈高屋柴北１００,38.0421824,140.8764883,宮城県,,
ツルハドラッグ,ツルハドラッグ 亘理逢隈店,宮城県亘理郡亘理町逢隈鹿島西鹿島１,38.0483844,140.8509989,宮城県,,
ツルハドラッグ,ツルハドラッグ 仙台上愛子店,宮城県仙台市青葉区上愛子雷神４−２,38.27248050000001,140.7479916,宮城県,,
ツルハドラッグ,ツルハドラッグ 仙台上杉店,宮城県仙台市青葉区上杉６丁目１−１０,38.276422,140.8781099,宮城県,,
ツルハドラッグ,ツルハドラッグ 仙台上谷刈店,宮城県仙台市泉区上谷刈２丁目５−７,38.316744,140.8707372,宮城県,,
ツルハドラッグ,ツルハドラッグ 仙台中央通店,宮城県仙台市青葉区中央２丁目６−６,38.26186089999999,140.8780321,宮城県,,
ツルハドラッグ,ツルハドラッグ 仙台中山店,宮城県仙台市青葉区中山７丁目２−３０,38.2955947,140.8361827,宮城県,,
ツルハドラッグ,ツルハドラッグ 仙台中田店,宮城県仙台市太白区中田町法地北２１−１,38.1974491,140.9019757,宮城県,,
ツルハドラッグ,ツルハドラッグ 仙台二の森店,宮城県仙台市宮城野区二の森１−１３,38.2785412,140.8962016,宮城県,,
ツルハドラッグ,ツルハドラッグ 仙台二日町店,宮城県仙台市青葉区二日町１８18番20,38.2717233,140.8675893,宮城県,,
ツルハドラッグ,ツルハドラッグ 仙台保春院前丁店,宮城県仙台市若林区保春院前丁5番地113,38.245034,140.8993186,宮城県,,
ツルハドラッグ,ツルハドラッグ 仙台北山店,宮城県仙台市青葉区北山１丁目９−２０,38.2812381,140.8600101,宮城県,,
ツルハドラッグ,ツルハドラッグ 仙台南小泉店,宮城県仙台市若林区遠見塚３丁目１−１１,38.2424373,140.9152384,宮城県,,
ツルハドラッグ,ツルハドラッグ 仙台原町店,宮城県仙台市宮城野区原町３丁目１−８,38.2660105,140.9065184,宮城県,,
ツルハドラッグ,ツルハドラッグ 仙台台原店,宮城県仙台市青葉区台原５丁目１３−１０,38.2848975,140.8807626,宮城県,,
ツルハドラッグ,ツルハドラッグ 仙台向山店,宮城県仙台市太白区向山４丁目２４−１３,38.2436252,140.8788495,宮城県,,
ツルハドラッグ,ツルハドラッグ 仙台大和町5丁目店,宮城県仙台市若林区大和町５丁目１−１２,38.2511574,140.9212087,宮城県,,
ツルハドラッグ,ツルハドラッグ 仙台大和町店,宮城県仙台市若林区大和町１丁目５−２６８−５,38.2479746,140.9096894,宮城県,,
ツルハドラッグ,ツルハドラッグ 仙台太子堂店,宮城県仙台市太白区諏訪町１−７,38.2162318,140.8838158,宮城県,,
ツルハドラッグ,ツルハドラッグ 仙台宮千代店,宮城県仙台市宮城野区宮千代３丁目６−６,38.2549903,140.9160828,宮城県,,
ツルハドラッグ,ツルハドラッグ 仙台宮城野店,宮城県仙台市宮城野区宮城野１丁目２８−２８,38.257484,140.896354,宮城県,,
ツルハドラッグ,ツルハドラッグ 仙台宮町店,宮城県仙台市青葉区宮町３丁目９−５,38.2736287,140.8847744,宮城県,,
ツルハドラッグ,ツルハドラッグ 仙台富沢西店,宮城県仙台市太白区富沢西２丁目7番地の11,38.2135581,140.8568878,宮城県,,
ツルハドラッグ,ツルハドラッグ 仙台小田原店,宮城県仙台市青葉区小田原５丁目３−２８,38.2703214,140.8864621,宮城県,,
ツルハドラッグ,ツルハドラッグ 仙台小田原２丁目店,宮城県仙台市宮城野区小田原２丁目１−２６早坂ビル,38.26472690000001,140.8937953,宮城県,,
ツルハドラッグ,ツルハドラッグ 仙台山田店,宮城県仙台市太白区山田上ノ台町１４−１６,38.2161641,140.8329826,宮城県,,
ツルハドラッグ,ツルハドラッグ 仙台愛子店,宮城県仙台市青葉区愛子東１丁目４−３４,38.2731701,140.7803486,宮城県,,
ツルハドラッグ,ツルハドラッグ 仙台支倉店,宮城県仙台市青葉区支倉町２−３,38.2675762,140.8624187,宮城県,,
ツルハドラッグ,ツルハドラッグ 仙台新田店,宮城県仙台市宮城野区新田２丁目１７−５０,38.2762335,140.9222416,宮城県,,
ツルハドラッグ,ツルハドラッグ 仙台新田東店,宮城県仙台市宮城野区新田東５丁目13番１９,38.2807835,140.9336459,宮城県,,
ツルハドラッグ,ツルハドラッグ 仙台東中田店,宮城県仙台市太白区東中田２丁目３９−２７,38.2029089,140.9012774,宮城県,,
ツルハドラッグ,ツルハドラッグ 仙台柳生店,宮城県仙台市太白区柳生１丁目１０−８,38.1975761,140.8717811,宮城県,,
ツルハドラッグ,ツルハドラッグ 仙台榴岡店,宮城県仙台市宮城野区榴岡３丁目４−１２,38.261573,140.887157,宮城県,,
ツルハドラッグ,ツルハドラッグ 仙台沖野店,宮城県仙台市若林区若林６丁目１１−５２,38.2267691,140.9078633,宮城県,,
ツルハドラッグ,ツルハドラッグ 仙台泉中央3丁目店,宮城県仙台市泉区泉中央３丁目２−７,38.3264078,140.8833772,宮城県,,
ツルハドラッグ,ツルハドラッグ 仙台泉中央店,宮城県仙台市泉区泉中央３丁目３７−７,38.3247665,140.8887552,宮城県,,
ツルハドラッグ,ツルハドラッグ 仙台緑ヶ丘店,宮城県仙台市太白区緑ケ丘４丁目５−１,38.2359197,140.8606444,宮城県,,
ツルハドラッグ,ツルハドラッグ 仙台茂庭店,宮城県仙台市太白区茂庭新御所川62番,38.2229556,140.7938569,宮城県,,
ツルハドラッグ,ツルハドラッグ 仙台荒井東店,宮城県仙台市若林区荒井７丁目53番地の１,38.2362764,140.9485214,宮城県,,
ツルハドラッグ,ツルハドラッグ 仙台荒町店,宮城県仙台市若林区荒町１４９−１,38.24925169999999,140.8843931,宮城県,,
ツルハドラッグ,ツルハドラッグ 仙台落合店,宮城県仙台市青葉区落合１丁目２−４６,38.270546,140.7982258,宮城県,,
ツルハドラッグ,ツルハドラッグ 仙台西多賀店,宮城県仙台市太白区西多賀３丁目１−３０2階,38.2213826,140.8570242,宮城県,,
ツルハドラッグ,ツルハドラッグ 仙台通町店,宮城県仙台市青葉区通町１丁目４−３４,38.2777963,140.8658517,宮城県,,
ツルハドラッグ,ツルハドラッグ 仙台長命ヶ丘店,宮城県仙台市青葉区桜ケ丘７丁目４０−１,38.3100521,140.8472819,宮城県,,
ツルハドラッグ,ツルハドラッグ 仙台長町4丁目店,宮城県仙台市太白区長町４丁目７−１８,38.2294111,140.8810156,宮城県,,
ツルハドラッグ,ツルハドラッグ 仙台長町店,宮城県仙台市太白区長町南２丁目６−１０６番１０号,38.2199685,140.8796237,宮城県,,
ツルハドラッグ,ツルハドラッグ 仙台鶴ヶ谷店,宮城県仙台市宮城野区鶴ケ谷２丁目８−１２,38.2907579,140.9139493,宮城県,,
ツルハドラッグ,ツルハドラッグ 佐沼店,宮城県登米市迫町佐沼中江４丁目６６番地６,38.6880511,141.1887315,宮城県,,
ツルハドラッグ,ツルハドラッグ 八乙女店,宮城県仙台市泉区八乙女３丁目１−３,38.3098713,140.8948799,宮城県,,
ツルハドラッグ,ツルハドラッグ 六丁の目店,宮城県仙台市若林区伊在１丁目８−４,38.2486264,140.9348173,宮城県,,
ツルハドラッグ,ツルハドラッグ 利府店,宮城県宮城郡利府町利府新大谷地53番地1,38.3284268,140.9736925,宮城県,,
ツルハドラッグ,ツルハドラッグ 利府新太子堂店,宮城県宮城郡利府町森郷新椎の木前字新椎ノ木前13街区1画地の一部,38.3336973,140.9838513,宮城県,,
ツルハドラッグ,ツルハドラッグ 北仙台駅前店,宮城県仙台市青葉区昭和町６−１０,38.2821822,140.8680697,宮城県,,
ツルハドラッグ,ツルハドラッグ 南光台4丁目店,宮城県仙台市泉区南光台４丁目１28号,38.2969365,140.8914486,宮城県,,
ツルハドラッグ,ツルハドラッグ 南光台中央店,宮城県仙台市泉区南光台７丁目３−２１,38.298616,140.9010019,宮城県,,
ツルハドラッグ,ツルハドラッグ 南光台店,宮城県仙台市泉区南光台南３丁目２０−６,38.2940044,140.9075511,宮城県,,
ツルハドラッグ,ツルハドラッグ 南吉成店,宮城県仙台市青葉区南吉成３丁目１−２３,38.2863208,140.8169323,宮城県,,
ツルハドラッグ,ツルハドラッグ 南方店,宮城県登米市南方町新島前16番3,38.6833864,141.1835613,宮城県,,
ツルハドラッグ,ツルハドラッグ 南気仙沼店,宮城県気仙沼市仲町２丁目１−３０2号,38.898244,141.577618,宮城県,,
ツルハドラッグ,ツルハドラッグ 古川中里店,宮城県大崎市古川中里５丁目１５−４１,38.5606157,140.9646747,宮城県,,
ツルハドラッグ,ツルハドラッグ 古川南店,宮城県大崎市古川穂波７丁目２−１４,38.5673012,140.9421621,宮城県,,
ツルハドラッグ,ツルハドラッグ 古川東店,宮城県大崎市古川旭３丁目８−８,38.5673863,140.9763372,宮城県,,
ツルハドラッグ,ツルハドラッグ 古川福浦店,宮城県大崎市古川福浦３丁目１１40号,38.5907977,140.9665918,宮城県,,
ツルハドラッグ,ツルハドラッグ 名取ゆりが丘店,宮城県名取市ゆりが丘４丁目2−５,38.19984780000001,140.8285177,宮城県,,
ツルハドラッグ,ツルハドラッグ 名取バイパス店,宮城県名取市飯野坂３丁目４−４６,38.1584835,140.8879504,宮城県,,
ツルハドラッグ,ツルハドラッグ 名取増田店,宮城県名取市増田北谷２６４−１,38.1727474,140.8921926,宮城県,,
ツルハドラッグ,ツルハドラッグ 名取店,宮城県名取市田高原３６７,38.18025129999999,140.8764578,宮城県,,
ツルハドラッグ,ツルハドラッグ 名取手倉田店,宮城県名取市手倉田諏訪568番地,38.1684528,140.8755902,宮城県,,
ツルハドラッグ,ツルハドラッグ 塩釜店,宮城県塩竈市藤倉２丁目１４42号,38.3270693,141.0283262,宮城県,,
ツルハドラッグ,ツルハドラッグ 塩釜栄町店,宮城県塩竈市栄町９−３６,38.3231895,141.0035285,宮城県,,
ツルハドラッグ,ツルハドラッグ 塩釜白菊店,宮城県塩竈市白菊町３−74番地27,38.3125034,141.0028145,宮城県,,
ツルハドラッグ,ツルハドラッグ 多賀城中央店,宮城県多賀城市中央３丁目６−１,38.2935316,141.0102594,宮城県,,
ツルハドラッグ,ツルハドラッグ 多賀城町前店,宮城県多賀城市町前２丁目６−５,38.2843494,141.0041291,宮城県,,
ツルハドラッグ,ツルハドラッグ 大和吉岡店,宮城県黒川郡大和町吉岡まほろば１丁目4番地の7,38.4361768,140.8839488,宮城県,,
ツルハドラッグ,ツルハドラッグ 大和町4丁目店,宮城県仙台市若林区大和町４丁目６−４０,38.249202,140.9153198,宮城県,,
ツルハドラッグ,ツルハドラッグ 大河原小島店,宮城県柴田郡大河原町小島２１−５,38.0652841,140.736134,宮城県,,
ツルハドラッグ,ツルハドラッグ 大河原新南店,宮城県柴田郡大河原町新南４０−７,38.0498314,140.7301457,宮城県,,
ツルハドラッグ,ツルハドラッグ 大野田店,宮城県仙台市太白区大野田３丁目１１−１５,38.2098518,140.8784151,宮城県,,
ツルハドラッグ,ツルハドラッグ 宮城女川店,宮城県牡鹿郡女川町鷲神浜堀切山108番地8,38.4411897,141.4423355,宮城県,,
ツルハドラッグ,ツルハドラッグ 宮城山元店,宮城県亘理郡山元町山寺石田45番１,37.972268,140.8744393,宮城県,,
ツルハドラッグ,ツルハドラッグ 宮城岩出山店,宮城県大崎市岩出山下野目山ノ辺１,38.6433383,140.8821548,宮城県,,
ツルハドラッグ,ツルハドラッグ 宮城志津川店,宮城県本吉郡南三陸町志津川上の山69番１,38.6792995,141.4523721,宮城県,,
ツルハドラッグ,ツルハドラッグ 宮城村田店,宮城県柴田郡村田町村田松崎8−１,38.1093494,140.7252332,宮城県,,
ツルハドラッグ,ツルハドラッグ 宮城登米店,宮城県登米市登米町寺池目子待井74番2,38.656148,141.2769182,宮城県,,
ツルハドラッグ,ツルハドラッグ 宮城白石北店,宮城県白石市福岡長袋中河原２４−１,38.0212735,140.6257096,宮城県,,
ツルハドラッグ,ツルハドラッグ 宮城白石店,宮城県白石市大手町１−８,38.00154819999999,140.6191742,宮城県,,
ツルハドラッグ,ツルハドラッグ 宮城色麻店,宮城県加美郡色麻町四かま瀧149番1,38.5500998,140.8514576,宮城県,,
ツルハドラッグ,ツルハドラッグ 宮城蔵王店,宮城県刈田郡蔵王町円田西浦上5番地,38.0980888,140.6554808,宮城県,,
ツルハドラッグ,ツルハドラッグ 宮城鹿島台店,宮城県大崎市鹿島台木間塚小谷地２２８−１,38.4784246,141.1057104,宮城県,,
ツルハドラッグ,ツルハドラッグ 富谷ひより台店,宮城県富谷市ひより台２丁目36−６,38.4021208,140.8855434,宮城県,,
ツルハドラッグ,ツルハドラッグ 富谷上桜木店,宮城県富谷市上桜木２丁目3番地4,38.3597162,140.8806096,宮城県,,
ツルハドラッグ,ツルハドラッグ 将監店,宮城県仙台市泉区将監殿２丁目1番2,38.3431189,140.8786079,宮城県,,
ツルハドラッグ,ツルハドラッグ 小牛田北店,宮城県遠田郡美里町牛飼八反９７番,38.5512881,141.0547313,宮城県,,
ツルハドラッグ,ツルハドラッグ 小牛田店,宮城県遠田郡美里町北浦１丁目26番地,38.5426384,141.0597768,宮城県,,
ツルハドラッグ,ツルハドラッグ 小鶴新田店,宮城県仙台市宮城野区新田東３丁目１1番地の5,38.2765546,140.9359431,宮城県,,
ツルハドラッグ,ツルハドラッグ 山田鈎取店,宮城県仙台市太白区山田田中前184番地,38.2162121,140.8365088,宮城県,,
ツルハドラッグ,ツルハドラッグ 岩沼中央店,宮城県岩沼市中央２丁目５−２２,38.1090633,140.868361,宮城県,,
ツルハドラッグ,ツルハドラッグ 岩沼南店,宮城県岩沼市藤浪２丁目４−１１,38.1010723,140.8722317,宮城県,,
ツルハドラッグ,ツルハドラッグ 市名坂店,宮城県仙台市泉区市名坂万吉前１１７−１,38.3187111,140.8911434,宮城県,,
ツルハドラッグ,ツルハドラッグ 明石南店,宮城県仙台市泉区明石南３丁目４−４,38.3399425,140.8872256,宮城県,,
ツルハドラッグ,ツルハドラッグ 東北大学病院前店,宮城県仙台市支倉町4-40,38.27040512652123,140.86171299219131,宮城県,,
ツルハドラッグ,ツルハドラッグ 東松島赤井店,宮城県東松島市赤井川前三番１５９−１４,38.4327252,141.2384816,宮城県,,
ツルハドラッグ,ツルハドラッグ 松島店,宮城県宮城郡松島町高城明神四8番地1,38.3883593,141.0673694,宮城県,,
ツルハドラッグ,ツルハドラッグ 柴田店,宮城県柴田郡柴田町上名生新大原大字上名生字新大原194-1,38.061457,140.7948681,宮城県,,
ツルハドラッグ,ツルハドラッグ 柴田槻木店,宮城県柴田郡柴田町槻木白幡２丁目１−２８,38.0742613,140.8104174,宮城県,,
ツルハドラッグ,ツルハドラッグ 柴田船岡店,宮城県柴田郡柴田町船岡新田２０８−３,38.057346,140.784762,宮城県,,
ツルハドラッグ,ツルハドラッグ 桃生店,宮城県石巻市桃生町中津山町１７番,38.5662133,141.246812,宮城県,,
ツルハドラッグ,ツルハドラッグ 桜木店,宮城県多賀城市桜木１丁目10−１,38.2895,141.0111203,宮城県,,
ツルハドラッグ,ツルハドラッグ 気仙沼上田中店,宮城県気仙沼市上田中１丁目８−６,38.88967969999999,141.5573699,宮城県,,
ツルハドラッグ,ツルハドラッグ 気仙沼東八幡前店,宮城県気仙沼市東八幡前82番地1,38.9206265,141.5864939,宮城県,,
ツルハドラッグ,ツルハドラッグ 気仙沼東新城店,宮城県気仙沼市東新城２丁目６−５,38.9059366,141.5503659,宮城県,,
ツルハドラッグ,ツルハドラッグ 気仙沼階上店,宮城県気仙沼市長磯牧通８７−１,38.8344637,141.5780036,宮城県,,
ツルハドラッグ,ツルハドラッグ 泉古内店,宮城県仙台市泉区古内新坂の上30−５,38.3201533,140.843648,宮城県,,
ツルハドラッグ,ツルハドラッグ 泉西田中店,宮城県仙台市泉区西田加賀屋敷北1番地の１,38.3230372,140.7892316,宮城県,,
ツルハドラッグ,ツルハドラッグ 涌谷店,宮城県遠田郡涌谷町渋江２６２,38.536938,141.119121,宮城県,,
ツルハドラッグ,ツルハドラッグ 田子西店,宮城県仙台市宮城野区田子西２丁目８ツルハドラッグ田子西店,38.2834705,140.9567715,宮城県,,
ツルハドラッグ,ツルハドラッグ 田尻店,宮城県大崎市田尻字町尻10番地3,38.5979263,141.032313,宮城県,,
ツルハドラッグ,ツルハドラッグ 登米中田店,宮城県登米市中田町浅水上川面222番地2,38.722505,141.259778,宮城県,,
ツルハドラッグ,ツルハドラッグ 登米加賀野店,宮城県登米市中田町石森加賀野３丁目3番１４,38.697786,141.2094335,宮城県,,
ツルハドラッグ,ツルハドラッグ 登米米山店,宮城県登米市米山町西野新五反口１８−２,38.6271908,141.1903423,宮城県,,
ツルハドラッグ,ツルハドラッグ 登米豊里店,宮城県登米市豊里町小口前197番地1,38.589864,141.247945,宮城県,,
ツルハドラッグ,ツルハドラッグ 白石東店,宮城県白石市鷹巣東１丁目１４−２８,37.9973941,140.6357267,宮城県,,
ツルハドラッグ,ツルハドラッグ 矢本店,宮城県東松島市小松上浮足４３,38.4257469,141.2042904,宮城県,,
ツルハドラッグ,ツルハドラッグ 矢本新沼店,宮城県東松島市矢本新沼１８４146番地,38.4180429,141.2134297,宮城県,,
ツルハドラッグ,ツルハドラッグ 矢本関の内店,宮城県東松島市矢本関の内2−２２,38.4237391,141.22424,宮城県,,
ツルハドラッグ,ツルハドラッグ 石巻あゆみ野店,宮城県石巻市あゆみ野３丁目2番地17,38.4403077,141.2625534,宮城県,,
ツルハドラッグ,ツルハドラッグ 石巻中里店,宮城県石巻市南中里１丁目１０5号,38.4405736,141.3032178,宮城県,,
ツルハドラッグ,ツルハドラッグ 石巻大街道店,宮城県石巻市大街道北３丁目１7号,38.4301503,141.2823338,宮城県,,
ツルハドラッグ,ツルハドラッグ 石巻広渕店,宮城県石巻市広渕馬場屋敷34番１,38.4727842,141.2155906,宮城県,,
ツルハドラッグ,ツルハドラッグ 石巻恵み野店,宮城県石巻市恵み野３丁目２−１４2番地１４,38.4449084,141.2701576,宮城県,,
ツルハドラッグ,ツルハドラッグ 石巻河北店,宮城県石巻市相野谷六本木２０20番,38.523846,141.312839,宮城県,,
ツルハドラッグ,ツルハドラッグ 石巻蛇田店,宮城県石巻市蛇田新丸井戸４４−１,38.446718,141.2743041,宮城県,,
ツルハドラッグ,ツルハドラッグ 石巻門脇店,宮城県石巻市門脇二番谷地１３−４５０,38.434675,141.270664,宮城県,,
ツルハドラッグ,ツルハドラッグ 石巻鹿又店,宮城県石巻市鹿又道的前２０５,38.47690600000001,141.283896,宮城県,,
ツルハドラッグ,ツルハドラッグ 築館店,宮城県栗原市築館宮野中央１丁目５−１,38.74673629999999,141.015774,宮城県,,
ツルハドラッグ,ツルハドラッグ 若柳川北店,宮城県栗原市若柳川北東若柳２１８−２,38.7709363,141.1453214,宮城県,,
ツルハドラッグ,ツルハドラッグ 若柳店,宮城県栗原市若柳川南堤通21番１,38.7716869,141.1190559,宮城県,,
ツルハドラッグ,ツルハドラッグ 荒巻本沢店,宮城県仙台市青葉区荒巻本沢１丁目１７−５,38.28933869999999,140.8503807,宮城県,,
ツルハドラッグ,ツルハドラッグ 角田中央店,宮城県角田市角田町２２２−２,37.9726488,140.7834093,宮城県,,
ツルハドラッグ,ツルハドラッグ 角田幸町店,宮城県角田市角田幸町57番地,37.9808555,140.7776661,宮城県,,
ツルハドラッグ,ツルハドラッグ 角田店,宮城県角田市角田町尻３６８,37.982341,140.7802087,宮城県,,
ツルハドラッグ,ツルハドラッグ 釜大街道店,宮城県石巻市三ツ股２丁目７−５５,38.4266485,141.2705954,宮城県,,
ツルハドラッグ,ツルハドラッグ 長町南店,宮城県仙台市太白区長町南４丁目１３−２,38.2210786,140.872178,宮城県,,
ツルハドラッグ,ツルハドラッグ 鹿妻店,宮城県石巻市鹿妻南３丁目７−４１,38.418145,141.344016,宮城県,,
ツルハドラッグ,ツルハドラッグ中田店,宮城県仙台市太白区中田町法地北１９−１ツルハドラッグ中田店,38.1958866,140.8994775,宮城県,,
ツルハドラッグ,ツルハドラッグ大和町４丁目店,宮城県仙台市若林区大和町４丁目６−４０ツルハドラッグ大和町４丁目店,38.2491928,140.9152975,宮城県,,
トモズ,トモズ エスパル仙台店,宮城県仙台市青葉区中央１丁目１−１エスパル仙台東館2F,38.2602397,140.8834627,宮城県,,
トモズ,トモズ 仙台サンモール店,宮城県仙台市青葉区一番町２丁目６−１,38.2587063,140.8721894,宮城県,,
トモズ,トモズ 仙台中央店,宮城県仙台市青葉区中央４丁目２−１６,38.257636,140.8785534,宮城県,,
トモズ,トモズ 仙台長町店,宮城県仙台市太白区長町７丁目２０−３ザ・モール仙台長町1F,38.2261549,140.8762394,宮城県,,
ドラッグストアモリ,ドラッグストアモリ 七北田店,宮城県仙台市泉区七北田東裏１８０−１,38.3262558,140.8920958,宮城県,,
ドラッグストアモリ,ドラッグストアモリ 古川東店,宮城県大崎市古川旭３丁目８−３０,38.5674782,140.9754449,宮城県,,
ドラッグストアモリ,ドラッグストアモリ 古川若葉店,宮城県大崎市古川若葉町１丁目１−６,38.5875661,140.9505632,宮城県,,
ドラッグストアモリ,ドラッグストアモリ 名取愛島店,宮城県名取市愛の杜１丁目１−１１,38.1581988,140.8664122,宮城県,,
ドラッグストアモリ,ドラッグストアモリ 大街道店,宮城県石巻市大街道東１丁目１−２４,38.4290576,141.2889735,宮城県,,
ドラッグストアモリ,ドラッグストアモリ 宮城亘理店,宮城県亘理郡亘理町逢隈高屋柴北１６５−１,38.0414685,140.8735049,宮城県,,
ドラッグストアモリ,ドラッグストアモリ 岩沼末広店,宮城県岩沼市末広２丁目５−１０,38.112107,140.8758734,宮城県,,
ドラッグストアモリ,ドラッグストアモリ 明石南店,宮城県仙台市泉区明石南３丁目７−１,38.3409267,140.8872995,宮城県,,
ドラッグストアモリ,ドラッグストアモリ 石巻中里店,宮城県石巻市東中里３丁目１−６,38.441884,141.3077742,宮城県,,
ドラッグストアモリ,ドラッグストアモリ 石巻蛇田店,宮城県石巻市わかば１丁目６６番地６,38.4541809,141.2826094,宮城県,,
ドラッグストアモリ,ドラッグストアモリ 角田店,宮城県角田市角田大町１３−１,37.9790476,140.7827897,宮城県,,
ドラッグストアモリ,ドラッグストアモリ六郷店,宮城県仙台市若林区六郷２−１０,38.2173187,140.9313311,宮城県,,
ドラッグストアモリ,ドラッグストアモリ塩釜店,宮城県塩竈市新浜町２丁目１−３９,38.3287836,141.0365367,宮城県,,
ドラッグストアモリ,ドラッグストアモリ子平町店,宮城県仙台市青葉区子平町４−１２,38.2752409,140.8491309,宮城県,,
ドラッグストアモリ,ドラッグストアモリ石巻金津店,宮城県石巻市蛇田金津町10番地2,38.44051899999999,141.2832293,宮城県,,
ドラッグストアモリ,ドラッグストアモリ西中田店,宮城県仙台市太白区西中田３丁目１８−１３,38.19849809999999,140.8760338,宮城県,,
ドラッグストアモリ,ドラッグストアモリ長町店,宮城県仙台市太白区長町６丁目５−６あす,38.2226095,140.8837965,宮城県,,
ドラッグヤマザワ,ドラッグヤマザワ 中田店,宮城県仙台市太白区中田町千刈田１９−１,38.1966519,140.8976038,宮城県,,
ドラッグヤマザワ,ドラッグヤマザワ 古川北店,宮城県大崎市古川江合寿町３丁目６−２,38.5870783,140.9689244,宮城県,,
ドラッグヤマザワ,ドラッグヤマザワ 富谷成田店,宮城県富谷市成田１丁目6−８,38.3620138,140.8900527,宮城県,,
ドラッグヤマザワ,ドラッグヤマザワ 松陵店,宮城県仙台市泉区松陵２丁目５−１,38.328451,140.912567,宮城県,,
ドラッグヤマザワ,ドラッグヤマザワ 白石北店,宮城県白石市福岡長袋高畑１,38.0211693,140.6239328,宮城県,,
ドラッグヤマザワ,ドラッグヤマザワ吉岡店,宮城県黒川郡大和町吉岡まほろば１丁目6−２５,38.4383671,140.8830705,宮城県,,
ドラッグヤマザワ,ドラッグヤマザワ塩釜中の島店,宮城県塩竈市中の島２−１６,38.315707,141.03001,宮城県,,
ドラッグヤマザワ,ドラッグヤマザワ多賀城店,宮城県多賀城市城南２丁目１４−７,38.2977901,140.9915979,宮城県,,
ドラッグヤマザワ,ドラッグヤマザワ杜のまち店,宮城県黒川郡大和町杜の丘１丁目１６,38.38524719999999,140.8687065,宮城県,,
ドラッグヤマザワ,ドラッグヤマザワ汐見台店,宮城県宮城郡七ヶ浜町汐見台１丁目１−１０,38.296283,141.05522,宮城県,,
ドラッグヤマザワ,ドラッグヤマザワ荒井店,宮城県仙台市若林区荒井３丁目２９−３,38.23941,140.9417463,宮城県,,
ドラッグヤマザワ,ドラッグヤマザワ高砂店,宮城県仙台市宮城野区高砂１丁目１７−１ドラッグヤマザワ高砂薬局,38.2709392,140.9685444,宮城県,,
マツモトキヨシ,ドラッグストア マツモトキヨシ アクロスプラザ富沢西店,宮城県仙台市太白区富沢西３丁目１３−１,38.2123426,140.8555117,宮城県,,
マツモトキヨシ,ドラッグストア マツモトキヨシ クロスモール仙台荒井店,宮城県仙台市若林区なないろの里３丁目３−９,38.2390076,140.9315198,宮城県,,
マツモトキヨシ,ドラッグストア マツモトキヨシ 中田十文字店,宮城県登米市中田町宝江黒沼十文字６５−１,38.7089974,141.2375434,宮城県,,
マツモトキヨシ,ドラッグストア マツモトキヨシ 八乙女店,宮城県仙台市泉区八乙女１丁目5−１,38.3113894,140.8911505,宮城県,,
マツモトキヨシ,ドラッグストア マツモトキヨシ 八木山南店,宮城県仙台市太白区八木山南１丁目１−１０,38.2353553,140.8370443,宮城県,,
マツモトキヨシ,ドラッグストア マツモトキヨシ 六丁の目店,宮城県仙台市若林区六丁の目南町９−３２,38.2496434,140.9452939,宮城県,,
マツモトキヨシ,ドラッグストア マツモトキヨシ 加茂店,宮城県仙台市泉区加茂４丁目１−３,38.3126393,140.8560428,宮城県,,
マツモトキヨシ,ドラッグストア マツモトキヨシ 古川北町店,宮城県大崎市古川北町３丁目１１−１１,38.580752,140.96399,宮城県,,
マツモトキヨシ,ドラッグストア マツモトキヨシ 名取ゆりあげ店,宮城県名取市閖上中央２丁目１−１,38.1781875,140.9438018,宮城県,,
マツモトキヨシ,ドラッグストア マツモトキヨシ 多賀城八幡店,宮城県多賀城市八幡３丁目５−３５,38.2907597,141.0087145,宮城県,,
マツモトキヨシ,ドラッグストア マツモトキヨシ 多賀城城南店,宮城県多賀城市城南２丁目１５−４,38.2963365,140.9916277,宮城県,,
マツモトキヨシ,ドラッグストア マツモトキヨシ 大河原店,宮城県柴田郡大河原町新東２０−１０,38.0600308,140.7373784,宮城県,,
マツモトキヨシ,ドラッグストア マツモトキヨシ 富沢南店,宮城県仙台市太白区富沢南１丁目１８−３,38.2129377,140.8663036,宮城県,,
マツモトキヨシ,ドラッグストア マツモトキヨシ 寺岡店,宮城県仙台市泉区寺岡４丁目1−６,38.3421368,140.8266917,宮城県,,
マツモトキヨシ,ドラッグストア マツモトキヨシ 岩沼桜店,宮城県岩沼市桜１丁目６−３１,38.1047022,140.8716713,宮城県,,
マツモトキヨシ,ドラッグストア マツモトキヨシ 岩沼玉浦西店,宮城県岩沼市玉浦西４丁目１−１,38.107221,140.9007603,宮城県,,
マツモトキヨシ,ドラッグストア マツモトキヨシ 市名坂店,宮城県仙台市泉区市名坂清水端２０１−８,38.3162487,140.9075807,宮城県,,
マツモトキヨシ,ドラッグストア マツモトキヨシ 新田東二丁目店,宮城県仙台市宮城野区新田東２丁目1−７,38.27644360000001,140.9311458,宮城県,,
マツモトキヨシ,ドラッグストア マツモトキヨシ 明石台店,宮城県富谷市明石台６丁目１−３８,38.3482591,140.8929458,宮城県,,
マツモトキヨシ,ドラッグストア マツモトキヨシ 柳生店,宮城県仙台市太白区柳生７丁目5−１１,38.1967874,140.8651136,宮城県,,
マツモトキヨシ,ドラッグストア マツモトキヨシ 栗生店,宮城県仙台市青葉区栗生７丁目３−８,38.2681321,140.7794098,宮城県,,
マツモトキヨシ,ドラッグストア マツモトキヨシ 福室店,宮城県仙台市宮城野区福室６丁目２０−３０,38.2835881,140.9711509,宮城県,,
マツモトキヨシ,ドラッグストア マツモトキヨシ 西多賀店,宮城県仙台市太白区鈎取１丁目４−３５,38.2215751,140.8457902,宮城県,,
マツモトキヨシ,ドラッグストア マツモトキヨシ 長命ヶ丘中央店,宮城県仙台市泉区長命ケ丘５丁目１３−８,38.3125287,140.8344525,宮城県,,
マツモトキヨシ,ドラッグストア マツモトキヨシ 長町南四丁目店,宮城県仙台市太白区長町南４丁目１−２０フォレストビル1F,38.2237428,140.8732185,宮城県,,
マツモトキヨシ,ドラッグストアマツモトキヨシ 仙台中田店,宮城県仙台市太白区中田町二軒橋11−１,38.1958415,140.8936744,宮城県,,
マツモトキヨシ,ドラッグストアマツモトキヨシ 杜せきのした店,宮城県名取市杜せきのした５丁目２０−３５,38.1625002,140.9052118,宮城県,,
マツモトキヨシ,ドラッグストアマツモトキヨシ 桂店,宮城県仙台市泉区桂１丁目12−１グリーンマート桂店内,38.3373912,140.8635067,宮城県,,
マツモトキヨシ,マツモトキヨシ OUTLET 三井アウトレットパーク仙台港店,宮城県仙台市宮城野区中野３丁目7−２,38.2750395,140.9910228,宮城県,,
マツモトキヨシ,マツモトキヨシ 仙台中田店,宮城県仙台市太白区中田町二軒橋11−１マツモトキヨシ仙台中田店,38.1958756,140.8935867,宮城県,,
マツモトキヨシ,マツモトキヨシ 杜せきのした店,宮城県名取市杜せきのした５丁目２０−１８,38.1627303,140.9040861,宮城県,,
マツモトキヨシ,薬 マツモトキヨシ tekuteせんだい店,宮城県仙台市青葉区中央１丁目１−１,38.2603621,140.8819694,宮城県,,
マツモトキヨシ,薬 マツモトキヨシ ヨドバシ仙台店,宮城県仙台市宮城野区榴岡１丁目２−１３,38.2591236,140.8852795,宮城県,,
マツモトキヨシ,薬 マツモトキヨシ ララガーデン長町店,宮城県仙台市太白区長町７丁目２０−５ララガーデン長町1F,38.2250662,140.8759431,宮城県,,
マツモトキヨシ,薬 マツモトキヨシ 仙台一番町店,宮城県仙台市青葉区一番町４丁目３−２６,38.263116,140.870845,宮城県,,
マツモトキヨシ,薬 マツモトキヨシ 仙台中央通り店,宮城県仙台市青葉区一番町３丁目６−４,38.26091290000001,140.8739022,宮城県,,
マツモトキヨシ,薬 マツモトキヨシ 仙台東口駅前店,宮城県仙台市宮城野区榴岡１丁目２−８松栄東口第一ビル,38.25946140000001,140.8854926,宮城県,,
マツモトキヨシ,薬 マツモトキヨシ 仙台駅前店,宮城県仙台市青葉区中央３丁目６−６,38.2597901,140.8796871,宮城県,,
マツモトキヨシ,薬 マツモトキヨシ 泉パークタウンタピオ店,宮城県仙台市泉区寺岡６丁目5−１泉パークタウンタピオ北館1階,38.3436289,140.8368155,宮城県,,
マツモトキヨシ,薬 マツモトキヨシ 泉中央店,宮城県仙台市泉区泉中央１丁目15−２,38.3236892,140.8803252,宮城県,,
マツモトキヨシ,薬 マツモトキヨシ 長町たいはっくる店,宮城県仙台市太白区長町５丁目３−１BF1,38.2282989,140.884611,宮城県,,
マツモトキヨシ,薬マツモトキヨシ matsukiyoLAB 仙台クリスロード店,宮城県仙台市青葉区中央２丁目２−２４,38.2612957,140.876725,宮城県,,
マツモトキヨシ,証明写真／ドラッグストア マツモトキヨシ 柳生店,宮城県仙台市太白区柳生７丁目５−９ダルマ薬局,38.1968419,140.8651707,宮城県,,
不明,ドラッグストアポピー,宮城県仙台市太白区中田町法地南ドラッグストアポピー,38.1971776,140.9030051,宮城県,,
薬王堂,薬王堂 中新田店,宮城県加美郡加美町赤塚２２３−１,38.561955,140.860568,宮城県,,
薬王堂,薬王堂 丸森舘矢間店,宮城県伊具郡丸森町舘矢間舘山東玉川１１１−１,37.926461,140.7726699,宮城県,,
薬王堂,薬王堂 亘理祝田店,宮城県亘理郡亘理町祝田２５−１,38.0358649,140.8480259,宮城県,,
薬王堂,薬王堂 亘理荒浜店,宮城県亘理郡亘理町逢隈高屋倉東２０,38.0428642,140.8906798,宮城県,,
薬王堂,薬王堂 仙台中田店,宮城県仙台市太白区中田６丁目９−２７,38.1947946,140.8858315,宮城県,,
薬王堂,薬王堂 仙台南光台店,宮城県仙台市泉区松森新田１７９,38.3032715,140.906521,宮城県,,
薬王堂,薬王堂 仙台愛子店,宮城県仙台市青葉区上愛子車４３−２,38.2728451,140.7436626,宮城県,,
薬王堂,薬王堂 仙台泉根白石店,宮城県仙台市泉区小角宮９７−１,38.3293561,140.8028615,宮城県,,
薬王堂,薬王堂 仙台泉紫山店,宮城県仙台市泉区紫山４丁目１−１,38.345524,140.8201124,宮城県,,
薬王堂,薬王堂 仙台泉館店,宮城県仙台市泉区館２丁目１−５６９,38.31322249999999,140.797054,宮城県,,
薬王堂,薬王堂 仙台茂庭店,宮城県仙台市太白区茂庭１丁目５−９,38.2227538,140.7893414,宮城県,,
薬王堂,薬王堂 仙台袋原店,宮城県仙台市太白区中田町荒屋敷１２,38.1973806,140.900105,宮城県,,
薬王堂,薬王堂 利府ＳＣ店,宮城県宮城郡利府町利府新神明前３８,38.3314758,140.9797441,宮城県,,
薬王堂,薬王堂 加美バッハホール前店,宮城県加美郡加美町一本杉96番地1,38.5678985,140.8676544,宮城県,,
薬王堂,薬王堂 加美小野田店,宮城県加美郡加美町南野口１５,38.5738123,140.7940527,宮城県,,
薬王堂,薬王堂 南三陸ＳＣ店,宮城県本吉郡南三陸町志津川天王前３２Ｔ４７街区,38.6827698,141.4525824,宮城県,,
薬王堂,薬王堂 南気仙沼店,宮城県気仙沼市仲町２丁目５−２９,38.8967575,141.5771406,宮城県,,
薬王堂,薬王堂 古川休塚店,宮城県大崎市古川休塚南田４０−１,38.59401829999999,140.9759743,宮城県,,
薬王堂,薬王堂 古川城西店,宮城県大崎市古川城西１丁目７−１５,38.5751405,140.9491517,宮城県,,
薬王堂,薬王堂 古川福浦店,宮城県大崎市古川福浦１丁目２１−３,38.5896564,140.962858,宮城県,,
薬王堂,薬王堂 古川稲葉店,宮城県大崎市古川北稲葉１丁目１−６０,38.5642161,140.9557677,宮城県,,
薬王堂,薬王堂 名取愛島店,宮城県名取市愛島郷２丁目１−１,38.1597903,140.8561913,宮城県,,
薬王堂,薬王堂 名取杜せきのした店,宮城県名取市杜せきのした１丁目２−５,38.1682884,140.8945116,宮城県,,
薬王堂,薬王堂 多賀城山王店,宮城県多賀城市山王山王三区６０,38.2983961,140.9780808,宮城県,,
薬王堂,薬王堂 大崎三本木店,宮城県大崎市三本木善並田１１３−１,38.5324982,140.944605,宮城県,,
薬王堂,薬王堂 大崎松山店,宮城県大崎市松山金谷向田３−１,38.5117915,141.0647299,宮城県,,
薬王堂,薬王堂 大崎田尻店,宮城県大崎市田尻桜田高野新堀７８,38.5972087,141.045684,宮城県,,
薬王堂,薬王堂 大崎鳴子店,宮城県大崎市鳴子温泉鷲ノ巣５４−１,38.7405772,140.7399032,宮城県,,
薬王堂,薬王堂 宮城七ヶ浜店,宮城県宮城郡七ヶ浜町東宮浜小田宮城郡七ヶ浜町東宮浜字小田5番1,38.3020888,141.0457994,宮城県,,
薬王堂,薬王堂 宮城丸森店,宮城県伊具郡丸森町花田３,37.9105471,140.7631965,宮城県,,
薬王堂,薬王堂 宮城亘理店,宮城県亘理郡亘理町東郷１９９−１,38.0403208,140.8680209,宮城県,,
薬王堂,薬王堂 宮城加美店,宮城県加美郡加美町大門８１,38.577366,140.849687,宮城県,,
薬王堂,薬王堂 宮城大和店,宮城県黒川郡大和町吉岡まほろば１丁目３−７,38.436107,140.88619,宮城県,,
薬王堂,薬王堂 宮城大富店,宮城県黒川郡大和町もみじケ丘２丁目３４−１,38.380658,140.862837,宮城県,,
薬王堂,薬王堂 宮城大郷店,宮城県黒川郡大郷町中村屋鋪６５−１５,38.423087,140.996108,宮城県,,
薬王堂,薬王堂 宮城小牛田店,宮城県遠田郡美里町北浦中新田１１−１,38.559448,141.044864,宮城県,,
薬王堂,薬王堂 宮城岩出山店,宮城県大崎市岩出山下野目新雨沼２１,38.6414725,140.8818165,宮城県,,
薬王堂,薬王堂 宮城川崎店,宮城県柴田郡川崎町川内北川原山２３８−５７,38.1842601,140.6360765,宮城県,,
薬王堂,薬王堂 宮城志津川店,宮城県本吉郡南三陸町志津川御前下１３−１,38.6878645,141.4374337,宮城県,,
薬王堂,薬王堂 宮城村田店,宮城県柴田郡村田町村田反町９４−１,38.1112565,140.7230666,宮城県,,
薬王堂,薬王堂 宮城松島店,宮城県宮城郡松島町高城帰命院下一１８−１,38.3805174,141.0673598,宮城県,,
薬王堂,薬王堂 宮城柴田店,宮城県柴田郡柴田町船岡東原前２３５−１,38.0604052,140.7829636,宮城県,,
薬王堂,薬王堂 宮城涌谷店,宮城県遠田郡涌谷町六軒町裏６８−２,38.5431993,141.1202879,宮城県,,
薬王堂,薬王堂 宮城築館店,宮城県栗原市築館宮野中央３丁目２−１１,38.7473263,141.0198617,宮城県,,
薬王堂,薬王堂 宮城金成店,宮城県栗原市金成沢辺町沖１５３,38.8025779,141.0664383,宮城県,,
薬王堂,薬王堂 宮城鹿島台店,宮城県大崎市鹿島台木間塚小谷地３４４−１,38.4769617,141.1042482,宮城県,,
薬王堂,薬王堂 富谷成田店,宮城県富谷市成田３丁目１６−２,38.3651354,140.8952452,宮城県,,
薬王堂,薬王堂 富谷西沢店,宮城県富谷市富谷西沢８４−１,38.4030677,140.8918947,宮城県,,
薬王堂,薬王堂 小牛田北浦店,宮城県遠田郡美里町北浦川戸浦６０,38.5442701,141.060686,宮城県,,
薬王堂,薬王堂 小牛田西舘店,宮城県遠田郡美里町西舘８０−１,38.5314101,141.0745228,宮城県,,
薬王堂,薬王堂 山元SC店,宮城県亘理郡山元町つばめの杜１丁目６,37.9667959,140.888419,宮城県,,
薬王堂,薬王堂 岩沼ＳＣ店,宮城県岩沼市あさひ野１丁目８−７,38.1185845,140.8603154,宮城県,,
薬王堂,薬王堂 東松島大曲店,宮城県東松島市大曲堺堀１７８−１,38.425926,141.231725,宮城県,,
薬王堂,薬王堂 東松島矢本店,宮城県東松島市あおい１丁目１０３,38.4278694,141.2181562,宮城県,,
薬王堂,薬王堂 東松島鳴瀬店,宮城県東松島市牛網上四十八３１−１,38.3969635,141.1766739,宮城県,,
薬王堂,薬王堂 柴田槻木店,宮城県柴田郡柴田町槻木焼檀１８−１,38.0875628,140.8049697,宮城県,,
薬王堂,薬王堂 栗原一迫店,宮城県栗原市一迫柳目中田１,38.73443,140.959881,宮城県,,
薬王堂,薬王堂 栗原志波姫店,宮城県栗原市志波姫南八樟４６０−１,38.74827399999999,141.053985,宮城県,,
薬王堂,薬王堂 栗原栗駒店,宮城県栗原市栗駒岩ケ崎神南５５,38.8310149,141.0011825,宮城県,,
薬王堂,薬王堂 栗原若柳店,宮城県栗原市若柳字川北元町裏１４−１,38.7762429,141.131684,宮城県,,
薬王堂,薬王堂 栗駒SC店,宮城県栗原市栗駒中野田町西２１５−１,38.823132,140.9847281,宮城県,,
薬王堂,薬王堂 気仙沼本吉店,宮城県気仙沼市本吉町津谷新明戸２１５,38.7943009,141.5000323,宮城県,,
薬王堂,薬王堂 気仙沼松川前店,宮城県気仙沼市松川前４７,38.9140209,141.5450927,宮城県,,
薬王堂,薬王堂 気仙沼片浜店,宮城県気仙沼市松崎片浜８１,38.8722095,141.5838,宮城県,,
薬王堂,薬王堂 気仙沼階上店,宮城県気仙沼市波路上野田１７４,38.8324531,141.5789611,宮城県,,
薬王堂,薬王堂 気仙沼鹿折店,宮城県気仙沼市中みなと町１−１０,38.9168647,141.5818207,宮城県,,
薬王堂,薬王堂 登米中田店,宮城県登米市中田町石森蓬田１８７,38.7048856,141.2274758,宮城県,,
薬王堂,薬王堂 登米加賀野店,宮城県登米市中田町石森加賀野２丁目４−１,38.701161,141.210779,宮城県,,
薬王堂,薬王堂 登米南方店,宮城県登米市南方町西山成前西山成前１１１,38.6615664,141.1578208,宮城県,,
薬王堂,薬王堂 登米米山店,宮城県登米市米山町中津山筒場埣３１３−１,38.6136888,141.1787608,宮城県,,
薬王堂,薬王堂 登米豊里店,宮城県登米市豊里町小口前１３７,38.5880488,141.2486313,宮城県,,
薬王堂,薬王堂 登米迫店,宮城県登米市迫町佐沼南佐沼３丁目４−５,38.6804171,141.1919331,宮城県,,
薬王堂,薬王堂 登米迫森店,宮城県登米市迫町佐沼新駒木袋３５１,38.6825649,141.2093676,宮城県,,
薬王堂,薬王堂 白石店,宮城県白石市大平森合森合沖６６−１,37.9976576,140.6115241,宮城県,,
薬王堂,薬王堂 白石旭町店,宮城県白石市旭町１丁目１−１１,37.9968565,140.6319656,宮城県,,
薬王堂,薬王堂 石巻広渕店,宮城県石巻市広渕焼巻２９７,38.4718544,141.2181278,宮城県,,
薬王堂,薬王堂 石巻末広店,宮城県石巻市末広町２−６,38.432133,141.290554,宮城県,,
薬王堂,薬王堂 石巻河北店,宮城県石巻市成田一本杉６５,38.5244164,141.3116194,宮城県,,
薬王堂,薬王堂 石巻渡波店,宮城県石巻市後生橋１−５,38.4206819,141.3663571,宮城県,,
薬王堂,薬王堂 石巻湊店,宮城県石巻市湊大門崎２５０−１,38.419263,141.332153,宮城県,,
薬王堂,薬王堂 石巻蛇田店,宮城県石巻市わかば２丁目１１−１０,38.4568763,141.2814206,宮城県,,
薬王堂,薬王堂 石巻鹿又店,宮城県石巻市鹿又天王前１７３,38.4891984,141.2878305,宮城県,,
薬王堂,薬王堂 石巻黄金浜店,宮城県石巻市渡波黄金浜５０−１,38.4186831,141.3531235,宮城県,,
薬王堂,薬王堂 竹ノ内店,宮城県大崎市古川竹ノ内１５６,38.5741192,140.939969,宮城県,,
薬王堂,薬王堂 築館ＳＣ店,宮城県栗原市築館源光１４−７２,38.73436210000001,141.0344149,宮城県,,
薬王堂,薬王堂 角田店,宮城県角田市角田緑町２−４,37.980035,140.784945,宮城県,,
薬王堂,薬王堂 角田栄町店,宮城県角田市角田栄町３４,37.978677,140.7776379,宮城県,,
薬王堂,薬王堂富谷明石台店,宮城県富谷市明石台７丁目１−１−６,38.3467644,140.9006915,宮城県,,
薬王堂,薬王堂東松島新沼店,宮城県東松島市矢本新沼81−１,38.4175834,141.2124309,宮城県,,
薬王堂,薬王堂気仙沼四反田店,宮城県気仙沼市四反田８５,38.9005961,141.5587403,宮城県,,
薬王堂,薬王堂気仙沼田中前店,宮城県気仙沼市田中前４丁目１−２,38.890806,141.56151,宮城県,,
サンドラッグ,サンドラッグ 八橋大畑店,秋田県秋田市八橋大畑１丁目６−３７,39.7349519,140.0985724,秋田県,,
サンドラッグ,サンドラッグ 土崎自衛隊通店,秋田県秋田市土崎港北２丁目１７−６４,39.7615579,140.0817865,秋田県,,
サンドラッグ,サンドラッグ 大館東台店,秋田県大館市東台２丁目１−５,40.2706915,140.5742291,秋田県,,
サンドラッグ,サンドラッグ 新国道店,秋田県秋田市高陽幸町１４−２９,39.7250449,140.1070298,秋田県,,
サンドラッグ,サンドラッグ 横手店,秋田県横手市婦気大堤下久保１５,39.3064017,140.5505183,秋田県,,
サンドラッグ,サンドラッグ 能代南店,秋田県能代市寿域長根５２−３,40.19212479999999,140.0278903,秋田県,,
サンドラッグ,サンドラッグ 鷹巣店,秋田県北秋田市栄前綱７６−７２,40.23161229999999,140.3798989,秋田県,,
サンドラッグ,サンドラッグ湯沢インター店,秋田県湯沢市元清水４丁目３−２４,39.170963,140.4830872,秋田県,,
スーパードラッグアサヒ,スーパードラッグアサヒ 八橋店,秋田県秋田市寺内蛭根１丁目１５−２８,39.7266962,140.0872491,秋田県,,
スーパードラッグアサヒ,スーパードラッグアサヒ 外旭川店,秋田県秋田市外旭川四百刈２２,39.7490684,140.0984679,秋田県,,
スーパードラッグアサヒ,スーパードラッグアサヒ 大曲店,秋田県大仙市戸蒔錨１６９,39.4545472,140.4973718,秋田県,,
スーパードラッグアサヒ,スーパードラッグアサヒ 湯沢店,秋田県湯沢市万石２４２,39.1573456,140.4837741,秋田県,,
スーパードラッグアサヒ,スーパードラッグアサヒ 秋田中央店,秋田県秋田市泉北４丁目３−２,39.7368663,140.110446,秋田県,,
スーパードラッグアサヒ,スーパードラッグアサヒ 秋田勝平店,秋田県秋田市新屋松美町１１−３８,39.6987367,140.0792933,秋田県,,
スーパードラッグアサヒ,スーパードラッグアサヒ 秋田広面店,秋田県秋田市広面近藤堰越４３−１,39.72999310000001,140.145873,秋田県,,
スーパードラッグアサヒ,スーパードラッグアサヒ 能代店,秋田県能代市東大瀬５−１,40.191792,140.03576,秋田県,,
スーパードラッグアサヒ,スーパードラッグアサヒ 角館店,秋田県仙北市角館町下菅沢２２−１,39.589111,140.573859,秋田県,,
スーパードラッグアサヒ,スーパードラッグアサヒ大曲田町店,秋田県大仙市大曲田町２−２５,39.4527702,140.4809931,秋田県,,
スーパードラッグアサヒ,スーパードラッグアサヒ大館店,秋田県大館市有浦２丁目１−２０,40.282731,140.563021,秋田県,,
スーパードラッグアサヒ,スーパードラッグメガ 新国道店,秋田県秋田市八橋鯲沼町１０−１１,39.7329403,140.099619,秋田県,,
セイムス,ドラッグセイムス 本荘中梵天店,秋田県由利本荘市中梵天１３２,39.38713509999999,140.0618536,秋田県,,
セイムス,ドラッグセイムス 本荘大門店,秋田県由利本荘市裏尾崎町５０−４,39.3883967,140.0471507,秋田県,,
セイムス,ドラッグセイムス 秋田新屋店,秋田県秋田市新屋豊町６−３７,39.7049669,140.0867217,秋田県,,
ツルハドラッグ,ツルハドラッグ フレスポ本荘店,秋田県由利本荘市石脇田頭１９５−２,39.38935620000001,140.0279026,秋田県,,
ツルハドラッグ,ツルハドラッグ 中仙店,秋田県大仙市長野柳田61番地,39.5451549,140.5416628,秋田県,,
ツルハドラッグ,ツルハドラッグ 中仙店,秋田県大仙市柳田61番地,39.5451821,140.5390782514,秋田県,,
ツルハドラッグ,ツルハドラッグ 五城目店,秋田県南秋田郡五城目町西磯ノ目１丁目2−３,39.9425536,140.1115172,秋田県,,
ツルハドラッグ,ツルハドラッグ 仁賀保店,秋田県にかほ市平沢上町田１９−９,39.289134,139.9734665,秋田県,,
ツルハドラッグ,ツルハドラッグ 八竜店,秋田県山本郡三種町浜田東浜田334番地,40.1002617,140.002372,秋田県,,
ツルハドラッグ,ツルハドラッグ 八郎潟店,秋田県南秋田郡八郎潟町上沖谷地47−１,39.9453076,140.0839492,秋田県,,
ツルハドラッグ,ツルハドラッグ 八郎潟店,秋田県南秋田郡八郎潟町字上沖谷地47－1,39.9453076161193,140.083949153661,秋田県,,
ツルハドラッグ,ツルハドラッグ 刈和野店,秋田県大仙市刈和野沼田１２−１,39.5469918,140.3675485,秋田県,,
ツルハドラッグ,ツルハドラッグ 十文字店,秋田県横手市十文字町佐賀会上沖田277番地,39.2176993,140.5166573,秋田県,,
ツルハドラッグ,ツルハドラッグ 合川店,秋田県北秋田市李岱豊田36番１,40.155312,140.313949,秋田県,,
ツルハドラッグ,ツルハドラッグ 向能代店,秋田県能代市落合下大野78番地,40.2229339,140.0312163,秋田県,,
ツルハドラッグ,ツルハドラッグ 外旭川店,秋田県秋田市外旭川小谷地33番地1,39.7521485,140.0975658,秋田県,,
ツルハドラッグ,ツルハドラッグ 大仙協和店,秋田県大仙市協和境岸館73番地1,39.6064724,140.3296026,秋田県,,
ツルハドラッグ,ツルハドラッグ 大仙大曲東店,秋田県大仙市戸蒔東８９,39.4588104,140.4967421,秋田県,,
ツルハドラッグ,ツルハドラッグ 大内店,秋田県由利本荘市大内三川三川34番地2,39.4448799,140.1073083,秋田県,,
ツルハドラッグ,ツルハドラッグ 大曲川目店,秋田県大仙市川目町東７7番地,39.4305072,140.4855158,秋田県,,
ツルハドラッグ,ツルハドラッグ 大曲川目店,秋田県大仙市川目字町東7番地,39.430507215281786,140.48551584770132,秋田県,,
ツルハドラッグ,ツルハドラッグ 大曲店,秋田県大仙市戸蒔錨27番地,39.4515027,140.4956547,秋田県,,
ツルハドラッグ,ツルハドラッグ 大曲田町店,秋田県大仙市大曲田町１−２７,39.4535819,140.4811097,秋田県,,
ツルハドラッグ,ツルハドラッグ 大曲福田店,秋田県大仙市福田町２２−２３−６,39.4702117,140.4811908,秋田県,,
ツルハドラッグ,ツルハドラッグ 大館中道店,秋田県大館市中道２丁目２−５４,40.282456,140.554949,秋田県,,
ツルハドラッグ,ツルハドラッグ 大館北店,秋田県大館市釈迦内稲荷山下２５８,40.295767,140.559629,秋田県,,
ツルハドラッグ,ツルハドラッグ 大館南店,秋田県大館市餌釣前田１６５,40.2467064,140.5716124,秋田県,,
ツルハドラッグ,ツルハドラッグ 大館南店,秋田県大館市字前田165,40.24670642112024,140.57161242698365,秋田県,,
ツルハドラッグ,ツルハドラッグ 大館店,秋田県大館市片山町３丁目１−１,40.2741354,140.5381245,秋田県,,
ツルハドラッグ,ツルハドラッグ 大館東店,秋田県大館市大田面31番地,40.2872964,140.583293,秋田県,,
ツルハドラッグ,ツルハドラッグ 天王西店,秋田県潟上市天王上江川４７−２９０,39.8828002,139.9827334,秋田県,,
ツルハドラッグ,ツルハドラッグ 天王長沼店,秋田県潟上市天王長沼9番2号,39.8121484,140.0501374,秋田県,,
ツルハドラッグ,ツルハドラッグ 本荘中央店,秋田県由利本荘市岩渕下１８,39.3906159,140.0512146,秋田県,,
ツルハドラッグ,ツルハドラッグ 本荘南店,秋田県由利本荘市二番堰５４,39.3784262,140.0550991,秋田県,,
ツルハドラッグ,ツルハドラッグ 本荘店,秋田県由利本荘市中梵天１０８番,39.3862534,140.0618897,秋田県,,
ツルハドラッグ,ツルハドラッグ 東能代店,秋田県能代市鰄渕古屋布77−１,40.1889875,140.0784075,秋田県,,
ツルハドラッグ,ツルハドラッグ 東通店,秋田県秋田市東通８丁目１−３１,39.7121966,140.1411402,秋田県,,
ツルハドラッグ,ツルハドラッグ 横手大森店,秋田県横手市大森町大中島３５５355番地,39.3418563,140.4321574,秋田県,,
ツルハドラッグ,ツルハドラッグ 横手大森店,秋田県横手市大森町字大中島355番地,39.341856271095246,140.43215744661072,秋田県,,
ツルハドラッグ,ツルハドラッグ 横手寿町店,秋田県横手市寿町１−３５,39.3132313,140.5635776,秋田県,,
ツルハドラッグ,ツルハドラッグ 横手平和町店,秋田県横手市平和町１５−３１,39.3084526,140.5711056,秋田県,,
ツルハドラッグ,ツルハドラッグ 横手平鹿店,秋田県横手市平鹿町中吉田竹原９０−１,39.2700799,140.4967134,秋田県,,
ツルハドラッグ,ツルハドラッグ 横手平鹿病院前店,秋田県横手市横手町五ノ口２８−１,39.3145938,140.5475239,秋田県,,
ツルハドラッグ,ツルハドラッグ 横手平鹿病院前店,秋田県横手市字五ノ口２８－１,39.314593804990366,140.54752391216434,秋田県,,
ツルハドラッグ,ツルハドラッグ 毛馬内店,秋田県鹿角市十和田毛馬内南陣場30番地1,40.262744,140.7689352,秋田県,,
ツルハドラッグ,ツルハドラッグ 湯沢大町店,秋田県湯沢市大町２丁目１10号,39.16301199999999,140.491622,秋田県,,
ツルハドラッグ,ツルハドラッグ 湯沢大町店,秋田県湯沢市大町二丁目1番10号,39.163012,140.491622,秋田県,,
ツルハドラッグ,ツルハドラッグ 湯沢店,秋田県湯沢市両神２８−１,39.1721386,140.4802872,秋田県,,
ツルハドラッグ,ツルハドラッグ 潟上昭和店,秋田県潟上市昭和乱橋下畑９８番地,39.863013,140.0616867,秋田県,,
ツルハドラッグ,ツルハドラッグ 琴丘店,秋田県山本郡三種町鹿渡西小瀬川157番,40.0341418,140.0782044,秋田県,,
ツルハドラッグ,ツルハドラッグ 田沢湖店,秋田県仙北市田沢湖生保内街道ノ上７１−１,39.7004286,140.7283452,秋田県,,
ツルハドラッグ,ツルハドラッグ 男鹿店,秋田県男鹿市脇本脇本石館１６,39.9094754,139.9070336,秋田県,,
ツルハドラッグ,ツルハドラッグ 男鹿払戸店,秋田県男鹿市払戸大堤１２７番1,39.92999349999999,139.9363222,秋田県,,
ツルハドラッグ,ツルハドラッグ 男鹿船川店,秋田県男鹿市船川港比詰大巻１４４−１,39.9017684,139.8624824,秋田県,,
ツルハドラッグ,ツルハドラッグ 秋田中通店,秋田県秋田市中通２丁目１−４６,39.716523,140.122862,秋田県,,
ツルハドラッグ,ツルハドラッグ 秋田中野店,秋田県秋田市下新城中野琵琶沼431番2,39.7976309,140.0608476,秋田県,,
ツルハドラッグ,ツルハドラッグ 秋田中野店,秋田県秋田市字琵琶沼431番2,39.7976309,140.0608476,秋田県,,
ツルハドラッグ,ツルハドラッグ 秋田仁井田店,秋田県秋田市仁井田新田２丁目５−１６,39.6788306,140.1255576,秋田県,,
ツルハドラッグ,ツルハドラッグ 秋田八橋店,秋田県秋田市八橋新川向８−３０,39.7284601,140.1040747,秋田県,,
ツルハドラッグ,ツルハドラッグ 秋田土崎店,秋田県秋田市土崎港北７丁目２−２４,39.7670172,140.069402,秋田県,,
ツルハドラッグ,ツルハドラッグ 秋田土崎店,秋田県秋田市土崎港北七丁目2番24号,39.76701718142139,140.06940197763,秋田県,,
ツルハドラッグ,ツルハドラッグ 秋田寺内店,秋田県秋田市寺内油田１丁目４−１０,39.7322208,140.0911373,秋田県,,
ツルハドラッグ,ツルハドラッグ 秋田将軍野店,秋田県秋田市将軍野東３丁目６−４１,39.7589967,140.0878094,秋田県,,
ツルハドラッグ,ツルハドラッグ 秋田将軍野店,秋田県秋田市将軍野東三丁目6番41号,39.75899671440041,140.08780940589884,秋田県,,
ツルハドラッグ,ツルハドラッグ 秋田山王店,秋田県秋田市山王５丁目７−１６,39.7148638,140.1043182,秋田県,,
ツルハドラッグ,ツルハドラッグ 秋田山王店,秋田県秋田市山王五丁目7番16号,39.7148638,140.1043182,秋田県,,
ツルハドラッグ,ツルハドラッグ 秋田川尻店,秋田県秋田市川尻御休町５−２７,39.713507,140.096519,秋田県,,
ツルハドラッグ,ツルハドラッグ 秋田川尻西店,秋田県秋田市川尻大川町２−１５,39.7118976,140.0931931,秋田県,,
ツルハドラッグ,ツルハドラッグ 秋田広面北店,秋田県秋田市広面蓮沼９４−１,39.7258307,140.1505498,秋田県,,
ツルハドラッグ,ツルハドラッグ 秋田広面店,秋田県秋田市広面樋ノ沖９３−１,39.7166839,140.1490168,秋田県,,
ツルハドラッグ,ツルハドラッグ 秋田広面西店,秋田県秋田市広面鍋沼10−１,39.7158555,140.1481809,秋田県,,
ツルハドラッグ,ツルハドラッグ 秋田御所野店,秋田県秋田市御所野元町１丁目１−１７,39.6613108,140.1638474,秋田県,,
ツルハドラッグ,ツルハドラッグ 秋田手形店,秋田県秋田市手形山崎９２−３３,39.72087,140.131667,秋田県,,
ツルハドラッグ,ツルハドラッグ 秋田楢山店,秋田県秋田市楢山川口境４−２１,39.7041989,140.110616,秋田県,,
ツルハドラッグ,ツルハドラッグ 秋田泉北店,秋田県秋田市泉北１丁目１７−３４,39.73411979999999,140.1019578,秋田県,,
ツルハドラッグ,ツルハドラッグ 秋田泉北店,秋田県秋田市1丁目17番34号,39.73411982943502,140.1019577783264,秋田県,,
ツルハドラッグ,ツルハドラッグ 秋田泉南店,秋田県秋田市泉南３丁目２３−２４,39.7291506,140.1146065,秋田県,,
ツルハドラッグ,ツルハドラッグ 秋田牛島店,秋田県秋田市仁井田二ツ屋１丁目４−５５,39.6939332,140.1224318,秋田県,,
ツルハドラッグ,ツルハドラッグ 米内沢店,秋田県北秋田市米内沢東川向５,40.1250302,140.3696093,秋田県,,
ツルハドラッグ,ツルハドラッグ 美郷天神堂店,秋田県仙北郡美郷町天神堂赤城１６７−１,39.41448949999999,140.5510383,秋田県,,
ツルハドラッグ,ツルハドラッグ 美郷店,秋田県仙北郡美郷町土崎上宿２４０,39.457258,140.576352,秋田県,,
ツルハドラッグ,ツルハドラッグ 羽後店,秋田県雄勝郡羽後町南西馬音内２１３,39.1939254,140.4100041,秋田県,,
ツルハドラッグ,ツルハドラッグ 能代二ツ井店,秋田県能代市二ツ井町中坪１２,40.2080957,140.2332889,秋田県,,
ツルハドラッグ,ツルハドラッグ 能代北店,秋田県能代市落合上前田１６１161番地,40.227235,140.024525,秋田県,,
ツルハドラッグ,ツルハドラッグ 能代店,秋田県能代市寺向７３,40.182435,140.052287,秋田県,,
ツルハドラッグ,ツルハドラッグ 能代花園店,秋田県能代市花園町２６−２６,40.19969220000001,140.0232047,秋田県,,
ツルハドラッグ,ツルハドラッグ 能代長崎店,秋田県能代市長崎９１,40.185453,140.0214876,秋田県,,
ツルハドラッグ,ツルハドラッグ 若竹町店,秋田県大仙市若竹町３３−１１,39.4688205,140.4700547,秋田県,,
ツルハドラッグ,ツルハドラッグ 茨島店,秋田県秋田市茨島４丁目３−２１,39.6957026,140.0996603,秋田県,,
ツルハドラッグ,ツルハドラッグ 角館店,秋田県仙北市角館町上菅沢449番地1,39.5935805,140.5758536,秋田県,,
ツルハドラッグ,ツルハドラッグ 象潟北店,秋田県にかほ市象潟町大門先６−３,39.219295,139.9019257,秋田県,,
ツルハドラッグ,ツルハドラッグ 象潟店,秋田県にかほ市象潟町武道島１４９−２,39.2058069,139.9043374,秋田県,,
ツルハドラッグ,ツルハドラッグ 雄物川店,秋田県横手市雄物川町沼館沼館４５６−１,39.2949952,140.4308419,秋田県,,
ツルハドラッグ,ツルハドラッグ 鷹巣店,秋田県北秋田市栄中綱60番地,40.23047510000001,140.3765901,秋田県,,
ツルハドラッグ,ツルハドラッグ 鹿角中央店,秋田県鹿角市花輪下中島８２−１,40.189823,140.787506,秋田県,,
ツルハドラッグ,ツルハドラッグ 鹿角店,秋田県鹿角市花輪下タ町２０２,40.2009577,140.7933308,秋田県,,
ハッピードラッグ,ハッピー・ドラッグ 北秋田鷹巣店,秋田県北秋田市米代町５−１４,40.2231203,140.3676076,秋田県,,
ハッピードラッグ,ハッピー・ドラッグ 大館比内店,秋田県大館市比内町扇田伊勢堂岱１８３−１,40.226138,140.5874095,秋田県,,
ハッピードラッグ,ハッピー・ドラッグ 大館片山店,秋田県大館市片山町２丁目25−６,40.2736974,140.5423534,秋田県,,
ハッピードラッグ,ハッピー・ドラッグ 由利本荘石脇店,秋田県由利本荘市石脇田尻野２２−１３,39.395651,140.0305499,秋田県,,
ハッピードラッグ,ハッピー・ドラッグ 秋田保戸野店,秋田県秋田市保戸野原の町１５−８,39.7285255,140.1153003,秋田県,,
ハッピードラッグ,ハッピー・ドラッグ 秋田土崎東店,秋田県秋田市土崎港東３丁目２−２６,39.7574339,140.0769953,秋田県,,
ハッピードラッグ,ハッピー・ドラッグ 秋田小坂店,秋田県鹿角郡小坂町小坂五十刈１０−４,40.3241713,140.7423668,秋田県,,
ハッピードラッグ,ハッピー・ドラッグ 秋田新屋店,秋田県秋田市新屋鳥木町３−２,39.67582549999999,140.0893124,秋田県,,
ハッピードラッグ,ハッピー・ドラッグ 能代北店,秋田県能代市落合上前田１６９,40.2257964,140.0261318,秋田県,,
ハッピードラッグ,ハッピー・ドラッグ 能代南店,秋田県能代市東大瀬５１−３,40.1907733,140.0373196,秋田県,,
ハッピードラッグ,ハッピー・ドラッグ 鹿角毛馬内店,秋田県鹿角市十和田毛馬内中陣場１１１−１,40.26199340000001,140.7709407,秋田県,,
ハッピードラッグ,ハッピー・ドラッグ 鹿角花輪店,秋田県鹿角市花輪上花輪２３７,40.1859534,140.7879305,秋田県,,
マツモトキヨシ,ドラッグストア マツモトキヨシ メルシティ潟上店,秋田県潟上市飯田川飯塚上堤敷６９−１,39.9036311,140.0838938,秋田県,,
マツモトキヨシ,薬 マツモトキヨシ イオンモール秋田店,秋田県秋田市御所野地蔵田１丁目１−１,39.6635815,140.1614645,秋田県,,
マツモトキヨシ,薬 マツモトキヨシ 秋田駅ビルALS店,秋田県秋田市中通７丁目２−１,39.7176956,140.1287829,秋田県,,
不明,ヘルスドラッグ須藤 マックスバリュ にかほ店,秋田県にかほ市平沢天ケ町８２,39.2885095,139.9728536,秋田県,,
不明,ベストドラッグ井川店,秋田県南秋田郡井川町北川尻新坂９０−１,39.9166207,140.0973573,秋田県,,
不明,㈲ヘルスドラッグ須藤,秋田県にかほ市平沢清水５０−１０,39.289851,139.962293,秋田県,,
不明,五城目中央ドラッグ,秋田県南秋田郡五城目町下タ町１９３,39.9460913,140.1205537,秋田県,,
薬王堂,薬王堂 にかほ平沢店,秋田県にかほ市平沢館ケ森１−８,39.2847468,139.969476,秋田県,,
薬王堂,薬王堂 にかほ象潟店,秋田県にかほ市象潟町沖ノ田１−１,39.2049373,139.9048332,秋田県,,
薬王堂,薬王堂 三種八竜店,秋田県山本郡三種町浜田東浜田３３０,40.1007673,140.0024556,秋田県,,
薬王堂,薬王堂 三種森岳店,秋田県山本郡三種町森岳岩瀬２２０−１,40.1003474,140.0798077,秋田県,,
薬王堂,薬王堂 中仙店,秋田県大仙市北長野茶畑１１７,39.5465231,140.5443079,秋田県,,
薬王堂,薬王堂 北秋田鷹巣店,秋田県北秋田市鷹巣西中岱４６−１,40.2223567,140.3603026,秋田県,,
薬王堂,薬王堂 十文字梨木店,秋田県横手市十文字町梨木村北７３−１,39.2363485,140.5301557,秋田県,,
薬王堂,薬王堂 大仙太田店,秋田県大仙市太田町横沢相野４２０,39.5063135,140.5955316,秋田県,,
薬王堂,薬王堂 大仙神岡店,秋田県大仙市神宮寺大浦前３０−１,39.4987201,140.4158776,秋田県,,
薬王堂,薬王堂 大仙高梨店,秋田県大仙市高梨金堀２６７−１,39.46027429999999,140.5078907,秋田県,,
薬王堂,薬王堂 大曲佐野町店,秋田県大仙市佐野町８−１６,39.469629,140.4698115,秋田県,,
薬王堂,薬王堂 大曲四ツ屋店,秋田県大仙市高関上郷不動堂１６７−１,39.487365,140.493739,秋田県,,
薬王堂,薬王堂 大曲福田店,秋田県大仙市福田町２２−２１−４,39.46887,140.481075,秋田県,,
薬王堂,薬王堂 大曲飯田店,秋田県大仙市飯田屋舗通７５−１,39.4459051,140.4811149,秋田県,,
薬王堂,薬王堂 大館SC店,秋田県大館市御成町４丁目３−１３,40.2801525,140.5610864,秋田県,,
薬王堂,薬王堂 大館店,秋田県大館市観音堂４２０,40.283623,140.574592,秋田県,,
薬王堂,薬王堂 大館比内店,秋田県大館市比内町扇田長岡下４４,40.2198651,140.5871084,秋田県,,
薬王堂,薬王堂 大館水門町店,秋田県大館市水門町６−２,40.2753512,140.5538297,秋田県,,
薬王堂,薬王堂 大館田代店,秋田県大館市岩瀬羽貫谷地山下９３−９,40.2800141,140.458475,秋田県,,
薬王堂,薬王堂 横手八幡店,秋田県横手市八幡上長田２５,39.3275546,140.5510349,秋田県,,
薬王堂,薬王堂 横手増田店,秋田県横手市増田町増田月山西２９−１,39.2007078,140.5402114,秋田県,,
薬王堂,薬王堂 横手大雄店,秋田県横手市大雄精兵村６−１,39.3364552,140.4854891,秋田県,,
薬王堂,薬王堂 横手平鹿店,秋田県横手市平鹿町浅舞福田２２０−１,39.2682499,140.4899197,秋田県,,
薬王堂,薬王堂 横手幸町店,秋田県横手市幸町３−５８,39.323673,140.565062,秋田県,,
薬王堂,薬王堂 横手店,秋田県横手市条里２丁目４−１２,39.31312399999999,140.5542815,秋田県,,
薬王堂,薬王堂 横手赤坂店,秋田県横手市赤坂大道添３８,39.303034,140.5402459,秋田県,,
薬王堂,薬王堂 横手雄物川店,秋田県横手市雄物川町造山字広田表１５−１,39.275446,140.4293363,秋田県,,
薬王堂,薬王堂 湯沢倉内店,秋田県湯沢市倉内川原田１７−２,39.1745098,140.4726499,秋田県,,
薬王堂,薬王堂 湯沢古館店,秋田県湯沢市古館町７−４２,39.1718371,140.4905932,秋田県,,
薬王堂,薬王堂 湯沢田町店,秋田県湯沢市田町２丁目３−３８,39.1587277,140.4896948,秋田県,,
薬王堂,薬王堂 湯沢稲川店,秋田県湯沢市川連町大舘疣橋５７,39.1474621,140.5728113,秋田県,,
薬王堂,薬王堂 湯沢雄勝店,秋田県湯沢市小野新田81番,39.0613557,140.4574103,秋田県,,
薬王堂,薬王堂 潟上天王店,秋田県潟上市天王二田２０８−１,39.8812019,139.9961401,秋田県,,
薬王堂,薬王堂 潟上追分店,秋田県潟上市天王長沼６４−１６８,39.818144,140.0495688,秋田県,,
薬王堂,薬王堂 由利本荘大内店,秋田県由利本荘市岩谷町西越９４−３,39.4434464,140.0856296,秋田県,,
薬王堂,薬王堂 由利本荘矢島店,秋田県由利本荘市矢島町城内築舘１５９−１,39.23516559999999,140.1394169,秋田県,,
薬王堂,薬王堂 由利本荘石脇店,秋田県由利本荘市石脇田中９４−２,39.3906378,140.0256755,秋田県,,
薬王堂,薬王堂 由利本荘荒町店,秋田県由利本荘市荒町真城２０−１,39.3571327,140.0799062,秋田県,,
薬王堂,薬王堂 由利本荘薬師堂店,秋田県由利本荘市薬師堂谷地４５,39.371034,140.051576,秋田県,,
薬王堂,薬王堂 由利本荘裏尾崎店,秋田県由利本荘市裏尾崎町７,39.3875607,140.0488617,秋田県,,
薬王堂,薬王堂 由利本荘西目店,秋田県由利本荘市西目町沼田新道下２−５３８,39.3464016,140.0134184,秋田県,,
薬王堂,薬王堂 男鹿SC店,秋田県男鹿市船越内子２１８−１,39.9022361,139.936026,秋田県,,
薬王堂,薬王堂 男鹿船川店,秋田県男鹿市船川港船川海岸通り一号８−３,39.8834264,139.8501227,秋田県,,
薬王堂,薬王堂 秋田五城目店,秋田県南秋田郡五城目町七倉南秋田郡五城目町七倉１６番5,39.94434,140.1102764,秋田県,,
薬王堂,薬王堂 秋田井川店,秋田県南秋田郡井川町浜井川荒田堰１６２,39.90946400000001,140.077041,秋田県,,
薬王堂,薬王堂 秋田八峰店,秋田県山本郡八峰町八森湯の尻１７−１,40.3366787,140.0301148,秋田県,,
薬王堂,薬王堂 秋田八郎潟店,秋田県南秋田郡八郎潟町昼根下１０１−１,39.9446811,140.082481,秋田県,,
薬王堂,薬王堂 秋田六郷店,秋田県仙北郡美郷町野中中明子１０６番,39.4245284,140.5555231,秋田県,,
薬王堂,薬王堂 秋田十文字店,秋田県横手市十文字町佐賀会下沖田６１−５,39.2182206,140.5186268,秋田県,,
薬王堂,薬王堂 秋田土崎港店,秋田県秋田市土崎港西５丁目９−２４,39.7638038,140.0666758,秋田県,,
薬王堂,薬王堂 秋田外旭川店,秋田県秋田市外旭川小谷地６１,39.7531914,140.0955577,秋田県,,
薬王堂,薬王堂 秋田天徳寺通店,秋田県秋田市泉三嶽根７−２３,39.7369068,140.1205608,秋田県,,
薬王堂,薬王堂 秋田東通店,秋田県秋田市東通７丁目７−１６,39.7116436,140.137729,秋田県,,
薬王堂,薬王堂 秋田羽後店,秋田県雄勝郡羽後町南西馬音内２０１,39.195128,140.4114682,秋田県,,
薬王堂,薬王堂 秋田茨島店,秋田県秋田市卸町５丁目６−１,39.6939868,140.105288,秋田県,,
薬王堂,薬王堂 秋田角館店,秋田県仙北市角館町小勝田中川原１３２,39.594188,140.5538856,秋田県,,
薬王堂,薬王堂 能代二ツ井店,秋田県能代市二ツ井町道上中坪３２−１,40.2056623,140.2307312,秋田県,,
薬王堂,薬王堂 能代出戸店,秋田県能代市出戸後６−２３,40.197328,140.0250175,秋田県,,
薬王堂,薬王堂 能代寺向店,秋田県能代市寺向９３−１,40.1842719,140.0519915,秋田県,,
薬王堂,薬王堂 能代落合店,秋田県能代市落合下前田１９３,40.2242462,140.0251226,秋田県,,
薬王堂,薬王堂 角館下菅沢店,秋田県仙北市角館町下菅沢９８,39.5877305,140.5729259,秋田県,,
薬王堂,薬王堂 鹿角花輪高井田店,秋田県鹿角市花輪高井田59−３３,40.18052369999999,140.7865833,秋田県,,
薬王堂,薬王堂北秋田米内沢店,秋田県北秋田市米内沢諏訪岱１４６−８,40.1193364,140.3794116,秋田県,,
薬王堂,薬王堂大曲川目店,秋田県大仙市飯田大道端１７４−２,39.4346882,140.4842534,秋田県,,
薬王堂,薬王堂潟上飯田川店,秋田県潟上市飯田川和田妹川千刈８−３,39.8864738,140.0732364,秋田県,,
薬王堂,薬王堂鹿角花輪店,秋田県鹿角市花輪鉄砲１８−１,40.2232382,140.787288,秋田県,,
その他,ひろのドラッグ,山形県新庄市下金沢町５−３２,38.7544564,140.3029615,山形県,ChIJAad9RzStjl8RcBSI6-9zFi8,google_places
その他,タカノクスリヤ,山形県米沢市中央１丁目３−１４,37.9122813,140.1115479,山形県,ChIJ6ffv3j7wil8R7-7ZwQU1cn4,google_places
その他,株式会社ヤマザワ薬品ドラッグ 新庄店,山形県新庄市金沢字大道上２０３３−４,38.753267,140.309725,山形県,ChIJqwXmsMpSiV8RvtGVJY2Pug8,google_places
ウエルシア,ウエルシア 山形東青田店,山形県山形市東青田４丁目５−２２ウエルシア山形東青田店,38.2220324,140.3343464,山形県,ChIJx4q5ELS1i18REzXNUvxFvO4,google_places
ウエルシア,ウエルシア上山弁天店,山形県上山市弁天１丁目１１−３６,38.1678429,140.292572,山形県,ChIJ_QLgZ6azi18ROskWuuG6VLM,google_places
ウエルシア,ウエルシア南陽三間通店,山形県南陽市三間通２８−１,38.04978,140.1566243,山形県,ChIJn63qlzxVil8RJLmE1CbYhvI,google_places
ウエルシア,ウエルシア寒河江南町店,山形県寒河江市南町３丁目２−８,38.3737017,140.2828821,山形県,ChIJPf9nkbXDi18RGTArRQkpF8k,google_places
ウエルシア,ウエルシア寒河江栄町店,山形県寒河江市栄町９−３６,38.3681816,140.2813412,山形県,ChIJAbpIeavGi18RgVUwsHF7El0,google_places
ウエルシア,ウエルシア山形南館店,山形県山形市南館３丁目１−３３,38.2362199,140.3141814,山形県,ChIJ7y8E2ce3i18R7itkHgL_hfM,google_places
ウエルシア,ウエルシア山形天童中店,山形県天童市天童中３丁目１−１５,38.3556489,140.380798,山形県,ChIJgcJNEKDFi18RBfMsBjYwyhU,google_places
ウエルシア,ウエルシア山形東青田店,山形県山形市東青田４丁目５−２２,38.2220313,140.3343278,山形県,ChIJ5RMlYna1i18ROGdg-i0asPk,google_places
ウエルシア,ウエルシア山形桧町店,山形県山形市桧町３丁目８−２７,38.2787375,140.3312337,山形県,ChIJVcueEcvJi18R6T9mJ2Jr2Yw,google_places
ウエルシア,ウエルシア山形河北店,山形県西村山郡河北町谷地中央４丁目8−６,38.416257,140.309089,山形県,ChIJpxwH_x7Di18RReuIat-r8hc,google_places
ウエルシア,ウエルシア山形篭田店,山形県山形市篭田１丁目１４−２５,38.2398457,140.3198952,山形県,ChIJbYRvNHa2i18RbrQXbO7XGSY,google_places
ウエルシア,ウエルシア山形花楯店,山形県山形市花楯２丁目２−２６,38.2715745,140.3493033,山形県,ChIJU_BFbb_Ji18R9RweglvqzZU,google_places
ウエルシア,ウエルシア新庄金沢店,山形県新庄市金沢字中関屋815番地の8,38.7667103,140.3076526,山形県,ChIJK-bIp0-tjl8RT9uQ2ox1Wl8,google_places
ウエルシア,ウエルシア東根中央店,山形県東根市中央２丁目１−２５,38.4308506,140.3896063,山形県,ChIJK-VoEovci18RqnXcXERtwYY,google_places
ウエルシア,ウエルシア東根温泉町店,山形県東根市温泉町１丁目２−１７,38.45734410000001,140.387085,山形県,ChIJWao4vZXdi18RKFpNVCV8UEk,google_places
ウエルシア,ウエルシア東根神町店,山形県東根市神町北２丁目１３−１８,38.4130287,140.3835624,山形県,ChIJCfeAo-jdi18R2fQsO3irOFk,google_places
ウエルシア,ウエルシア米沢中央１丁目店,山形県米沢市中央１丁目２−１５,37.9122864,140.1127195,山形県,ChIJUYXVdX7xil8RBxyBiLWgyL0,google_places
ウエルシア,ウエルシア米沢本町店,山形県米沢市本町２丁目４−３７,37.9032072,140.1087397,山形県,ChIJqyo5-y3xil8RgD3CIM6V57w,google_places
ウエルシア,ウエルシア酒田ゆたか店,山形県酒田市ゆたか１丁目１５−２０,38.9340069,139.8445817,山形県,ChIJvYMDGyKfjl8ROmVoWsleRrM,google_places
ウエルシア,ウエルシア酒田亀ヶ崎店,山形県酒田市亀ケ崎３丁目１９−１０,38.9011166,139.8490024,山形県,ChIJxVvwibSfjl8R3qYpwVvWe0o,google_places
ウエルシア,ウエルシア長井本町店,山形県長井市本町２丁目４−３６,38.1039383,140.038538,山形県,ChIJyyeak2Ori18R7C-We7fNj9g,google_places
ウエルシア,ウエルシア長井緑町店,山形県長井市緑町１１−１４,38.1183167,140.0389404,山形県,ChIJnT8153Kri18R7Gh7HrqCX3k,google_places
ウエルシア,ウエルシア鶴岡日出店,山形県鶴岡市日出１丁目２８−１３,38.7246631,139.8427612,山形県,ChIJEeRAALsajF8RQY6NsYhsrsQ,google_places
ウエルシア,ウエルシア鶴岡砂田町店,山形県鶴岡市砂田町６−４１,38.7339548,139.804031,山形県,ChIJjcSl_n8QjF8RW48mYxqv-yY,google_places
カワチ薬品,カワチ薬品 天童店,山形県天童市北目３丁目７−２０,38.346356,140.376423,山形県,ChIJP6d7_5DFi18RbO4e5xZgl7w,google_places
カワチ薬品,カワチ薬品 寒河江店,山形県寒河江市寒河江内の袋６,38.3765843,140.2609998,山形県,ChIJ8Z3aj1zBi18RRJcy955_dv0,google_places
カワチ薬品,カワチ薬品 山形北店,山形県山形市嶋南２丁目１４−６,38.282627,140.3205878,山形県,ChIJX5DtEhbJi18RqZawy_4q3aA,google_places
カワチ薬品,カワチ薬品 山形南店,山形県山形市若宮２丁目１７−２,38.2263254,140.3088746,山形県,ChIJodOUbi60i18REP_aZx9BcWI,google_places
カワチ薬品,カワチ薬品 新庄駅東店,山形県新庄市金沢１１２９−１,38.7633303,140.3096369,山形県,ChIJKc5SZkWtjl8Rag5Li3kY2Gw,google_places
カワチ薬品,カワチ薬品 東根店,山形県東根市中央南２丁目１−２７,38.4266161,140.3896182,山形県,ChIJo6ngXo7ci18RUVFfKeNKbQI,google_places
カワチ薬品,カワチ薬品 米沢北店,山形県米沢市中田町１９９７−１,37.9450291,140.1191874,山形県,ChIJwdR-vnH6il8RkZ4nsp7UJ4A,google_places
カワチ薬品,カワチ薬品 米沢成島店,山形県米沢市成島町２丁目１−２７,37.9226181,140.088052,山形県,ChIJx3pYz47xil8RzAHCkc438JI,google_places
カワチ薬品,カワチ薬品 米沢駅前店,山形県米沢市東３丁目４−１,37.906937,140.127442,山形県,ChIJSygWaErwil8RhpljlJxPNME,google_places
カワチ薬品,カワチ薬品 酒田東両羽店,山形県酒田市東両羽町１１７−４,38.8952666,139.8472193,山形県,ChIJvzbsmJCfjl8RFX_3Ew6624A,google_places
カワチ薬品,カワチ薬品 長井店,山形県長井市小出３８４８−１,38.091994,140.038356,山形県,ChIJuWmpDIYAi18Rgnrt_mqLmK0,google_places
カワチ薬品,カワチ薬品 高畠店,山形県東置賜郡高畠町高畠１５５８,38.0060545,140.1913187,山形県,ChIJryOgorj5il8R-rfVcp_HbtM,google_places
カワチ薬品,カワチ薬品 鶴岡インター店,山形県鶴岡市美咲町３４−２６,38.7339867,139.7979887,山形県,ChIJWVwz3oAQjF8RfBOLPIZPOw8,google_places
カワチ薬品,カワチ薬品 鶴岡宝田店,山形県鶴岡市宝田３丁目１−５,38.7469095,139.8433969,山形県,ChIJcfR5oLcbjF8RbowJ426unco,google_places
カワチ薬品,カワチ薬品 鶴岡東店,山形県鶴岡市伊勢原町４−４７,38.7183214,139.84776,山形県,ChIJdwiylq0ajF8Rx4dWFD5hBik,google_places
ココカラファイン,ココカラファイン 小国店,山形県西置賜郡小国町小国小坂町３丁目５８,38.0614518,139.7421404,山形県,ChIJVY1CzGYai18RPaV98CT-g18,google_places
サンドラッグ,サンドラッグ さくらんぼ東根駅前店,山形県東根市さくらんぼ駅前２丁目１６−２５,38.428831,140.3864941,山形県,ChIJSbrMjufdi18RHWIL8HSnbf0,google_places
サンドラッグ,サンドラッグ 上山店,山形県上山市仙石梅ノ木７７８−１,38.1521219,140.2890019,山形県,ChIJQ5ww7DFNil8RKjEYdVf76Mo,google_places
サンドラッグ,サンドラッグ 南二番町店,山形県山形市南二番町５−５,38.2297714,140.3280785,山形県,ChIJ00fKDs-1i18RkAnU_yvSbwA,google_places
サンドラッグ,サンドラッグ 天童老野森店,山形県天童市東久野本１丁目６−４０,38.3680134,140.3808264,山形県,ChIJs6DDQRvFi18RpGJKCKGWHmw,google_places
サンドラッグ,サンドラッグ 山形北町,山形県山形市北町４丁目９−１３,38.2714187,140.3314877,山形県,ChIJ0_6UNarJi18RPv-WEDQ2zCU,google_places
サンドラッグ,サンドラッグ 山形江俣店,山形県山形市江俣２丁目１−２９,38.277731,140.3240752,山形県,ChIJ1XP6HQDJi18RIO53lt2BqfQ,google_places
サンドラッグ,サンドラッグ 米沢駅前店,山形県米沢市駅前３丁目１−８８,37.9121659,140.1251435,山形県,ChIJ1QGjBADxil8RSXv8T0EqQE4,google_places
サンドラッグ,サンドラッグ酒田曙町店,山形県酒田市曙町１丁目１−１,38.9211807,139.8593483,山形県,ChIJkeArdoifjl8Rrtv43oaKfr8,google_places
サンドラッグ,サンドラッグ鶴岡エスモール店,山形県鶴岡市錦町２−２１,38.7387778,139.8317778,山形県,ChIJY1b3XwAbjF8R-1Q1p0CzvtU,google_places
サンドラッグ,サンドラッグ鶴岡東新斎店,山形県鶴岡市東新斎町７−７７,38.7353306,139.8183766,山形県,ChIJQeNwIQAbjF8RV1c6c_BMD5g,google_places
セイムス,ドラッグセイムス 米沢春日店,山形県米沢市春日５丁目２−３０4,37.9315495,140.115211,山形県,ChIJxVa2bMrxil8R6l9eQqnfTOc,google_places
セイムス,ドラッグセイムス 米沢本町店,山形県米沢市本町２丁目７−２７,37.901364,140.107711,山形県,ChIJyTZIcxrxil8RBe-nxcCytMs,google_places
セイムス,ドラッグセイムス 米沢金池店,山形県米沢市金池２丁目６−１３,37.9191182,140.1143844,山形県,ChIJBdVyhmnwil8RSP4cRaLqzrI,google_places
セイムス,ドラッグセイムス 遊佐舞鶴店,山形県飽海郡遊佐町遊佐舞鶴２２８−１,39.0143409,139.9072355,山形県,ChIJyY5vF3eQjl8RdqfxbZZ_Ndw,google_places
セイムス,ドラッグセイムス 酒田こがね店,山形県酒田市こがね町２丁目２６−１０,38.8966632,139.8556256,山形県,ChIJnRvR2Lmfjl8RfSJcIlzsgmo,google_places
セイムス,ドラッグセイムス 酒田北千日店,山形県酒田市北千日町１０−２,38.931365,139.8394924,山形県,ChIJ59ck9YSejl8RadXO0Tc-bYU,google_places
セイムス,ドラッグセイムス 鶴岡ミーナ店,山形県鶴岡市千石町３−３２A棟1F,38.7177855,139.8303046,山形県,ChIJoQ-1EwgQjF8RwgURqbmz_fY,google_places
セイムス,ドラッグセイムス 鶴岡上畑店,山形県鶴岡市上畑町３−３７,38.7362205,139.830027,山形県,ChIJJYIzcZIajF8RbZaWS64QIAY,google_places
セイムス,ドラッグセイムス 鶴岡大山店,山形県鶴岡市友江川向２９６−３,38.7485797,139.7798426,山形県,ChIJ63zt5AkajF8RpXZ08eQrlxc,google_places
セイムス,ドラッグセイムス 鶴岡宝田店,山形県鶴岡市宝田１丁目９−３１,38.7431828,139.8306325,山形県,ChIJeZi2s_UajF8RPCb6SsRQ8mI,google_places
セイムス,ドラッグセイムス 鶴岡桜新町店,山形県鶴岡市桜新町２−６０,38.7194703,139.8411491,山形県,ChIJ84zeHq8ajF8RLIH7QrB9JdU,google_places
セイムス,ドラッグセイムス 鶴岡櫛引店,山形県鶴岡市丸岡字町の内３０９−６,38.6779306,139.8369371,山形県,ChIJrav6BawPjF8R1FFCn2ixpos,google_places
ツルハドラッグ,ツルハドラッグ,山形県山形市東青田４丁目１−３４ツルハドラッグ,38.2225177,140.3340765,山形県,ChIJuTDgI7S1i18RgFQnfQgwa98,google_places
ツルハドラッグ,ツルハドラッグ みずほ店,山形県酒田市亀ケ崎３丁目９−１１,38.9028408,139.8498235,山形県,ChIJa3ryQLOfjl8Rt5vomv0llck,google_places
ツルハドラッグ,ツルハドラッグ 三川南店,山形県東田川郡三川町横山４０,38.775326,139.851761,山形県,ChIJT3NvHTIbjF8Ru9-cnCQZiMU,google_places
ツルハドラッグ,ツルハドラッグ 三川店,山形県東田川郡三川町猪子大堰端３５１−１,38.818493,139.834422,山形県,ChIJg5keYt4ejF8RhEfLh6UoGvE,google_places
ツルハドラッグ,ツルハドラッグ 上山四ツ谷店,山形県上山市四ツ谷１丁目１−５,38.1657455,140.282495,山形県,ChIJF4nOgiCzi18ReYL-CYIobZQ,google_places
ツルハドラッグ,ツルハドラッグ 上山店,山形県上山市長清水１丁目２−１６,38.1466644,140.277379,山形県,ChIJTZsTvUpNil8RjnHptjr2DQA,google_places
ツルハドラッグ,ツルハドラッグ 上山東店,山形県上山市仙石字藤沼７６３−１,38.150497,140.290434,山形県,ChIJpw6Xgy1Nil8R1UAYMMcN4XA,google_places
ツルハドラッグ,ツルハドラッグ 中山あおば店,山形県東村山郡中山町あおば22−６,38.337686,140.2810826,山形県,ChIJH5rtV7nHi18RPKKoF4vnHcg,google_places
ツルハドラッグ,ツルハドラッグ 五十鈴店,山形県山形市五十鈴２丁目２−３０,38.2750146,140.3539236,山形県,ChIJxaSadrzJi18RlTSGLhHwV_I,google_places
ツルハドラッグ,ツルハドラッグ 余目店,山形県東田川郡庄内町余目滑石５９−１,38.8445829,139.8971839,山形県,ChIJlUVntysejF8R_LAZGaF5vPM,google_places
ツルハドラッグ,ツルハドラッグ 北山形駅前店,山形県山形市北山形１丁目３−４２,38.2635431,140.3317802,山形県,ChIJs54gVQDJi18RGtMLWNhKX6I,google_places
ツルハドラッグ,ツルハドラッグ 南陽三間通店,山形県南陽市三間通字成梨1259番地1,38.052776,140.152572,山形県,ChIJH8zBSphVil8RwtVusu_i_6Q,google_places
ツルハドラッグ,ツルハドラッグ 南陽店,山形県南陽市宮内字八幡田一５９１−１,38.0647388,140.1379414,山形県,ChIJn5RduRJVil8RvYsTaemUBj8,google_places
ツルハドラッグ,ツルハドラッグ 南陽東店,山形県南陽市赤湯字川尻３０５７−１,38.0477269,140.1731158,山形県,ChIJAws6O8FVil8RE8TyFialRro,google_places
ツルハドラッグ,ツルハドラッグ 天童久野本店,山形県天童市北久野本１丁目７−２４,38.374108,140.37693,山形県,ChIJQWn5qU3Fi18RdeQbocETyV0,google_places
ツルハドラッグ,ツルハドラッグ 天童店,山形県天童市鍬ノ町１丁目１−１７,38.3570611,140.3841668,山形県,ChIJl6vN4XTFi18Rv-KsJNGEKtI,google_places
ツルハドラッグ,ツルハドラッグ 天童東本町店,山形県天童市東本町１丁目３10号,38.3611012,140.373534,山形県,ChIJk7pEBgjFi18R3po-i54H97g,google_places
ツルハドラッグ,ツルハドラッグ 天童糠塚店,山形県天童市糠塚１丁目１−３,38.3655024,140.377621,山形県,ChIJOTMg0EDFi18Rnvuiklmqk_U,google_places
ツルハドラッグ,ツルハドラッグ 天童芳賀店,山形県天童市東芳賀２丁目８−２５,38.33670900000001,140.3678603,山形県,ChIJfyO_R_HFi18RL2tZ2rcWyMk,google_places
ツルハドラッグ,ツルハドラッグ 天童芳賀西店,山形県天童市北目３丁目１−２１２７芳賀27街区1,38.3460502,140.3622574,山形県,ChIJQXkHtZbFi18R00sk-7tc_U0,google_places
ツルハドラッグ,ツルハドラッグ 寒河江中央店,山形県寒河江市中央２丁目３−２３番２号,38.3826557,140.2784519,山形県,ChIJ9_1PLOTDi18RCQrGcZtpipM,google_places
ツルハドラッグ,ツルハドラッグ 寒河江中郷店,山形県寒河江市中郷字本屋敷２７６０−１,38.3763283,140.2207198,山形県,ChIJh-EOcgXBi18RRl2L9w0dv70,google_places
ツルハドラッグ,ツルハドラッグ 寒河江西店,山形県寒河江市寒河江塩水71外,38.3771694,140.2614613,山形県,ChIJPQIkYVzBi18R_IVH9Ap2Iiw,google_places
ツルハドラッグ,ツルハドラッグ 小国店,山形県西置賜郡小国町緑町４丁目6番1号,38.0573865,139.7491498,山形県,ChIJ34eNA1wai18R2CGG8BwZSJk,google_places
ツルハドラッグ,ツルハドラッグ 尾花沢店,山形県尾花沢市上町４丁目１２−１８,38.59842829999999,140.3983481,山形県,ChIJjf5A9_1YiV8RVob3fk8_CvI,google_places
ツルハドラッグ,ツルハドラッグ 尾花沢新町店,山形県尾花沢市新町１丁目６−３０,38.602629,140.4103455,山形県,ChIJl7DvIw9ZiV8Rw_j7lgW-W34,google_places
ツルハドラッグ,ツルハドラッグ 山形南原店,山形県山形市南原町３丁目１−２６,38.2335066,140.3404828,山形県,ChIJl2pA9JO1i18R2GpN3zHI7wc,google_places
ツルハドラッグ,ツルハドラッグ 山形吉原店,山形県山形市吉原２丁目１０−１０,38.22818729999999,140.3126541,山形県,ChIJT2nJHS20i18RYVtfHn08-Ys,google_places
ツルハドラッグ,ツルハドラッグ 山形宮町店,山形県山形市宮町４丁目１４−６,38.2675316,140.3384991,山形県,ChIJkUFNNsPJi18RjwWPBRPkDIY,google_places
ツルハドラッグ,ツルハドラッグ 山形小白川店,山形県山形市あこや町２丁目１４−１１,38.2432645,140.3521947,山形県,ChIJXWDUH_q1i18RvQaUFThwlFM,google_places
ツルハドラッグ,ツルハドラッグ 山形嶋店,山形県山形市嶋北４丁目２−１８,38.286833,140.3171178,山形県,ChIJH62jITnIi18R1ihRHB6jjcU,google_places
ツルハドラッグ,ツルハドラッグ 山形東原店,山形県山形市東原町１丁目１１−１７,38.2489155,140.3480334,山形県,ChIJV61wz_-1i18Rgxo9oeJ4BOw,google_places
ツルハドラッグ,ツルハドラッグ 山形松山店,山形県山形市松山３丁目６−６,38.236598,140.3531,山形県,ChIJ66pik-21i18RmbiSKqF86o0,google_places
ツルハドラッグ,ツルハドラッグ 山形桜田店,山形県山形市桜田東４丁目９−１１,38.2178377,140.3243877,山形県,ChIJ9wIHWkm0i18RDetm1VUPdI0,google_places
ツルハドラッグ,ツルハドラッグ 山形深町店,山形県山形市深町１丁目３−１,38.2358599,140.3158923,山形県,ChIJg_FZLta1i18RCItseyswWWo,google_places
ツルハドラッグ,ツルハドラッグ 山形清住店,山形県山形市清住町３丁目８−３,38.25259,140.311042,山形県,ChIJPTpvRRW2i18RGfgKuw3Fn84,google_places
ツルハドラッグ,ツルハドラッグ 山形瀬波店,山形県山形市瀬波１丁目５−８,38.2789579,140.3094005,山形県,ChIJ____My_Ii18Rx43OmMgpJog,google_places
ツルハドラッグ,ツルハドラッグ 山形緑町店,山形県山形市緑町１丁目７−３,38.2564663,140.3436399,山形県,ChIJe0gdmd7Ji18RdN7kmajnKbU,google_places
ツルハドラッグ,ツルハドラッグ 山形鈴川店,山形県山形市鈴川町３丁目１４−１４19号,38.2699618,140.3575947,山形県,ChIJr1ZJga_Ji18RAVTW19QTeAI,google_places
ツルハドラッグ,ツルハドラッグ 山形鉄砲町店,山形県山形市鉄砲町１丁目１４−９,38.2387013,140.3277694,山形県,ChIJQQJr7961i18R3aVbF_6j1nI,google_places
ツルハドラッグ,ツルハドラッグ 山辺店,山形県東村山郡山辺町緑ケ丘１丁目３番地１５,38.290957,140.2588995,山形県,ChIJVyupkxy4i18RZKxQw_0gqw4,google_places
ツルハドラッグ,ツルハドラッグ 山辺東店,山形県東村山郡山辺町山辺１２５８−２,38.2944406,140.2710337,山形県,ChIJBZC6aS25i18RQugwuhBJ1C4,google_places
ツルハドラッグ,ツルハドラッグ 川西店,山形県東置賜郡川西町上小松字南美女木1216-1,38.0009311,140.0515464,山形県,ChIJ750l-Rf8il8RWg1MgJxOE-U,google_places
ツルハドラッグ,ツルハドラッグ 成沢店,山形県山形市成沢西１丁目６−９,38.2099598,140.3165422,山形県,ChIJUbr5KEO0i18Rqw1BaAydJA8,google_places
ツルハドラッグ,ツルハドラッグ 新庄中央店,山形県新庄市鉄砲町１−３５,38.7592561,140.3012172,山形県,ChIJu6mqAUitjl8RZmTHth69bzo,google_places
ツルハドラッグ,ツルハドラッグ 新庄千門町店,山形県新庄市千門町３−２４,38.7602333,140.2881437,山形県,ChIJV2N7QDytjl8R4l0CyCxrkkg,google_places
ツルハドラッグ,ツルハドラッグ 新庄桧町店,山形県新庄市桧町９−８9番地8,38.7731776,140.2930561,山形県,ChIJM0CTl2-tjl8Rx5MNbX-dGg0,google_places
ツルハドラッグ,ツルハドラッグ 最上店,山形県最上郡最上町向町107番地3,38.7550347,140.5161859,山形県,ChIJrZ9MjCxJiV8RCEHUqXRqPAI,google_places
ツルハドラッグ,ツルハドラッグ 村山店,山形県村山市楯岡新町２丁目１２−１２,38.4764539,140.3894869,山形県,ChIJtZkTLAjei18RNX0zzftH_zU,google_places
ツルハドラッグ,ツルハドラッグ 村山西店,山形県村山市河島字碇１６３番1,38.48225830000001,140.3667101,山形県,ChIJT38H5Fbni18RGl6C7H55xhc,google_places
ツルハドラッグ,ツルハドラッグ 東根中央店,山形県東根市さくらんぼ駅前２丁目１４−１７,38.4282373,140.3884223,山形県,ChIJNfJSOozci18RYSJC1xo-P6c,google_places
ツルハドラッグ,ツルハドラッグ 東根店,山形県東根市温泉町３丁目３−４,38.4597208,140.3858394,山形県,ChIJlYOBNcbdi18RIjjqMXs3tWQ,google_places
ツルハドラッグ,ツルハドラッグ 東根神町店,山形県東根市神町北５丁目３−１,38.414203,140.384562,山形県,ChIJl__EVaDci18RYR4r2VU_-ew,google_places
ツルハドラッグ,ツルハドラッグ 東根神町西店,山形県東根市神町西５丁目２56号,38.40266099999999,140.374317,山形県,ChIJuykvNxDbi18RHSlQWHtZc-A,google_places
ツルハドラッグ,ツルハドラッグ 東根羽入店,山形県東根市羽入東１−４１,38.4085923,140.3622106,山形県,ChIJeah1vYHdi18RKVUxQ0hQd1o,google_places
ツルハドラッグ,ツルハドラッグ 東青田店,山形県山形市東青田４丁目１−３４,38.2225001,140.3340409,山形県,ChIJMcloIbS1i18RhfzABYtNiiE,google_places
ツルハドラッグ,ツルハドラッグ 河北店,山形県西村山郡河北町谷地ひな市３丁目1番地15,38.4304091,140.3213536,山形県,ChIJ7VAUANPCi18RmVNianiAkIQ,google_places
ツルハドラッグ,ツルハドラッグ 白鷹店,山形県西置賜郡白鷹町荒砥乙大字荒砥乙字田中道394,38.1834032,140.1061264,山形県,ChIJRecn0Piui18ROcx2hTeXZBk,google_places
ツルハドラッグ,ツルハドラッグ 真室川店,山形県最上郡真室川町新町138番地1,38.8593112,140.253331,山形県,ChIJb6TxCnmxjl8R6ygwl8lhlzw,google_places
ツルハドラッグ,ツルハドラッグ 米沢北店,山形県米沢市春日４丁目２−７９,37.93100099999999,140.116638,山形県,ChIJ47hH3H3wil8RcrJgXMdD2DU,google_places
ツルハドラッグ,ツルハドラッグ 米沢御廟店,山形県米沢市御廟２丁目３−４６,37.9086207,140.0937437,山形県,ChIJv07azyHwil8RLsHDJzq4BfE,google_places
ツルハドラッグ,ツルハドラッグ 米沢木場店,山形県米沢市木場町５−８,37.9169194,140.0915991,山形県,ChIJQZo6cV3xil8RP6cOCqzcTC8,google_places
ツルハドラッグ,ツルハドラッグ 米沢相生町店,山形県米沢市相生町７−５２,37.9043792,140.1173636,山形県,ChIJSc4f1DPwil8RMNBqC4g98sM,google_places
ツルハドラッグ,ツルハドラッグ 米沢金池店,山形県米沢市金池２丁目５−２７,37.9185588,140.1149374,山形県,ChIJ5T0FKQDxil8RoR2r5j00dek,google_places
ツルハドラッグ,ツルハドラッグ 米沢門東店,山形県米沢市門東町２丁目４−４３,37.9099846,140.1106115,山形県,ChIJOQhC5jvwil8RjznpRFOoHfE,google_places
ツルハドラッグ,ツルハドラッグ 米沢駅前店,山形県米沢市駅前１丁目１−１０３,37.9083551,140.1295366,山形県,ChIJX8VJvCvxil8RbN_8kgT-ZR8,google_places
ツルハドラッグ,ツルハドラッグ 置賜病院前店,山形県東置賜郡川西町西大塚1447番地4,38.04784739999999,140.0587554,山形県,ChIJOQAZtzH-il8RoBHKRkQFKjE,google_places
ツルハドラッグ,ツルハドラッグ 藤島店,山形県鶴岡市藤浪４丁目１１１−１４,38.759859,139.900876,山形県,ChIJ2VoUM2IbjF8ReGndhGV5B54,google_places
ツルハドラッグ,ツルハドラッグ 遊佐店,山形県飽海郡遊佐町遊佐新ラ田4−１０,39.0105242,139.901115,山形県,ChIJq6qq2oKajl8RtbDw9NWn5Jg,google_places
ツルハドラッグ,ツルハドラッグ 酒田上安町店,山形県酒田市上安町３丁目７−１７7番地17,38.9298332,139.866593,山形県,ChIJb8vpEp6fjl8Rk7ppqKBk-pQ,google_places
ツルハドラッグ,ツルハドラッグ 酒田光ケ丘店,山形県酒田市光ケ丘２丁目２33号,38.9263213,139.8304505,山形県,ChIJJZBVB32ejl8RGPLr4oysTyI,google_places
ツルハドラッグ,ツルハドラッグ 酒田八幡店,山形県酒田市市条水上75番地１,38.9655605,139.9352478,山形県,ChIJHz8xVxyZjl8RXZMCgsMQGiA,google_places
ツルハドラッグ,ツルハドラッグ 酒田南店,山形県酒田市こがね町２丁目２７−３,38.8951447,139.854745,山形県,ChIJ-9W2QLifjl8Ra7yBFzzWYk0,google_places
ツルハドラッグ,ツルハドラッグ 酒田宮野浦店,山形県酒田市緑ケ丘１丁目１−１３,38.9031365,139.8163932,山形県,ChIJVVVV5YIgjF8R-cpqyvTaRaY,google_places
ツルハドラッグ,ツルハドラッグ 酒田平田店,山形県酒田市飛鳥大林１４８−１,38.8892213,139.9335675,山形県,ChIJGxCHhcKhjl8RS7DbHE3HYY0,google_places
ツルハドラッグ,ツルハドラッグ 酒田店,山形県酒田市ゆたか２丁目１−１,38.9357121,139.8452763,山形県,ChIJ59AdHZyejl8RQBFdqwOyYf0,google_places
ツルハドラッグ,ツルハドラッグ 酒田曙町店,山形県酒田市曙町２丁目17番1,38.919508,139.863574,山形県,ChIJAQxsGpafjl8RDFiJuhB4348,google_places
ツルハドラッグ,ツルハドラッグ 酒田本町店,山形県酒田市本町３丁目９−８,38.91478,139.832641,山形県,ChIJgxHLjUKejl8Rtsp9O_4Kt-s,google_places
ツルハドラッグ,ツルハドラッグ 酒田若原店,山形県酒田市若原町４−１０,38.8982151,139.8429557,山形県,ChIJ3a2iUcqfjl8Ru7cfdzlHqcc,google_places
ツルハドラッグ,ツルハドラッグ 長井中道店,山形県長井市中道２丁目１９−１９,38.1054508,140.0313231,山形県,ChIJnYS1pRSri18RHBN4uzXuIAo,google_places
ツルハドラッグ,ツルハドラッグ 長井店,山形県長井市小出2−１,38.0936354,140.0363718,山形県,ChIJ77IhCIUAi18R6AnQ954xd1E,google_places
ツルハドラッグ,ツルハドラッグ 飯豊店,山形県西置賜郡飯豊町椿字井戸尻4642番地,38.049186,139.990514,山形県,ChIJNYvv1vQBi18RLGanhtBxoSU,google_places
ツルハドラッグ,ツルハドラッグ 馬見ヶ崎店,山形県山形市馬見ケ崎２丁目１−２,38.279137,140.3309641,山形県,ChIJ67cA2MrJi18RwZbjtvEkX3k,google_places
ツルハドラッグ,ツルハドラッグ 高畠店,山形県東置賜郡高畠町泉岡字中道３９９,37.9993313,140.186702,山形県,ChIJTXUIhmH4il8R2PflDcdQU-U,google_places
ツルハドラッグ,ツルハドラッグ 高畠駅前店,山形県東置賜郡高畠町福沢４５５−４,37.992698,140.1508524,山形県,ChIJxwmQ-Eb5il8RAgSEjwR97MY,google_places
ツルハドラッグ,ツルハドラッグ 鶴岡あつみ店,山形県鶴岡市鼠ヶ関奥田1−１５,38.5534908,139.5516718,山形県,ChIJ2dAtDIdwjF8RCTdR_I3KU_Y,google_places
ツルハドラッグ,ツルハドラッグ 鶴岡南店,山形県鶴岡市文園町５−６,38.7151924,139.8302168,山形県,ChIJK6_cvNMRjF8RI28iKdA43QY,google_places
ツルハドラッグ,ツルハドラッグ 鶴岡小真木原店,山形県鶴岡市小真木原町５−５９,38.7174144,139.8154734,山形県,ChIJ13PaYrkRjF8Rp86MQw2lvBo,google_places
ツルハドラッグ,ツルハドラッグ 鶴岡山王店,山形県鶴岡市山王町１２−１７,38.7312002,139.8368653,山形県,ChIJMzrAUa0bjF8RZrHiSSAx9Is,google_places
ツルハドラッグ,ツルハドラッグ 鶴岡店,山形県鶴岡市東原町２４−２８,38.7180587,139.8463484,山形県,ChIJYXXQzq0ajF8RL07eb7ZgfzM,google_places
ツルハドラッグ,ツルハドラッグ 鶴岡新斎店,山形県鶴岡市西新斎町１−３８,38.7349801,139.8136256,山形県,ChIJvZQbwYYajF8RvK6Cr9S5fZk,google_places
ツルハドラッグ,ツルハドラッグ 鶴岡新海店,山形県鶴岡市新海町２０3号,38.7286182,139.8167026,山形県,ChIJgS0XEZ0ajF8RnCp0sft87E8,google_places
ツルハドラッグ,ツルハドラッグ 鶴岡東店,山形県鶴岡市大宝寺町２−３,38.7373652,139.8395591,山形県,ChIJNyvequ0ajF8RssF-GV8AqjE,google_places
ツルハドラッグ,ツルハドラッグ 鶴岡西店,山形県鶴岡市美咲町３−１４,38.734314,139.799494,山形県,ChIJgzOIV4AQjF8RHUn9WN2nK14,google_places
ドラッグヤマザワ,ドラッグヤマザワ 上山金生店,山形県上山市金生西２丁目１９−１,38.1424017,140.2839347,山形県,ChIJwwD4TgBNil8RzZiMEiyMUa0,google_places
ドラッグヤマザワ,ドラッグヤマザワくしびき店,山形県鶴岡市丸岡鳥飼１２１−２,38.6793691,139.8368958,山形県,ChIJ8R3hj64PjF8RYvszp_b60Vk,google_places
ドラッグヤマザワ,ドラッグヤマザワ上山店,山形県上山市矢来３丁目７−２３,38.1504643,140.2730629,山形県,ChIJtdNLEsqyi18RlYrqjI6kBas,google_places
ドラッグヤマザワ,ドラッグヤマザワ中山店,山形県東村山郡中山町長崎新町３０３０−７５,38.3271686,140.2788221,山形県,ChIJDRRjDKzHi18RLUSdzWggUgk,google_places
ドラッグヤマザワ,ドラッグヤマザワ余目店,山形県東田川郡庄内町余目滑石３８−１,38.8456331,139.8982652,山形県,ChIJlYLRW0UfjF8R0AmCqByMyY8,google_places
ドラッグヤマザワ,ドラッグヤマザワ北町店,山形県山形市桧町４丁目４−２１,38.275101,140.324797,山形県,ChIJH9T-fs3Ji18R-CTtm_Eau_c,google_places
ドラッグヤマザワ,ドラッグヤマザワ南陽店,山形県南陽市郡山５７８,38.0430606,140.1551125,山形県,ChIJHTRiqfJVil8RxcfpN20rEXg,google_places
ドラッグヤマザワ,ドラッグヤマザワ堀川町店,山形県米沢市堀川町４−５７,37.9034723,140.0973169,山形県,ChIJZbnseSfwil8RLraoJaAeL7M,google_places
ドラッグヤマザワ,ドラッグヤマザワ天童北店,山形県天童市乱川４丁目１−１,38.3820594,140.3786401,山形県,ChIJd59CNcPEi18R1OQPpcsnvkk,google_places
ドラッグヤマザワ,ドラッグヤマザワ宮町店,山形県山形市宮町５丁目９−２２,38.2637654,140.3379059,山形県,ChIJ7aGAfufJi18Ruyk_yypGI_k,google_places
ドラッグヤマザワ,ドラッグヤマザワ富の中店,山形県山形市富の中４丁目４−３３,38.232415,140.306045,山形県,ChIJQ63pmyq0i18RtpQdENB7b7c,google_places
ドラッグヤマザワ,ドラッグヤマザワ寒河江プラザ店,山形県寒河江市寒河江横道６５−１,38.3665265,140.2842803,山形県,ChIJGb85Q6nGi18RHFyZFYS_YqE,google_places
ドラッグヤマザワ,ドラッグヤマザワ寒河江店,山形県寒河江市中央１丁目７−１２,38.3805363,140.2779584,山形県,ChIJ31_ogOTDi18R6Zr0rpphsOw,google_places
ドラッグヤマザワ,ドラッグヤマザワ寒河江西店,山形県寒河江市中郷字角田１６００,38.376512,140.2188875,山形県,ChIJoUbEwAXBi18RFfAVnr8GDN4,google_places
ドラッグヤマザワ,ドラッグヤマザワ山交ビル店,山形県山形市香澄町３丁目２−１,38.246551,140.331741,山形県,ChIJ6RF7Fgm2i18RFUWgJn4GqX4,google_places
ドラッグヤマザワ,ドラッグヤマザワ山居町店,山形県酒田市山居町２丁目４−１５,38.9098512,139.835366,山形県,ChIJ_4LLg0aejl8RZoOuyPbNUwY,google_places
ドラッグヤマザワ,ドラッグヤマザワ川西店,山形県東置賜郡川西町上小松１１４３−１,38.0024665,140.051681,山形県,ChIJeb-F6iL8il8RXot6qCMuc0Y,google_places
ドラッグヤマザワ,ドラッグヤマザワ左沢店,山形県西村山郡大江町左沢９９７−１,38.3821249,140.2091662,山形県,ChIJTc4jxE3Bi18R_FzfUNvNt0w,google_places
ドラッグヤマザワ,ドラッグヤマザワ成沢店,山形県山形市成沢西５丁目３−２,38.209366,140.3189937,山形県,ChIJ_8Tj6Vy0i18RN4iMvCAhjug,google_places
ドラッグヤマザワ,ドラッグヤマザワ新庄宮内店,山形県新庄市五日町２７２−１,38.7580486,140.2877106,山形県,ChIJd2fEUkitjl8RgWoyIVimFMU,google_places
ドラッグヤマザワ,ドラッグヤマザワ新庄店,山形県新庄市金沢２０３３−４,38.7532659,140.3097258,山形県,ChIJf6vptspSiV8RyMbVLtm0FKc,google_places
ドラッグヤマザワ,ドラッグヤマザワ旭新町店,山形県酒田市旭新町１６−９,38.9237,139.8518727,山形県,ChIJvUmN04yejl8Rq5Q_RrEuf7M,google_places
ドラッグヤマザワ,ドラッグヤマザワ村山駅西店,山形県村山市楯岡西8051-1,38.4781931,140.3813045,山形県,ChIJAQAEJwfei18Rs2DlVTLh1tM,google_places
ドラッグヤマザワ,ドラッグヤマザワ松見町店,山形県山形市松見町２１−１０,38.2309815,140.3403314,山形県,ChIJx_3b8161i18RijNbNWbaMwY,google_places
ドラッグヤマザワ,ドラッグヤマザワ清住町店,山形県山形市清住町１丁目１−１,38.2533722,140.3174555,山形県,ChIJReHRfRa2i18R7txbmsvUQvg,google_places
ドラッグヤマザワ,ドラッグヤマザワ漆山店,山形県山形市漆山２５７０−１,38.3115426,140.344079,山形県,ChIJjZmySZfIi18RY2CJGsPnWwA,google_places
ドラッグヤマザワ,ドラッグヤマザワ白山店,山形県山形市白山２丁目１−２８,38.2259459,140.3186476,山形県,ChIJLyCZOzO0i18RNZf-HV6Q5h0,google_places
ドラッグヤマザワ,ドラッグヤマザワ県立中央病院前店,山形県山形市青柳１５６２−１,38.3002931,140.3489524,山形県,ChIJb2rKmvHIi18R7OXvBj2PXVE,google_places
