company,store_name,address,latitude,longitude
GENKY,GENKY（店舗名要確認）,愛知県知多郡東浦町大字森岡字前田55-1,34.9926565,136.9685179
GENKY,GENKY（店舗名要確認）,愛知県犬山市大字五郎丸字稲葉組36-1,35.360691,136.9456866
GENKY,GENKY（店舗名要確認）,愛知県半田市のぞみが丘二丁目210番地,34.9269866,136.9569076
GENKY,GENKY（店舗名要確認）,愛知県名古屋市中川区玉川町1丁目1番地,35.1228349,136.877073
GENKY,GENKY（店舗名要確認）,愛知県碧南市塩浜町2丁目34番1,34.8690751,136.9854447
GENKY,GENKY（店舗名要確認）,愛知県稲沢市西町3-165-1,35.251129,136.7837382
GENKY,GENKY（店舗名要確認）,愛知県刈谷市小垣江町下広6番1,34.9673965,137.0009264
GENKY,GENKY（店舗名要確認）,愛知県高浜市八幡町2丁目3-48,34.9516771,136.996947
GENKY,GENKY（店舗名要確認）,愛知県西尾市一色町味浜上長割47-1,34.8080051,137.0200019
GENKY,GENKY（店舗名要確認）,愛知県半田市成岩東町36番地,34.8808781,136.924851
GENKY,GENKY（店舗名要確認）,愛知県碧南市二本木町2丁目47番地,34.8921531,137.0113378
GENKY,GENKY（店舗名要確認）,愛知県西尾市平坂町空町22番地,34.860709,137.0141123
GENKY,GENKY（店舗名要確認）,愛知県常滑市熊野町4丁目50番地,34.8613205,136.8578367
GENKY,GENKY（店舗名要確認）,愛知県知多郡南知多町内海字西浜田34番地,34.7384866,136.8693335
GENKY,GENKY（店舗名要確認）,愛知県小牧市大字二重堀字中田1036番1,35.29198239999999,136.9380182
GENKY,GENKY（店舗名要確認）,愛知県常滑市瀬木町4丁目35番地,34.8892766,136.8501974
GENKY,GENKY（店舗名要確認）,愛知県知多郡阿久比町大字宮津字宮家下28番1,34.928071,136.9260639
GENKY,GENKY（店舗名要確認）,愛知県一宮市小信中島字新田前13番2,35.3157573,136.7488433
GENKY,GENKY（店舗名要確認）,愛知県犬山市西北野201番地１,35.3340029,136.9477364
GENKY,GENKY（店舗名要確認）,愛知県西尾市米津町野寺道13番地,34.8913881,137.0634542
GENKY,GENKY（店舗名要確認）,愛知県知多郡武豊町冨貴字篭田97番地,34.8218568,136.9197392
GENKY,GENKY（店舗名要確認）,愛知県東海市荒尾町若宮36番地,35.0382246,136.9126567
GENKY,GENKY（店舗名要確認）,愛知県一宮市東五城字篭島39番,35.3062415,136.748814
GENKY,GENKY（店舗名要確認）,愛知県海部郡蟹江町桜２丁目146番,35.1431193,136.7980853
GENKY,GENKY（店舗名要確認）,愛知県あま市新居屋鶴田125番,35.1977086,136.8105571
GENKY,GENKY（店舗名要確認）,愛知県蒲郡市西浦町北馬相24-1,34.7878376,137.1793673
GENKY,GENKY（店舗名要確認）,愛知県一宮市三条郷南西45-1,35.3049857,136.7588305
GENKY,GENKY（店舗名要確認）,愛知県西尾市熊味町道万11-1,34.8690822,137.0683676
GENKY,GENKY（店舗名要確認）,愛知県西尾市一色町一色番城39-1,34.8151683,137.0336648
GENKY,GENKY（店舗名要確認）,愛知県知多郡阿久比町植大大坪21,34.9158233,136.9234642
GENKY,GENKY（店舗名要確認）,愛知県西尾市吉良町吉田八ツ田２７,34.7946568,137.067531
GENKY,GENKY（店舗名要確認）,愛知県西尾市西幡豆町山副12-1,34.7950347,137.1139405
GENKY,GENKY（店舗名要確認）,愛知県弥富市平島町五反割56−1,35.1116326,136.7426014
GENKY,GENKY（店舗名要確認）,愛知県知多市岡田越地2-1,34.9646146,136.8684199
GENKY,GENKY（店舗名要確認）,愛知県岡崎市真伝町寒風15-8,34.9797392,137.1858113
GENKY,GENKY（店舗名要確認）,愛知県岡崎市福岡町岩ケ崎22-2,34.9085697,137.1524459
GENKY,GENKY（店舗名要確認）,愛知県蒲郡市拾石町縄手添17,34.8230148,137.2004106
GENKY,GENKY（店舗名要確認）,愛知県春日井市東野町西３丁目11-1,35.2703927,136.9818274
GENKY,GENKY（店舗名要確認）,愛知県知多郡美浜町古布屋敷73-8,34.7583537,136.9219507
GENKY,GENKY（店舗名要確認）,愛知県津島市一本木町18,35.1804862,136.7155576
GENKY,GENKY（店舗名要確認）,愛知県一宮市浅野前林24-3,35.2948079,136.8301031
GENKY,GENKY（店舗名要確認）,愛知県愛知県蒲郡市形原町南新田37-１,34.8068168,137.1894231
GENKY,GENKY（店舗名要確認）,愛知県稲沢市祖父江町中牧外川219番,35.2535084,136.708722
GENKY,GENKY（店舗名要確認）,愛知県豊田市鴻ノ巣４丁目34-1,35.0635229,137.1333232
GENKY,GENKY（店舗名要確認）,愛知県岡崎市中島町上町32-1,34.8855758,137.1219732
GENKY,GENKY（店舗名要確認）,愛知県蒲郡市平田町下長根43-1,34.8294152,137.2398708
GENKY,GENKY（店舗名要確認）,愛知県蒲郡市大塚町南向山75-2,34.8150854,137.2910372
GENKY,GENKY（店舗名要確認）,愛知県津島市愛宕町七丁目113番,35.1652289,136.73781
GENKY,GENKY（店舗名要確認）,愛知県碧南市平七町三丁目83番,34.872942,136.9958119
GENKY,GENKY（店舗名要確認）,愛知県江南市高屋町御日塚114番1,35.3532685,136.878968
GENKY,GENKY（店舗名要確認）,愛知県小牧市小牧1丁目243番1,35.2931952,136.9219493
GENKY,GENKY（店舗名要確認）,愛知県豊川市八幡町東赤土39-1,34.8347773,137.3437381
GENKY,GENKY（店舗名要確認）,愛知県高浜市沢渡町四丁目１番9,34.9291797,136.9925249
GENKY,GENKY（店舗名要確認）,愛知県碧南市金山町四丁目28番,34.9022337,137.0016877
GENKY,GENKY（店舗名要確認）,愛知県一宮市丹陽町九日市場字円之内619番,35.2729221,136.8334213
GENKY,GENKY（店舗名要確認）,愛知県知多郡美浜町大字奥田字石畑328番１,34.7911028,136.8593882
GENKY,GENKY（店舗名要確認）,愛知県田原市古田町エゲノ前181番地,34.6262581,137.1067175
GENKY,GENKY（店舗名要確認）,愛知県一宮市佐千原字南切野４番４,35.3241238,136.813104
GENKY,GENKY（店舗名要確認）,愛知県一宮市大和町妙興寺字坊ヶ池22番１,35.2819037,136.8059076
GENKY,GENKY（店舗名要確認）,愛知県田原市赤羽根町大辻49番,34.6144231,137.2015081
GENKY,GENKY（店舗名要確認）,愛知県犬山市大字上野弥左畑303番,35.3728951,136.9313867
GENKY,GENKY（店舗名要確認）,愛知県知立市谷田町西長根35番3,34.9819792,137.0552254
GENKY,GENKY（店舗名要確認）,愛知県碧南市道場山町五丁目18番1,34.8934104,136.9917514
GENKY,GENKY（店舗名要確認）,愛知県一宮市木曽川町黒田九ノ通り164番,35.3433248,136.7932128
GENKY,GENKY（店舗名要確認）,愛知県新城市字町並176番,34.9022349,137.4998248
GENKY,GENKY（店舗名要確認）,愛知県新城市長篠今銭前16番,34.926554,137.5631343
GENKY,GENKY（店舗名要確認）,愛知県名古屋市港区錦町605番,35.087995,136.8607755
GENKY,GENKY（店舗名要確認）,愛知県田原市豊島町道南44番1,34.669799,137.2798279
GENKY,GENKY（店舗名要確認）,愛知県知多郡南知多町大字大井字浜辺46番3,34.7270432,136.9667154
GENKY,GENKY（店舗名要確認）,愛知県田原市田原町北荒井31番1,34.6787031,137.2744365
GENKY,GENKY（店舗名要確認）,愛知県愛西市諏訪町中島376番,35.1883375,136.7385749
GENKY,GENKY（店舗名要確認）,愛知県尾張旭市晴丘町東34番6,35.1952812,137.0449231
GENKY,GENKY（店舗名要確認）,愛知県一宮市木曽川町玉ノ井字高畑43番,35.33238980000001,136.7591973
GENKY,GENKY（店舗名要確認）,愛知県瀬戸市西長根町69番3,35.213659,137.0711051
GENKY,GENKY（店舗名要確認）,愛知県豊橋市小向町字北小向21番1,34.7691808,137.362745
GENKY,GENKY（店舗名要確認）,愛知県蒲郡市三谷北通4丁目119番4,34.8206568,137.24252
GENKY,GENKY（店舗名要確認）,愛知県豊川市桜木通6丁目6番1,34.83409870000001,137.3864146
GENKY,GENKY（店舗名要確認）,愛知県小牧市小松寺3丁目163番,35.3095679,136.9459563
GENKY,GENKY（店舗名要確認）,愛知県あま市七宝町桂親田2021番1,35.17166,136.8002286
GENKY,GENKY（店舗名要確認）,愛知県知多郡武豊町字下田18番1,34.8405551,136.9215978
GENKY,GENKY（店舗名要確認）,愛知県大府市若草町四丁目291番,35.0111773,136.9725503
GENKY,GENKY（店舗名要確認）,愛知県豊川市一宮町大池97番,34.8593245,137.4306898
GENKY,GENKY（店舗名要確認）,愛知県常滑市榎戸町一丁目3番,34.9106533,136.828311
GENKY,GENKY（店舗名要確認）,愛知県岩倉市大地町野合23番1,35.2746258,136.8637428
GENKY,GENKY（店舗名要確認）,愛知県半田市岩滑中町三丁目207番,34.9078237,136.9240653
GENKY,GENKY（店舗名要確認）,愛知県知多郡東浦町大字石浜字須賀40番1,34.964458,136.9680625
GENKY,GENKY（店舗名要確認）,愛知県知多郡武豊町字西門79番5,34.8518091,136.9200646
GENKY,GENKY（店舗名要確認）,愛知県豊川市篠束町東宮5番14,34.8058362,137.3709744
GENKY,GENKY（店舗名要確認）,愛知県豊橋市西小鷹野一丁目1番11,34.7710548,137.4219062
GENKY,GENKY（店舗名要確認）,愛知県春日井市坂下町二丁目1127番3,35.2872961,137.0226244
GENKY,GENKY（店舗名要確認）,愛知県豊川市川花町三丁目31番1,34.8180802,137.3663489
GENKY,GENKY（店舗名要確認）,愛知県豊橋市三ノ輪町字本興寺12番1,34.7469194,137.4106079
GENKY,GENKY（店舗名要確認）,愛知県岡崎市小呂町字ミタライ71番1,34.9626576,137.1874111
GENKY,GENKY（店舗名要確認）,愛知県新城市野田字西町屋敷58番3,34.8893417,137.4755611
GENKY,GENKY（店舗名要確認）,愛知県弥富市前ケ須町勘助走28番1,35.1084966,136.7312334
GENKY,GENKY（店舗名要確認）,愛知県東海市富木島町前田面12番4,35.0213167,136.9099176
GENKY,GENKY（店舗名要確認）,愛知県西尾市徳永町東側34番1,34.842104,137.0219648
GENKY,GENKY（店舗名要確認）,愛知県高浜市田戸町4丁目3-10,34.9117841,136.9894438
GENKY,GENKY（店舗名要確認）,愛知県名古屋市中村区野田町字経田63番1,35.1487427,136.8441424
GENKY,GENKY（店舗名要確認）,愛知県岡崎市若松町字山田下33-2,34.9141543,137.1587809
GENKY,GENKY（店舗名要確認）,愛知県日進市梅森町上松640番1,35.1336452,137.0171263
GENKY,GENKY（店舗名要確認）,愛知県豊川市新豊町一丁目31番,34.8323049,137.4035887
GENKY,GENKY（店舗名要確認）,愛知県名古屋市港区知多二丁目204番,35.1118792,136.8234676
GENKY,GENKY（店舗名要確認）,愛知県常滑市樽水町一丁目40番1,34.8752575,136.8430592
GENKY,GENKY（店舗名要確認）,愛知県江南市前飛保町栄235番,35.3437713,136.8585931
GENKY,GENKY（店舗名要確認）,愛知県稲沢市祖父江町森上本郷八27番1,35.2488648,136.7384805
GENKY,GENKY（店舗名要確認）,愛知県田原市福江町向田10-2,34.6233045,137.0969171
GENKY,GENKY（店舗名要確認）,愛知県常滑市小倉町三丁目12番,34.9365238,136.8332319
GENKY,GENKY（店舗名要確認）,愛知県豊橋市上野町字上野119番1,34.7236897,137.3874858
GENKY,GENKY（店舗名要確認）,愛知県知多市大興寺字長根32番163,34.9513103,136.8596343
GENKY,GENKY（店舗名要確認）,愛知県刈谷市井ヶ谷町桜町72番2,35.0585732,137.0466645
GENKY,GENKY（店舗名要確認）,愛知県額田郡幸田町大草南川後42番1,34.8756466,137.1711543
GENKY,GENKY（店舗名要確認）,愛知県蒲郡市神ノ郷町大宮後37番3,34.8353438,137.2232409
GENKY,GENKY（店舗名要確認）,愛知県豊橋市大岩町北山6番236,34.7347288,137.4337258
GENKY,GENKY（店舗名要確認）,愛知県新城市大野横町33番3,34.9522996,137.6075588
GENKY,GENKY（店舗名要確認）,愛知県西尾市一色町対米九郎座45番1,34.8058859,137.0351952
GENKY,GENKY（店舗名要確認）,愛知県西尾市菅原町224番1,34.8763793,137.0576045
GENKY,GENKY（店舗名要確認）,愛知県津島市唐臼町当理46番,35.1619628,136.7497788
GENKY,GENKY（店舗名要確認）,愛知県東海市加木屋町大堀13番1,34.9833793,136.9074233
GENKY,GENKY（店舗名要確認）,愛知県知多市新知下森11番11,34.986619,136.8593219
GENKY,GENKY（店舗名要確認）,愛知県丹羽郡扶桑町斎藤本郷屋敷216番地,35.3542717,136.9052053
GENKY,GENKY（店舗名要確認）,愛知県豊田市大沼町新井前東92番地,35.0330659,137.3091031
GENKY,GENKY（店舗名要確認）,愛知県瀬戸市品野町１丁目217番地1,35.2396916,137.1155059
GENKY,GENKY（店舗名要確認）,愛知県豊橋市牧野町152番地3,34.733821,137.4018516
GENKY,GENKY（店舗名要確認）,愛知県名古屋市守山区鼓が丘１丁目112番地,35.2280711,137.0103044
GENKY,GENKY（店舗名要確認）,愛知県あま市七宝町下之森屋敷代447番1,35.1536369,136.7957781
GENKY,GENKY（店舗名要確認）,愛知県春日井市八田町五丁目11番1,35.2580969,136.961688
GENKY,GENKY（店舗名要確認）,愛知県半田市中町三丁目76,34.88892209999999,136.9268377
GENKY,GENKY（店舗名要確認）,愛知県一宮市今伊勢町本神戸字宮山1番2,35.3152706,136.7940554
GENKY,GENKY（店舗名要確認）,愛知県刈谷市半城土中町二丁目2番5,34.9790915,137.0180948
GENKY,GENKY（店舗名要確認）,愛知県大府市東新町五丁目136番,35.0020851,136.921856
GENKY,GENKY（店舗名要確認）,愛知県江南市布袋下山町南11番2,35.3165804,136.8685815
GENKY,GENKY（店舗名要確認）,愛知県北設楽郡設楽町清崎字横畑20番2,35.0649999,137.5507168
GENKY,GENKY（店舗名要確認）,愛知県岩倉市下本町真光寺210番,35.2785143,136.8788922
GENKY,GENKY（店舗名要確認）,愛知県豊川市御津町西方井領田60番1,34.8091881,137.312682
GENKY,GENKY（店舗名要確認）,愛知県北名古屋市山之腰天神東137,35.2583935,136.846743
GENKY,GENKY（店舗名要確認）,愛知県あま市上萱津米屋37,35.1958136,136.834593
GENKY,GENKY（店舗名要確認）,愛知県一宮市本町4丁目14-7,35.2995479,136.8016778
GENKY,GENKY（店舗名要確認）,愛知県春日井市高山町１丁目17-4,35.2521651,136.9507621
GENKY,GENKY（店舗名要確認）,愛知県豊川市伊奈町縫殿26-302,34.8001473,137.3504088
GENKY,GENKY（店舗名要確認）,愛知県西尾市塩町23-1,34.8658355,137.0526763
GENKY,GENKY（店舗名要確認）,愛知県名古屋市緑区鳴子町3丁目45,35.0995694,136.9689732
GENKY,GENKY（店舗名要確認）,愛知県西尾市国森町1丁目21,34.8554067,137.0342833
GENKY,GENKY（店舗名要確認）,愛知県一宮市西萩原上伴内14番1,35.2870308,136.747547
GENKY,GENKY（店舗名要確認）,愛知県知多郡武豊町山ノ神96,34.8594937,136.9129598
GENKY,GENKY（店舗名要確認）,愛知県名古屋市南区堤起町１丁目52番1,35.0847093,136.9154982
GENKY,GENKY（店舗名要確認）,愛知県一宮市森本３丁目24番7,35.2886926,136.815747
GENKY,GENKY（店舗名要確認）,愛知県半田市乙川太田町２丁目55番1,34.908756,136.9460888
GENKY,GENKY（店舗名要確認）,愛知県岡崎市藤川町一里山北98,34.9135457,137.216987
GENKY,GENKY（店舗名要確認）,愛知県稲沢市平和町下起中130,35.2085229,136.7327392
GENKY,GENKY（店舗名要確認）,愛知県あま市木田西新五領1番3,35.1916427,136.7879128
GENKY,GENKY（店舗名要確認）,愛知県瀬戸市苗場町108番1,35.2297881,137.0741724
GENKY,GENKY（店舗名要確認）,愛知県春日井市八田町８丁目14番6,35.2549649,136.9730309
GENKY,GENKY（店舗名要確認）,愛知県清須市西田中蓮池170番2,35.2124331,136.8513383
GENKY,GENKY（店舗名要確認）,愛知県江南市大間町新町128番,35.3346415,136.8601076
GENKY,GENKY（店舗名要確認）,愛知県豊田市桑原町恵下378番1,35.2132999,137.4989374
GENKY,GENKY（店舗名要確認）,愛知県名古屋市守山区中志段味大洞口2731番1,35.2443707,137.0294201
GENKY,GENKY（店舗名要確認）,愛知県北設楽郡東栄町本郷上前畑38-1,35.0764463,137.6981522
GENKY,GENKY（店舗名要確認）,愛知県春日井市上条町10丁目197-3,35.2303753,136.9836472
GENKY,GENKY（店舗名要確認）,愛知県豊橋市草間町東山133,34.7339056,137.3820272
GENKY,GENKY（店舗名要確認）,愛知県北名古屋市徳重花ノ木43,35.2572265,136.8649546
Vドラッグ,V・ドラッグ,愛知県瀬戸市西本地町２丁目,35.2064712,137.0589102
Vドラッグ,V・ドラッグ 半田店,愛知県半田市乙川吉野町９,34.9060556,136.9365393
Vドラッグ,クリエイトＳ・Ｄ 愛知豊山店,愛知県西春日井郡豊山町豊場冨士１５６,35.2443408,136.9161013
Vドラッグ,ココカラファイン ジップドラッグ 幸田店,愛知県額田郡幸田町相見蒲原62番地,34.89016489999999,137.1612272
Vドラッグ,サンドラッグ 碧南幸町店,愛知県碧南市幸町５丁目５,34.8879113,136.998238
Vドラッグ,サンドラッグ 豊山店,愛知県西春日井郡豊山町豊場下戸３６−番,35.2401589,136.9186418
Vドラッグ,スーパーセンターオークワ 幸田店,愛知県額田郡幸田町六栗蔵前１２６,34.85498130000001,137.1626598
Vドラッグ,スーパーセンタートライアル幸田店,愛知県額田郡幸田町深溝緑台字小杉山104,34.8465394,137.1706404
Vドラッグ,ドラッグユタカ 佐屋店,愛知県愛西市北一色町東田面２０−１,35.147129,136.7297641
Vドラッグ,東栄薬局,愛知県北設楽郡東栄町本郷大沼10番地,35.0731733,137.7079908
Vドラッグ,Ｖ・drug みなと店,愛知県名古屋市港区築盛町１３２,35.1062794,136.8716957
Vドラッグ,Ｖ・drug 一宮公園通店,愛知県一宮市公園通り６丁目４,35.2933164,136.8035689
Vドラッグ,Ｖ・drug 一宮北店,愛知県一宮市東島町１丁目6番１,35.316676,136.8129971
Vドラッグ,Ｖ・drug 一宮多加木薬局,愛知県一宮市多加木３丁目１３−３４,35.2793573,136.8127859
Vドラッグ,Ｖ・drug 一宮奥町店,愛知県一宮市奥町神田５６−１,35.328748,136.7723434
Vドラッグ,Ｖ・drug 一宮市民病院前薬局,愛知県一宮市文京２丁目２−２,35.3124236,136.8066137
Vドラッグ,Ｖ・drug 七宝店,愛知県あま市七宝町徳実三河畑36,35.1504071,136.7933795
Vドラッグ,Ｖ・drug 三好ヶ丘店,愛知県みよし市三好丘あおば２丁目17番地5,35.126951,137.1069441
Vドラッグ,Ｖ・drug 三好中央店,愛知県みよし市三好町上ヶ池１４−７,35.0811601,137.0819097
Vドラッグ,Ｖ・drug 三郷店,愛知県尾張旭市東栄町２丁目8番１５,35.2171767,137.0533853
Vドラッグ,Ｖ・drug 上地店,愛知県岡崎市上地６丁目16−１０,34.9053847,137.1640986
Vドラッグ,Ｖ・drug 上小田井店,愛知県名古屋市西区南川町85番地,35.2202951,136.8817111
Vドラッグ,Ｖ・drug 上郷店,愛知県豊田市上郷町２丁目4番７,35.0160125,137.1321871
Vドラッグ,Ｖ・drug 上野台店,愛知県東海市富木島町東山田７−１５２,35.015279,136.9299338
Vドラッグ,Ｖ・drug 下之一色店,愛知県名古屋市中川区下之一色町宮分１４９−１1階,35.1248671,136.8330253
Vドラッグ,Ｖ・drug 下重原店,愛知県刈谷市下重原町４丁目47番２,34.9870052,137.017849
Vドラッグ,Ｖ・drug 中切店,愛知県名古屋市北区中切町６丁目8番,35.2160757,136.9062484
Vドラッグ,Ｖ・drug 中川富田店,愛知県名古屋市中川区供米田１丁目１１１,35.1374438,136.8172367
Vドラッグ,Ｖ・drug 中川野田店,愛知県名古屋市中川区土野町61番,35.14462280000001,136.8411496
Vドラッグ,Ｖ・drug 今伊勢南薬局,愛知県一宮市今伊勢町本神戸無量寺東２,35.31951189999999,136.7931854
Vドラッグ,Ｖ・drug 今伊勢店,愛知県一宮市今伊勢町宮後北山中１５−１,35.3229004,136.7901059
Vドラッグ,Ｖ・drug 伝法寺店,愛知県一宮市伝法寺１１丁目12番地3,35.2653041,136.8487994
Vドラッグ,Ｖ・drug 光が丘店,愛知県名古屋市千種区光が丘２丁目１５−１５０３,35.1797325,136.9783086
Vドラッグ,Ｖ・drug 光音寺店,愛知県名古屋市北区水草町１丁目４７−１,35.2060722,136.9078933
Vドラッグ,Ｖ・drug 六名店,愛知県岡崎市上六名４丁目2番地8,34.9427172,137.1577201
Vドラッグ,Ｖ・drug 六軒屋店,愛知県春日井市六軒屋町東丘25−２アクロスプラザ春日井,35.257157,136.9804344
Vドラッグ,Ｖ・drug 内山店,愛知県名古屋市千種区内山３丁目１２−１５エルメディオ千種1F,35.1704259,136.9344106
Vドラッグ,Ｖ・drug 内浜店,愛知県名古屋市瑞穂区内浜町３２−１８,35.11218119999999,136.9192624
Vドラッグ,Ｖ・drug 刈谷中山薬局,愛知県刈谷市中山町２丁目２９−１,34.9922768,137.0139826
Vドラッグ,Ｖ・drug 勝川店,愛知県春日井市知多町４丁目１０,35.2356038,136.9467795
Vドラッグ,Ｖ・drug 北本地ケ原店,愛知県尾張旭市北本地ケ原町２丁目１１８,35.1985856,137.0358031
Vドラッグ,Ｖ・drug 千種公園北店,愛知県名古屋市千種区松軒２丁目１１−６,35.1783917,136.9418721
Vドラッグ,Ｖ・drug 千音寺店,愛知県名古屋市中川区富田町大字千音寺無田居名古屋市中川区千音寺土地区画整理組合78街区仮1番,35.1642757,136.8096966
Vドラッグ,Ｖ・drug 半田乙川店,愛知県半田市乙川太田町２丁目14番,34.9095475,136.9478111
Vドラッグ,Ｖ・drug 南陽店,愛知県名古屋市港区知多３丁目３１０,35.1112147,136.8265703
Vドラッグ,Ｖ・drug 名古屋豊田店,愛知県名古屋市南区豊田３丁目９−１３,35.1041615,136.9176049
Vドラッグ,Ｖ・drug 味岡店,愛知県小牧市久保新町３０,35.3115529,136.9409253
Vドラッグ,Ｖ・drug 味鋺店,愛知県名古屋市北区楠３丁目７０１,35.2269929,136.9223018
Vドラッグ,Ｖ・drug 城山店,愛知県尾張旭市城前町１丁目１藤和シティホームズ旭前,35.2178259,137.0255141
Vドラッグ,Ｖ・drug 堀の内店,愛知県小牧市堀の内２丁目７６−１,35.29069250000001,136.910251
Vドラッグ,Ｖ・drug 大口店,愛知県丹羽郡大口町余野３丁目１０,35.3429848,136.9113272
Vドラッグ,Ｖ・drug 大府中央店,愛知県大府市中央町４丁目277番,35.0069869,136.9651313
Vドラッグ,Ｖ・drug 大府半月薬局,愛知県大府市半月町３丁目２４８番2,34.9984308,136.942915
Vドラッグ,Ｖ・drug 大林店,愛知県豊田市大林町１７丁目3番１,35.047048,137.148539
Vドラッグ,Ｖ・drug 大治店,愛知県海部郡大治町堀之内大堀２０７番1,35.1724013,136.8222946
Vドラッグ,Ｖ・drug 大須店,愛知県名古屋市中区大須２丁目１６−２８,35.1593949,136.9012648
Vドラッグ,Ｖ・drug 大高南店,愛知県名古屋市緑区高根山１丁目502番地,35.0473552,136.9477746
Vドラッグ,Ｖ・drug 天白原店,愛知県名古屋市天白区原２丁目９０７907番,35.1231908,136.99205
Vドラッグ,Ｖ・drug 天白島田店,愛知県名古屋市天白区山郷町２１,35.1139207,136.980776
Vドラッグ,Ｖ・drug 天白野並店,愛知県名古屋市天白区中坪町１３２,35.1089502,136.953847
Vドラッグ,Ｖ・drug 守山吉根店,愛知県名古屋市守山区笹ヶ根１丁目１５１０,35.2321973,137.0062373
Vドラッグ,Ｖ・drug 安城今池店,愛知県安城市今池町３丁目７−６,34.9784349,137.0827551
Vドラッグ,Ｖ・drug 安城南店,愛知県安城市古井町大堀５２−１,34.9369836,137.089262
Vドラッグ,Ｖ・drug 安城横山店,愛知県安城市横山町下毛賀知１１４,34.9594233,137.0728052
Vドラッグ,Ｖ・drug 宝神店,愛知県名古屋市港区宝神３丁目２３１１番,35.087151,136.8529757
Vドラッグ,Ｖ・drug 富士松店,愛知県刈谷市東境町伊賀淵２８−２５,35.0336965,137.0385009
Vドラッグ,Ｖ・drug 富貴ノ台店,愛知県東海市富貴ノ台２丁目１０６,35.0336156,136.904241
Vドラッグ,Ｖ・drug 尾崎山店,愛知県名古屋市緑区尾崎山１丁目１507番,35.0778567,136.9777776
Vドラッグ,Ｖ・drug 尾張旭店,愛知県尾張旭市西大道町五輪塚３６８９−１,35.2135283,137.0319276
Vドラッグ,Ｖ・drug 尾張旭晴丘薬局,愛知県尾張旭市晴丘町池上１２５番8,35.197328,137.043384
Vドラッグ,Ｖ・drug 岡崎医療センター前店,愛知県岡崎市針崎西2丁目7−３,34.9190553,137.156318
Vドラッグ,Ｖ・drug 岡崎堂前店,愛知県岡崎市堂前町１丁目１１９,34.9824684,137.177383
Vドラッグ,Ｖ・drug 岡崎牧御堂店,愛知県岡崎市牧御堂町水洗３７,34.9242475,137.1422767
Vドラッグ,Ｖ・drug 岡崎百々店,愛知県岡崎市百々町四ツ谷５８,34.9901352,137.1717958
Vドラッグ,Ｖ・drug 岡崎細川薬局,愛知県岡崎市細川町窪地64−６,35.0228271,137.1770411
Vドラッグ,Ｖ・drug 岡町店,愛知県岡崎市岡町方便１−２,34.9312037,137.2060251
Vドラッグ,Ｖ・drug 岩倉東店,愛知県岩倉市東新町南江向24番地5,35.2812183,136.8846107
Vドラッグ,Ｖ・drug 岩倉西店,愛知県岩倉市西市町松下３３−１,35.278867,136.8636733
Vドラッグ,Ｖ・drug 島田橋店,愛知県名古屋市天白区島田１丁目901番地,35.1214312,136.9739603
Vドラッグ,Ｖ・drug 常滑店,愛知県常滑市虹の丘７丁目8番地,34.8995467,136.8383778
Vドラッグ,Ｖ・drug 弥富店,愛知県弥富市鯏浦町南前新田１７０,35.1100766,136.7286226
Vドラッグ,Ｖ・drug 当知店,愛知県名古屋市港区当知１丁目３０１,35.1133243,136.8502873
Vドラッグ,Ｖ・drug 徳重北店,愛知県名古屋市緑区元徳重２丁目1108番地,35.0980107,137.003203
Vドラッグ,Ｖ・drug 扶桑店,愛知県丹羽郡扶桑町高雄北東川100番,35.3611615,136.9237976
Vドラッグ,Ｖ・drug 挙母店,愛知県豊田市挙母町５丁目５６−１,35.0839495,137.1629523
Vドラッグ,Ｖ・drug 新城店,愛知県新城市稲木仲野７０−２８,34.8919361,137.4730689
Vドラッグ,Ｖ・drug 新守山店,愛知県名古屋市守山区金屋１丁目９903番,35.2044376,136.951976
Vドラッグ,Ｖ・drug 新栄店,愛知県名古屋市中区新栄２丁目７−７,35.1682707,136.9234049
Vドラッグ,Ｖ・drug 日進栄店,愛知県日進市栄２丁目５０４,35.1199188,137.0518109
Vドラッグ,Ｖ・drug 日進香久山薬局,愛知県日進市香久山４丁目２０１−４,35.1429952,137.027993
Vドラッグ,Ｖ・drug 春日井六軒屋薬局,愛知県春日井市六軒屋町１丁目１０−２,35.2561441,136.9761505
Vドラッグ,Ｖ・drug 春日井如意申店,愛知県春日井市如意申町６丁目7−１１,35.2467745,136.9518164
Vドラッグ,Ｖ・drug 春日井宮町店,愛知県春日井市宮町中島１−１,35.2519297,136.9440182
Vドラッグ,Ｖ・drug 春日井小野店,愛知県春日井市小野町６丁目４−１,35.2261388,136.9682902
Vドラッグ,Ｖ・drug 春日井朝宮店,愛知県春日井市朝宮町２丁目18−２,35.2496593,136.9584089
Vドラッグ,Ｖ・drug 春日井熊野店,愛知県春日井市熊野町１６３２番,35.247637,137.0040715
Vドラッグ,Ｖ・drug 春日井熊野西薬局,愛知県春日井市熊野町字後田１６４３−１,35.2457138,137.0011621
Vドラッグ,Ｖ・drug 春日井神領店,愛知県春日井市神領町３丁目5−５,35.2556447,137.013401
Vドラッグ,Ｖ・drug 春日井西店,愛知県春日井市西高山町２丁目2−９,35.25664039999999,136.9467453
Vドラッグ,Ｖ・drug 春日井関田店,愛知県春日井市関田町２丁目２００,35.249285,136.9872081
Vドラッグ,Ｖ・drug 春日井高山薬局,愛知県春日井市高山町１丁目２１−６,35.2532215,136.9539338
Vドラッグ,Ｖ・drug 木曽川店,愛知県一宮市木曽川町黒田城西２７−５,35.344115,136.7795757
Vドラッグ,Ｖ・drug 東岡崎店,愛知県岡崎市大西１丁目1−１,34.9447589,137.1786092
Vドラッグ,Ｖ・drug 東浦店,愛知県知多郡東浦町石浜行田８−１,34.9645267,136.9696081
Vドラッグ,Ｖ・drug 東田中店,愛知県小牧市東田中２０１０,35.2992007,136.9441184
Vドラッグ,Ｖ・drug 東郷西店,愛知県愛知郡東郷町兵庫２丁目２,35.091796,137.026691
Vドラッグ,Ｖ・drug 柴田店,愛知県名古屋市南区鶴見通２丁目1番地1,35.0757821,136.9142317
Vドラッグ,Ｖ・drug 桃花台店,愛知県小牧市高根１丁目２８８−１,35.29368669999999,136.9763618
Vドラッグ,Ｖ・drug 桃花台薬局,愛知県小牧市高根１丁目２８８−２,35.2937065,136.9764825
Vドラッグ,Ｖ・drug 梅森坂店,愛知県名古屋市名東区梅森坂２丁目１０１６番1,35.1412672,137.0154789
Vドラッグ,Ｖ・drug 武豊店,愛知県知多郡武豊町口田１０−１,34.8610259,136.9205416
Vドラッグ,Ｖ・drug 武豊西店,愛知県知多郡武豊町梨子ノ木４丁目１３０,34.8636311,136.9046718
Vドラッグ,Ｖ・drug 江南北店,愛知県江南市前飛保町緑ケ丘２７１,35.3451115,136.8635101
Vドラッグ,Ｖ・drug 江南店,愛知県江南市赤童子町南山１９５,35.3316461,136.8727465
Vドラッグ,Ｖ・drug 油屋店,愛知県名古屋市港区油屋町１丁目３４−１,35.1048312,136.8501955
Vドラッグ,Ｖ・drug 津島北店,愛知県津島市西柳原町４丁目１３−１,35.1824132,136.7333058
Vドラッグ,Ｖ・drug 津島南店,愛知県津島市中地町３丁目１６−１,35.1687134,136.7216741
Vドラッグ,Ｖ・drug 津島神守店,愛知県津島市神守町森本22番地,35.1760901,136.76919
Vドラッグ,Ｖ・drug 浄水店,愛知県豊田市浄水町南平208B5L豊田浄水特定土地区画整理地,35.1239942,137.1409902
Vドラッグ,Ｖ・drug 浜田町店,愛知県名古屋市南区浜田町４丁目１２１−４,35.0891551,136.9272067
Vドラッグ,Ｖ・drug 清須東店,愛知県清須市西田中本城20番１,35.2154314,136.8489392
Vドラッグ,Ｖ・drug 瀬戸南店,愛知県瀬戸市菱野町２６９番2,35.2060759,137.077084
Vドラッグ,Ｖ・drug 瀬戸品野店,愛知県瀬戸市五位塚町１１−６１３,35.2357835,137.1160418
Vドラッグ,Ｖ・drug 瀬戸水野店,愛知県瀬戸市北山町９７−１,35.2261034,137.0711683
Vドラッグ,Ｖ・drug 瀬戸菱野店,愛知県瀬戸市東赤重町１丁目22番１,35.2096789,137.085995
Vドラッグ,Ｖ・drug 瀬戸西店,愛知県瀬戸市西本地町２丁目222番地2,35.20676479999999,137.0561353
Vドラッグ,Ｖ・drug 熊之庄店,愛知県北名古屋市熊之庄八幡１４６−１,35.254437,136.8845825
Vドラッグ,Ｖ・drug 熱田八番店,愛知県名古屋市熱田区八番２丁目１８−１８4号,35.1206337,136.884044
Vドラッグ,Ｖ・drug 熱田六番町店,愛知県名古屋市熱田区古新町２丁目24番,35.1284282,136.8855632
Vドラッグ,Ｖ・drug 牛田店,愛知県知立市牛田町尼子田５２−８,34.9948787,137.0613807
Vドラッグ,Ｖ・drug 犬山駅前店,愛知県犬山市犬山高見町12番１,35.3797698,136.944141
Vドラッグ,Ｖ・drug 犬山駅東店,愛知県犬山市天神町１丁目６６番,35.3806264,136.9471207
Vドラッグ,Ｖ・drug 玉ノ井店,愛知県一宮市木曽川町玉ノ井穴太部128番地2,35.33794,136.7608128
Vドラッグ,Ｖ・drug 瑞穂店,愛知県名古屋市瑞穂区豆田町５丁目５−２,35.1311448,136.9263936
Vドラッグ,Ｖ・drug 瑞穂汐路店,愛知県名古屋市瑞穂区大殿町１丁目２,35.1322131,136.9397082
Vドラッグ,Ｖ・drug 瑞穂牛巻店,愛知県名古屋市瑞穂区牛巻町５5番19号,35.1288474,136.9179986
Vドラッグ,Ｖ・drug 瑠璃光店,愛知県名古屋市北区瑠璃光町３丁目1番１,35.1988342,136.9240264
Vドラッグ,Ｖ・drug 甚目寺南店,愛知県あま市坂牧阿原３８38番,35.1825238,136.8316411
Vドラッグ,Ｖ・drug 甚目寺西店,愛知県あま市新居屋岩屋72番地,35.2006764,136.809928
Vドラッグ,Ｖ・drug 矢作店,愛知県岡崎市矢作町桜海道４５−１,34.9572099,137.143848
Vドラッグ,Ｖ・drug 知多店,愛知県知多市にしの台２丁目１００−７,34.9792583,136.8735137
Vドラッグ,Ｖ・drug 知立店,愛知県知立市長田３丁目21番,35.0005488,137.0423126
Vドラッグ,Ｖ・drug 知立駅前店,愛知県知立市中町中９０−２,35.0082149,137.042985
Vドラッグ,Ｖ・drug 社台店,愛知県名古屋市名東区社台３丁目9番,35.1749583,137.0017449
Vドラッグ,Ｖ・drug 祖父江店,愛知県稲沢市祖父江町祖父江居中147番3,35.2574147,136.7193176
Vドラッグ,Ｖ・drug 福江店,愛知県名古屋市昭和区福江２丁目１２−８,35.1448523,136.9137062
Vドラッグ,Ｖ・drug 稲沢中央店,愛知県稲沢市朝府町1番２９,35.2513364,136.7762684
Vドラッグ,Ｖ・drug 稲沢中央薬局,愛知県稲沢市朝府町１1番29号,35.2513364,136.7762684
Vドラッグ,Ｖ・drug 米野木店,愛知県日進市米野木台５丁目１０６番,35.128638,137.0663649
Vドラッグ,Ｖ・drug 羽黒店,愛知県犬山市羽黒摺墨42番１,35.3529409,136.9510513
Vドラッグ,Ｖ・drug 荒尾店,愛知県東海市荒尾町脇ノ田129番,35.0305348,136.9146169
Vドラッグ,Ｖ・drug 蒲郡店,愛知県蒲郡市宮成町１３15号,34.8335375,137.2246138
Vドラッグ,Ｖ・drug 藤が丘北店,愛知県長久手市南原山７−１,35.1860067,137.0271845
Vドラッグ,Ｖ・drug 蟹江本町店,愛知県海部郡蟹江町本町５丁目63番１,35.1375238,136.7976551
Vドラッグ,Ｖ・drug 西あたご薬局,愛知県津島市西愛宕町２丁目１７９,35.1693333,136.7327874
Vドラッグ,Ｖ・drug 西尾今川店,愛知県西尾市今川町御堂東3−４,34.85582,137.060749
Vドラッグ,Ｖ・drug 西山店,愛知県名古屋市名東区西里町２丁目４１メゾン西里,35.1552364,136.9962841
Vドラッグ,Ｖ・drug 西春店,愛知県北名古屋市沖村山ノ神28番地1,35.2375793,136.8576402
Vドラッグ,Ｖ・drug 覚王山法王町店,愛知県名古屋市千種区法王町２丁目５−１２,35.1694991,136.9571107
Vドラッグ,Ｖ・drug 豊川一宮店,愛知県豊川市一宮町宮前１１８−５,34.845702,137.417967
Vドラッグ,Ｖ・drug 豊川下長山店,愛知県豊川市下長山町堺41−１,34.8064781,137.3726555
Vドラッグ,Ｖ・drug 豊川伊奈店,愛知県豊川市伊奈町並松１８３番6,34.8013132,137.3383253
Vドラッグ,Ｖ・drug 豊川北店,愛知県豊川市新豊町２丁目４３,34.8309846,137.4034721
Vドラッグ,Ｖ・drug 豊川南店,愛知県豊川市蔵子７丁目６１−３４,34.8160641,137.3604802
Vドラッグ,Ｖ・drug 豊川店,愛知県豊川市諏訪４丁目１７９,34.8284743,137.3678277
Vドラッグ,Ｖ・drug 豊明店,愛知県豊明市大久伝町南3−１,35.0521969,137.0215631
Vドラッグ,Ｖ・drug 豊橋牛川店,愛知県豊橋市牛川町西側西部土地区画整理事業19街区2,34.7824337,137.4153445
Vドラッグ,Ｖ・drug 豊橋牟呂店,愛知県豊橋市牟呂町松島東柳生川南部土地区画整理事業70街区2,34.7462124,137.3588436
Vドラッグ,Ｖ・drug 豊橋牧野店,愛知県豊橋市牧野町６６−１,34.7384403,137.400868
Vドラッグ,Ｖ・drug 豊橋菰口店,愛知県豊橋市菰口町６丁目５６−１０,34.7715871,137.3713822
Vドラッグ,Ｖ・drug 豊橋西岩田店,愛知県豊橋市西岩田２丁目1−６,34.7543084,137.4162214
Vドラッグ,Ｖ・drug 豊田上挙母店,愛知県豊田市上挙母４丁目南星キャリックス豊田営業所,35.073061,137.1526948
Vドラッグ,Ｖ・drug 豊田四郷店,愛知県豊田市四郷町森前南18番地9,35.1201326,137.1673161
Vドラッグ,Ｖ・drug 豊田寿店,愛知県豊田市寿町２丁目５,35.0570351,137.1386138
Vドラッグ,Ｖ・drug 豊田小坂店,愛知県豊田市小坂町７丁目30−１３,35.0862997,137.1451832
Vドラッグ,Ｖ・drug 豊田東山店,愛知県豊田市渋谷町３丁目３８−１２,35.0851317,137.1905308
Vドラッグ,Ｖ・drug 豊田栄店,愛知県豊田市栄町７丁目3番８,35.0924759,137.1550632
Vドラッグ,Ｖ・drug 豊田梅坪店,愛知県豊田市東梅坪町８丁目4−１,35.103128,137.1618355
Vドラッグ,Ｖ・drug 辻本通店,愛知県名古屋市北区辻本通１丁目５５−１,35.2010618,136.9188706
Vドラッグ,Ｖ・drug 長久手南店,愛知県長久手市片平２丁目５０７,35.1603191,137.0333978
Vドラッグ,Ｖ・drug 長久手店,愛知県長久手市西浦８０１,35.17744150000001,137.0372983
Vドラッグ,Ｖ・drug 阿久比店,愛知県知多郡阿久比町植東徳吉1番１,34.920291,136.9196666
Vドラッグ,Ｖ・drug 青山店,愛知県半田市青山２丁目24−１,34.8777486,136.9148935
Vドラッグ,Ｖ・drug 香流店,愛知県名古屋市名東区猪子石原２丁目５０２,35.1930896,136.9881103
Vドラッグ,Ｖ・drug 高松店,愛知県刈谷市高松町３丁目12番地,34.9835037,137.0022611
Vドラッグ,Ｖ・drug 高浜北店,愛知県高浜市沢渡町１丁目2−１１,34.9354902,136.9892746
Vドラッグ,Ｖ・drug 高浜店,愛知県高浜市稗田町４丁目2−５,34.9245249,136.9933269
Vドラッグ,Ｖ・drug 高蔵寺店,愛知県春日井市東神明町１丁目3−８,35.27442260000001,137.024584
Vドラッグ,Ｖ・drug 鳴子北店,愛知県名古屋市天白区野並３丁目６０１,35.1015524,136.965022
Vドラッグ,Ｖ・drug 鳴海山下店,愛知県名古屋市緑区鳴海町山下59,35.0931035,136.9508866
Vドラッグ,Ｖ・drug 黄金店,愛知県名古屋市中村区白子町４丁目６２番地1階,35.1616728,136.867391
Vドラッグ,Ｖ－ドラッグ,愛知県名古屋市守山区笹ヶ根１丁目Ｖ－ドラッグ,35.2312093,137.0032885
ZIPドラッグ,DCM 三好インター店,愛知県みよし市根浦町４丁目５番地６,35.1115587,137.0908253
ZIPドラッグ,DCM 刈谷店,愛知県刈谷市日高町４丁目１０１番地,35.0068637,136.993349
ZIPドラッグ,DCM 大府店,愛知県大府市柊山町６丁目１６８,35.0176938,136.94711
ZIPドラッグ,DCM 安城福釜店,愛知県安城市福釜町矢場１６−２,34.9500861,137.0614179
ZIPドラッグ,DCM 日進竹の山店,愛知県日進市竹の山２丁目１０９１０９番地2階,35.1572949,137.0351952
ZIPドラッグ,DCM 美和店,愛知県あま市篠田稲荷２１−１２１番地１,35.1848119,136.7875239
ZIPドラッグ,DCM安城住吉店,愛知県安城市住吉町３丁目１２−１２番３号,34.9859202,137.0820674
ZIPドラッグ,DCM安城赤松店,愛知県安城市赤松町広久手５,34.9333633,137.065209
ZIPドラッグ,DCM東海店,愛知県東海市荒尾町宮ノ川６３番地,35.0267268,136.9101255
ZIPドラッグ,MEGAドン・キホーテ 春日井店,愛知県春日井市浅山町２丁目４−６,35.2557164,136.9805591
ZIPドラッグ,MEGAドン・キホーテ 東海名和店,愛知県東海市名和町日向根１００,35.0468447,136.9151534
ZIPドラッグ,MEGAドン・キホーテ 豊橋店,愛知県豊橋市藤沢町１４１,34.7445532,137.3713362
ZIPドラッグ,MEGAドン・キホーテ 豊田本店,愛知県豊田市広路町３丁目１８,35.0763142,137.1606528
ZIPドラッグ,MEGAドン・キホーテUNY 勝幡店,愛知県愛西市勝幡町弁才天2283番地60,35.194606,136.7495406
ZIPドラッグ,MEGAドン・キホーテUNY 太田川店,愛知県東海市大田町下浜田102番地１,35.0220081,136.8929959
ZIPドラッグ,MEGAドン・キホーテUNY 香久山店,愛知県日進市香久山５丁目1801番地,35.1417837,137.0266227
ZIPドラッグ,ZIP hair,愛知県刈谷市寿町３丁目３１７,34.9864019,136.9970178
ZIPドラッグ,Zipドラッグ白沢 今伊勢店,愛知県一宮市今伊勢町本神戸高野池５,35.3196922,136.7943538
ZIPドラッグ,Zipドラッグ白沢 呼続店,愛知県名古屋市南区呼続１丁目１８−１７,35.1113385,136.9272312
ZIPドラッグ,Zipドラッグ白沢 権現通店,愛知県名古屋市中村区権現通３丁目４,35.1640227,136.8735776
ZIPドラッグ,Zipドラッグ白沢 片場店,愛知県北名古屋市片場六所２,35.2469074,136.8901994
ZIPドラッグ,Zipドラッグ白沢 矢形店,愛知県瀬戸市矢形町１３１,35.1993912,137.0993986
ZIPドラッグ,Zipドラッグ白沢 花池店,愛知県一宮市花池１丁目１７−１５,35.2917175,136.7977594
ZIPドラッグ,Zipドラッグ白沢 高針店,愛知県名古屋市名東区勢子坊１丁目１１２,35.1603528,137.0102857
ZIPドラッグ,Zipファーマシー白沢 若林薬局,愛知県豊田市若林西町象面１７８,35.0283958,137.0962002
ZIPドラッグ,Zipファーマシー白沢 青山薬局,愛知県半田市青山２丁目22−３,34.8777714,136.9141573
ZIPドラッグ,Zipファーマシー白沢薬局 尾頭橋店,愛知県名古屋市中川区尾頭橋３丁目５−２４1F,35.1439285,136.8911119
ZIPドラッグ,drug store's SHOP 長久手店,愛知県長久手市戸田谷９０１−１アピタ長久手1F,35.1721159,137.0384768
ZIPドラッグ,アピタ長久手店,愛知県長久手市戸田谷９０１−１,35.1725761,137.0387347
ZIPドラッグ,アーパス たか丘店,愛知県豊橋市西小鷹野３丁目11−２,34.7739407,137.4268857
ZIPドラッグ,イトーヨーカドー 安城店,愛知県安城市住吉町３丁目１−８,34.9851083,137.0833007
ZIPドラッグ,イトーヨーカドー 知多店,愛知県知多市新知東町１丁目１０−１,34.9816314,136.8672078
ZIPドラッグ,ウエルシア半田東洋町店,愛知県半田市瑞穂町９丁目1−１,34.8904936,136.9409216
ZIPドラッグ,ウエルシア安城東栄町店,愛知県安城市東栄町６丁目22−１５,35.1335382,136.9364525
ZIPドラッグ,ウエルシア小牧久保一色店,愛知県小牧市久保一色７７７−２,35.3220248,136.9440105
ZIPドラッグ,ウエルシア清洲店,愛知県清須市清洲２３２６−２,35.2119872,136.8408426
ZIPドラッグ,ウエルシア長久手岩作店,愛知県長久手市岩作中縄手2−４,35.1828076,137.0475398
ZIPドラッグ,カインズ 半田店,愛知県半田市浜田町３丁目１０−１,34.9021985,136.9391993
ZIPドラッグ,カインズ 小牧店,愛知県小牧市二重堀字芒原81,35.29198239999999,136.9380182
ZIPドラッグ,クスリのアオキ 上重原店,愛知県知立市上重原町城後５０,34.9974655,137.0260309
ZIPドラッグ,クスリのアオキ 鯏浦店,愛知県弥富市鯏浦町下六６２−１,35.1154217,136.72066
ZIPドラッグ,クルーズ薬局尾張旭店,愛知県尾張旭市大久手町一の曽,35.2207743,137.0479634
ZIPドラッグ,ゲンキー 春日井八田店,愛知県春日井市八田町８丁目１４−６,35.2549649,136.9730309
ZIPドラッグ,ココカラファイン Zipドラッグ白沢勝幡店 - 閉業 -,愛知県愛西市勝幡町栄30,35.1936648,136.7518323
ZIPドラッグ,ココカラファイン Zipファーマシー白沢調剤薬局名港店,愛知県名古屋市港区名港２丁目９−918‐2ジップファーマシー,35.0955205,136.8830023
ZIPドラッグ,ココカラファイン あけぼの店,愛知県豊橋市曙町測点１５７−２,34.7269078,137.4011947
ZIPドラッグ,ココカラファイン つつじが丘店,愛知県豊橋市つつじが丘２丁目29−１６,34.7481584,137.4003036
ZIPドラッグ,ココカラファイン エアポートウォーク名古屋店,愛知県西春日井郡豊山町豊場林先1−８1Fエアポートウォーク名古屋内,35.245942,136.9248227
ZIPドラッグ,ココカラファイン ジップドラッグ稲沢店,愛知県稲沢市前田4丁目20,35.2492744,136.7914821
ZIPドラッグ,ココカラファイン 三本木店,愛知県豊橋市三本木町新三本木４１−１,34.7264759,137.3944491
ZIPドラッグ,ココカラファイン 共和店,愛知県大府市梶田町６丁目１７９−３,35.0333283,136.970502
ZIPドラッグ,ココカラファイン 吉川店,愛知県豊橋市吉川町１６１−１,34.7700554,137.3624802
ZIPドラッグ,ココカラファイン 名古屋栄店,愛知県名古屋市中区栄３丁目１７−１２,35.1658391,136.9068548
ZIPドラッグ,ココカラファイン 大当郎店,愛知県名古屋市中川区大当郎２丁目８０２−１,35.1329919,136.8306908
ZIPドラッグ,ココカラファイン 寺本店,愛知県知多市寺本新町１丁目１７８,34.9938865,136.8768872
ZIPドラッグ,ココカラファイン 岡崎大友店,愛知県岡崎市東大友町堀所3,34.9697671,137.1322532
ZIPドラッグ,ココカラファイン 志賀公園前店,愛知県名古屋市北区中丸町２丁目５,35.204727,136.9026757
ZIPドラッグ,ココカラファイン 比良店,愛知県名古屋市西区比良２丁目３,35.2265442,136.8967317
ZIPドラッグ,ココカラファイン 浄水店,愛知県豊田市浄水町伊保原１６２−１,35.1265518,137.133041
ZIPドラッグ,ココカラファイン 猫洞店,愛知県名古屋市千種区猫洞通３丁目１９−１,35.1672964,136.9685992
ZIPドラッグ,ココカラファイン 白沢ドラッグエイブル亀崎,愛知県半田市亀崎町５丁目232番地,34.9135646,136.9654107
ZIPドラッグ,ココカラファイン 竹の山店,愛知県日進市竹の山２丁目２４０１,35.1559021,137.0327313
ZIPドラッグ,ココカラファイン 花園店,愛知県半田市花園町５丁目2−７,34.8709905,136.9055261
ZIPドラッグ,ココカラファイン 蟹江店,愛知県海部郡蟹江町学戸６丁目１１３,35.1311865,136.7861336
ZIPドラッグ,ココカラファイン 西高師店,愛知県豊橋市西高師町沢向５,34.7219375,137.3858844
ZIPドラッグ,ココカラファイン 豊橋佐藤店,愛知県豊橋市佐藤４丁目1−７,34.7422597,137.4080912
ZIPドラッグ,ココカラファイン 阿久比店,愛知県知多郡阿久比町卯坂小曽ケ脇１０６,34.9364794,136.9219343
ZIPドラッグ,ココカラファインヨシヅヤ 勝幡店,愛知県愛西市勝幡町駒捨場１３００,35.1984893,136.7522671
ZIPドラッグ,ココカラファイン薬局 守山白山店,愛知県名古屋市守山区白山３丁目５０２,35.195085,137.0292517
ZIPドラッグ,コーナン日進店,愛知県日進市赤池町箕ノ手72番地1,35.1154198,137.0289364
ZIPドラッグ,コーナン清須東店,愛知県清須市春日立作1番地,35.2278645,136.8532223
ZIPドラッグ,サンドラッグ バロー城山店,愛知県尾張旭市新居町諏訪南１３０５一階,35.2196676,137.0410371
ZIPドラッグ,サンドラッグ プライムツリー赤池店,愛知県日進市赤池町箕ノ手1−番,35.1190554,137.0219746
ZIPドラッグ,サンドラッグ 上重原店,愛知県知立市南新地１丁目１３−２,35.0019334,137.0355333
ZIPドラッグ,サンドラッグ 半田二ツ坂店,愛知県半田市南二ツ坂町２丁目２−１５,34.8923494,136.9107753
ZIPドラッグ,サンドラッグ 半田住吉店,愛知県半田市住吉町２丁目１１４,34.906818,136.9312534
ZIPドラッグ,サンドラッグ 安城店,愛知県安城市住吉町３丁目１−８イトーヨーカド１階,34.9851083,137.0833007
ZIPドラッグ,サンドラッグ 小牧岩崎店,愛知県小牧市岩崎８９４−１岩崎山前土地区画整理事業地内68街区1-2,35.3074321,136.9315717
ZIPドラッグ,サンドラッグ 弥栄店,愛知県みよし市三好町上ヶ池１１−４,35.0812746,137.0830107
ZIPドラッグ,サンドラッグ 美園店,愛知県安城市美園町１丁目１７−７,34.9768874,137.048815
ZIPドラッグ,ジップドラッグ,愛知県北名古屋市鹿田花の木１１ジップドラッグ,35.2514989,136.8760757
ZIPドラッグ,ジップドラッグ 師勝店,愛知県北名古屋市鹿田花の木１１,35.2514989,136.8760757
ZIPドラッグ,ジップドラッグ 竜美ヶ丘店,愛知県岡崎市明大寺町大圦１−５６,34.9351486,137.1736699
ZIPドラッグ,ジップドラッグ 荒居店,愛知県碧南市三度山町３丁目１２−１,34.9135625,137.0063752
ZIPドラッグ,ジップドラッグ 飯村店,愛知県豊橋市飯村南２丁目22−２,34.7435166,137.4243577
ZIPドラッグ,ジップドラッグ権現通店,愛知県名古屋市中村区権現通３丁目４−４,35.1639876,136.8735864
ZIPドラッグ,ジップドラッグ白沢,愛知県半田市亀崎町５丁目,34.9144111,136.965634
ZIPドラッグ,ジップドラッグ白沢 伝法寺店,愛知県一宮市伝法寺９丁目4−１８,35.2624309,136.842882
ZIPドラッグ,ジップファーマシー白沢 港明調剤薬局,愛知県名古屋市港区港明１丁目１−２1F,35.11054379999999,136.8930287
ZIPドラッグ,スギドラッグ グリーンロード店,愛知県長久手市作田１丁目１１０１番地,35.1770193,137.0269887
ZIPドラッグ,スギドラッグ 三河安城店,愛知県安城市三河安城南町１丁目４番地８ピアゴラフーズコア三河安城店１階,34.9650549,137.0623409
ZIPドラッグ,スギドラッグ 上重原店,愛知県知立市上重原６丁目２１−２１,35.0005348,137.0232658
ZIPドラッグ,スギドラッグ 大府中央店,愛知県大府市柊山町１丁目58−番地,35.019241,136.9555455
ZIPドラッグ,スギドラッグ 大府北店,愛知県大府市梶田町３丁目１５８番地３,35.0371238,136.9700158
ZIPドラッグ,スギドラッグ 大府東店,愛知県大府市横根町平子１５８,35.0186133,136.9770453
ZIPドラッグ,スギドラッグ 安城中央店,愛知県安城市桜町４−１２４番１２号,34.8823156,137.061039
ZIPドラッグ,スギドラッグ 小牧中央店,愛知県小牧市中央５丁目３６６,35.2842609,136.9375827
ZIPドラッグ,スギドラッグ 小牧新町店,愛知県小牧市新町１丁目７８番地,35.2971214,136.9204248
ZIPドラッグ,スギドラッグ 弥富店,愛知県弥富市平島中４丁目５,35.1080808,136.7354315
ZIPドラッグ,スギドラッグ 新林店,愛知県知立市新林町平草３９−１,34.9898292,137.0460851
ZIPドラッグ,スギドラッグ 日進岩藤店,愛知県日進市岩藤町下原１９６−１196番地1,35.1479325,137.0539013
ZIPドラッグ,スギドラッグ 池浦店,愛知県安城市池浦町池東21番地4,34.9744692,137.0855787
ZIPドラッグ,スギドラッグ 海南店,愛知県弥富市前ケ須町南本田３３９−１,35.1086235,136.7243929
ZIPドラッグ,スギドラッグ 清洲店,愛知県清須市西市場４丁目１１番地１６,35.2199932,136.8298221
ZIPドラッグ,スギドラッグ 牛田店,愛知県知立市牛田町六反２−３,34.9963732,137.0559832
ZIPドラッグ,スギドラッグ 牛田東店,愛知県知立市牛田町湯山２５−１,34.9959903,137.0692227
ZIPドラッグ,スギドラッグ 百石店,愛知県安城市百石町２丁目１５−３,34.9481768,137.0750697
ZIPドラッグ,スギドラッグ 長久手北店,愛知県長久手市上川原２３−３,35.1870525,137.029765
ZIPドラッグ,スギドラッグ 長久手店,愛知県長久手市根の神１０８,35.1722581,137.0330294
ZIPドラッグ,スギドラッグ刈谷駅前店,愛知県刈谷市若松町１丁目72番地名鉄イン刈谷1階,34.9906373,137.0087378
ZIPドラッグ,スギドラッグ知立北店,愛知県知立市山町御手洗２番地３１,35.0066092,137.0507878
ZIPドラッグ,スギ薬局 三好ヶ丘店,愛知県みよし市三好丘５丁目１−５,35.1211988,137.1101197
ZIPドラッグ,スギ薬局 住吉店,愛知県安城市住吉町７丁目２６−８,34.9872739,137.0763235
ZIPドラッグ,スギ薬局 印場店,愛知県尾張旭市渋川町２丁目７−５,35.2067543,137.0156896
ZIPドラッグ,スギ薬局 安城篠目店,愛知県安城市篠目町肥田39番地1,34.9788997,137.0648588
ZIPドラッグ,スギ薬局 宝町店,愛知県知立市宝２丁目１０−１０,35.0058595,137.0331128
ZIPドラッグ,スギ薬局 尾張旭中央店,愛知県尾張旭市南原山町赤土２０７,35.2150101,137.0450981
ZIPドラッグ,スギ薬局 法連店,愛知県安城市法連町７−１０,34.9552052,137.0943597
ZIPドラッグ,スギ薬局 清洲東店,愛知県清須市清洲２５５４−１,35.2055626,136.8395947
ZIPドラッグ,スギ薬局 知立駅前店,愛知県知立市新富２丁目８知立駅前ビル2階,35.0054461,137.0411609
ZIPドラッグ,スギ薬局小牧岩崎店,愛知県小牧市岩崎字上ノ郷戸2000,35.3100262,136.9331643
ZIPドラッグ,スギ調剤薬局 大府店,愛知県大府市柊山町１丁目１２−１１,35.0201973,136.9538809
ZIPドラッグ,ツジ薬局 清須店,愛知県清須市東外町３６−37番地,35.2019278,136.8445475
ZIPドラッグ,ドラッグスギヤマ メグリア三好店,愛知県みよし市ひばりヶ丘２丁目1番地51Fメグリア三好店,35.1181531,137.112314
ZIPドラッグ,ドラッグスギヤマ 三好店,愛知県みよし市三好町弁財天３５,35.0888395,137.0658465
ZIPドラッグ,ドラッグスギヤマ 三郷西店,愛知県尾張旭市南原山町赤土２００ドラッグスギヤマ三郷西店,35.2148498,137.0443408
ZIPドラッグ,ドラッグスギヤマ 北本地ヶ原店,愛知県尾張旭市北本地ケ原町１丁目６１,35.1969382,137.0334441
ZIPドラッグ,ドラッグスギヤマ 印場店,愛知県尾張旭市東印場町２丁目１５−１３,35.2115447,137.0227561
ZIPドラッグ,ドラッグスギヤマ 長久手店,愛知県長久手市武蔵塚７０４,35.1713855,137.0448754
ZIPドラッグ,ドラッグセイムス 大府半月店,愛知県大府市半月町２丁目７９,35.0035848,136.9434806
ZIPドラッグ,ドラッグセイムス 東海富木島店,愛知県東海市富木島町伏見１丁目２−１２,35.0234185,136.913826
ZIPドラッグ,ドラッグセガミ 津島店,愛知県津島市津島北新開３５１ヨシヅヤ津島本店,35.1753908,136.7471095
ZIPドラッグ,ドン・キホーテ 刈谷店,愛知県刈谷市東刈谷町２丁目４−３,34.9761865,137.0396915
ZIPドラッグ,ドン・キホーテ 半田店,愛知県半田市旭町３丁目３６−１,34.8748466,136.9231279
ZIPドラッグ,ドン・キホーテ 豊田店,愛知県豊田市青木町４丁目５７,35.1175225,137.1807145
ZIPドラッグ,ドン・キホーテUNY 十四山店,愛知県弥富市鍋平２丁目47番地,35.1155916,136.7445805
ZIPドラッグ,ピアゴパワー長久手南店,愛知県長久手市市が洞２丁目１３１３,35.1621212,137.0293981
ZIPドラッグ,ファッションセンターしまむら 知多店,愛知県知多市寺本新町１丁目１６５,34.9944988,136.8768468
ZIPドラッグ,ホームセンターバロー勝幡店,愛知県愛西市勝幡町小玉出１９８０,35.193622,136.7537136
ZIPドラッグ,ヤマダデンキ テックランド アイ・モール三好店,愛知県みよし市三好町青木９１アイ・モール三好1F,35.0922408,137.079622
ZIPドラッグ,ヤマダデンキ テックランド安城店,愛知県安城市尾崎町上大縄１−２,34.9812526,137.1035798
ZIPドラッグ,ヤマダデンキ テックランド長久手店,愛知県長久手市卯塚２丁目２０１番地,35.1644146,137.0335504
ZIPドラッグ,ユニクロ 尾張旭店,愛知県尾張旭市南原山町赤土尾張旭北原山土地区画整理事業地内第１１３街区１番,35.2191158,137.050947
ZIPドラッグ,㈱ジップドラッグ 本部,愛知県名古屋市西区宝地町３４０,35.2231298,136.894973
ZIPドラッグ,佐織ドラッグ,愛知県愛西市町方町五軒家東１０−１５,35.194052,136.7312927
ZIPドラッグ,Ｖ・drug 堀越店,愛知県名古屋市西区南堀越２丁目４−７２,35.1987012,136.8753259
ZIPドラッグ,Ｖ・drug 長久手古戦場駅前薬局,愛知県長久手市山越１１４番ブラウンハウス1階,35.1710995,137.0483286
ZIPドラッグ,Ｚｉｐファーマシー白沢調剤薬局橘店,愛知県津島市橘町３丁目3−４２,35.1742037,136.7372398
ウエルシア,KoKuMiN セントラルパーク店,愛知県名古屋市中区錦3丁目地内15番13号先セントラルパーク内,35.1731756,136.9083075
ウエルシア,NARCISららぽーと安城店,愛知県安城市大東町9-30ららぽーと安城2階,34.9644591,137.0801413
ウエルシア,NARCISららぽーと愛知東郷店,愛知県愛知郡東郷町東郷中央土地区画整理事業62街区1・32階28800,35.0956962,137.0519601
ウエルシア,ウエルシアiiNEマルシェ瑞穂店,愛知県名古屋市瑞穂区大喜新町3-5-1iiNEマルシェ南棟２F,35.1277624,136.9243652
ウエルシア,ウエルシアみよし蜂ヶ池店,愛知県みよし市三好町蜂ヶ池29-91,35.0841826,137.0781485
ウエルシア,ウエルシアららぽーと愛知東郷店,愛知県愛知郡東郷町東郷中央土地区画整理事業62街区1・3ららぽーと愛知東郷1F,35.0956962,137.0519601
ウエルシア,ウエルシアイオンタウン名西店,愛知県名古屋市西区香呑町6-49-1,35.204137,136.8927904
ウエルシア,ウエルシアイオンタウン岡崎美合店,愛知県岡崎市美合町字つむぎ南1-1イオンタウン岡崎美合内1階,34.9257606,137.1854617
ウエルシア,ウエルシア一宮今伊勢店,愛知県一宮市今伊勢町馬寄字福塚前49-1,35.3306464,136.7880391
ウエルシア,ウエルシア一宮公園通店,愛知県一宮市公園通3-25,35.2972567,136.8037568
ウエルシア,ウエルシア一宮木曽川黒田店,愛知県一宮市木曽川町黒田七ノ通り78番地,35.3442325,136.7886911
ウエルシア,ウエルシア一宮駅西口店,愛知県一宮市新生1-9-1,35.3012866,136.7960558
ウエルシア,ウエルシア三河安城本町店,愛知県安城市三河安城本町2-7-1,34.9688733,137.0569039
ウエルシア,ウエルシア刈谷高倉店,愛知県刈谷市高倉町1-202,35.00126729999999,136.9969855
ウエルシア,ウエルシア半田東洋町店,愛知県半田市瑞穂町9-1-1,34.8904936,136.9409216
ウエルシア,ウエルシア名古屋上志段味店,愛知県名古屋市守山区上志段味字所下1047-1,35.25678449999999,137.0396216
ウエルシア,ウエルシア名古屋上社駅店,愛知県名古屋市名東区上社1-802,35.1737776,137.0064783
ウエルシア,ウエルシア名古屋上飯田北町店,愛知県名古屋市北区上飯田北町1-73,35.2042734,136.9320172
ウエルシア,ウエルシア名古屋丸の内2丁目店,愛知県名古屋市中区丸の内2-16-81F・2F,35.176147,136.8991995
ウエルシア,ウエルシア名古屋丸新町店,愛知県名古屋市北区丸新町31,35.2357253,136.911021
ウエルシア,ウエルシア名古屋代官町店,愛知県名古屋市東区代官町38-1,35.1748984,136.921628
ウエルシア,ウエルシア名古屋元塩町店,愛知県名古屋市南区元塩町5-6,35.0858091,136.929107
ウエルシア,ウエルシア名古屋十一屋店,愛知県名古屋市港区十一屋2-224-1,35.0946747,136.8603348
ウエルシア,ウエルシア名古屋千音寺店,愛知県名古屋市中川区千音寺1-507,35.1662748,136.8125685
ウエルシア,ウエルシア名古屋大同店,愛知県名古屋市南区滝春町1-80,35.0797954,136.9072867
ウエルシア,ウエルシア名古屋太閤店,愛知県名古屋市中村区太閤1-19-42,35.1652663,136.8815806
ウエルシア,ウエルシア名古屋寛政町店,愛知県名古屋市港区寛政町6-47,35.105045,136.8595018
ウエルシア,ウエルシア名古屋小塚店,愛知県名古屋市中川区小塚町62-1,35.1384647,136.8639116
ウエルシア,ウエルシア名古屋左京山店 (調剤薬局),愛知県名古屋市緑区四本木530,35.0711889,136.9616719
ウエルシア,ウエルシア名古屋平針駅前店,愛知県名古屋市天白区平針2-1403,35.123259,137.0068452
ウエルシア,ウエルシア名古屋曽根店,愛知県名古屋市緑区曽根2-437,35.0730985,136.956672
ウエルシア,ウエルシア名古屋森孝店,愛知県名古屋市守山区森孝1-501,35.1940007,137.000748
ウエルシア,ウエルシア名古屋横吹町店,愛知県名古屋市緑区横吹町1907-17,35.0836152,136.9936958
ウエルシア,ウエルシア名古屋法華西町店,愛知県名古屋市中川区法華西町1-5,35.131729,136.8425612
ウエルシア,ウエルシア名古屋港東通店,愛知県名古屋市南区港東通2-33,35.0920871,136.9196666
ウエルシア,ウエルシア名古屋花の木店,愛知県名古屋市西区花の木2-2-10,35.1888416,136.8870842
ウエルシア,ウエルシア名古屋萱場店,愛知県名古屋市千種区萱場2-5-19,35.1845049,136.9467121
ウエルシア,ウエルシア名古屋野並店,愛知県名古屋市天白区野並2-4441F,35.1049428,136.9556178
ウエルシア,ウエルシア大府追分店,愛知県大府市追分町2-105,35.0277186,136.957208
ウエルシア,ウエルシア天白植田店,愛知県名古屋市天白区植田1-1208,35.1296794,136.987422
ウエルシア,ウエルシア天白高坂店,愛知県名古屋市天白区高坂町88-2,35.1073318,136.9869921
ウエルシア,ウエルシア安城東栄町店,愛知県安城市東栄町6-22-15,34.9878899,137.0987319
ウエルシア,ウエルシア安城桜井町店,愛知県安城市桜井町桜西2-7-9,34.917835,137.0853544
ウエルシア,ウエルシア小牧久保一色店,愛知県小牧市久保一色777-2,35.3220248,136.9440105
ウエルシア,ウエルシア岡崎上地店,愛知県岡崎市上地3-8-11,34.915055,137.1764436
ウエルシア,ウエルシア岡崎医療センター前店,愛知県岡崎市柱西二丁目3番1,34.9236363,137.1538806
ウエルシア,ウエルシア岡崎大樹寺店,愛知県岡崎市大樹寺2-15-4,34.9843692,137.1554045
ウエルシア,ウエルシア岡崎明大寺店,愛知県岡崎市南明大寺町9-1,34.94386040000001,137.1621075
ウエルシア,ウエルシア岡崎法性寺店,愛知県岡崎市法性寺町荒子28,34.93040149999999,137.1426169
ウエルシア,ウエルシア徳川明倫店,愛知県名古屋市東区明倫町2-14,35.1838031,136.9350331
ウエルシア,ウエルシア春日井石尾台店,愛知県春日井市石尾台3-3-3,35.2942016,137.0622106
ウエルシア,ウエルシア春日井篠木店,愛知県春日井市下市場町3-7-2,35.2603853,136.9984043
ウエルシア,ウエルシア東浦生路店,愛知県知多郡東浦町生路池下119,34.9527486,136.970428
ウエルシア,ウエルシア東海加木屋店,愛知県東海市加木屋町北杜山3番地の100,34.9886415,136.9083424
ウエルシア,ウエルシア東海大田町店,愛知県東海市大田町的場106-1,35.01585,136.8941398
ウエルシア,ウエルシア東海荒尾店,愛知県東海市荒尾町丸根1-222階,35.027381,136.9100479
ウエルシア,ウエルシア武豊町富貴店,愛知県知多郡武豊町冨貴字市場18-1,34.8288799,136.9207146
ウエルシア,ウエルシア清洲店,愛知県清須市清洲2326-2,35.2119872,136.8408426
ウエルシア,ウエルシア瀬戸原山町店,愛知県瀬戸市原山町259-1,35.2152609,137.0918787
ウエルシア,ウエルシア熱田五番町店,愛知県名古屋市熱田区五番町7-21,35.1163222,136.8912728
ウエルシア,ウエルシア熱田大宝店,愛知県名古屋市熱田区大宝2-426-1,35.1289864,136.895813
ウエルシア,ウエルシア知多武豊駅東口店,愛知県知多郡武豊町道崎48-3,34.8512055,136.9172613
ウエルシア,ウエルシア稲沢前田店,愛知県稲沢市稲沢町前田4-113-1,35.24927170000001,136.791486
ウエルシア,ウエルシア蒲郡竹谷町店,愛知県蒲郡市竹谷町江尻26-2,34.8259038,137.2115509
ウエルシア,ウエルシア薬局イオンタウン有松店,愛知県名古屋市緑区鳴海町有松裏200,35.0674301,136.9724337
ウエルシア,ウエルシア薬局名駅医療モール店,愛知県名古屋市中村区太閤1-20-91F,35.16559240000001,136.8816196
ウエルシア,ウエルシア西尾駒場町店,愛知県西尾市駒場町四石目76番地,34.8673541,137.1038267
ウエルシア,ウエルシア豊川中条町店,愛知県豊川市中条町１丁目5番地,34.8163735,137.3867523
ウエルシア,ウエルシア豊川大崎町店,愛知県豊川市大崎町小林168,34.8405142,137.3764996
ウエルシア,ウエルシア豊川平尾町店,愛知県豊川市平尾町番皿36-1,34.8442234,137.3366272
ウエルシア,ウエルシア豊川蔵子店,愛知県豊川市蔵子5-16-15,34.8229426,137.354397
ウエルシア,ウエルシア豊川駅東口店,愛知県豊川市豊川町波通34-4,34.8212757,137.39879
ウエルシア,ウエルシア豊橋富士見台店,愛知県豊橋市富士見台1-1-1エンブルタウン内,34.6822624,137.3624577
ウエルシア,ウエルシア豊橋平川本町店,愛知県豊橋市平川本町1-12-2,34.7630491,137.424892
ウエルシア,ウエルシア豊橋曙町店,愛知県豊橋市曙町南松原13-1,34.7294654,137.4011454
ウエルシア,ウエルシア豊橋東森岡店,愛知県豊橋市東森岡1-11-16,34.7854042,137.4302673
ウエルシア,ウエルシア豊橋牟呂店,愛知県豊橋市牟呂町大塚56-1,34.7479563,137.3675482
ウエルシア,ウエルシア豊橋花中町店,愛知県豊橋市花中町119-1,34.7552657,137.3831844
ウエルシア,ウエルシア豊田下市場町店,愛知県豊田市下市場町6-60-1,35.0677452,137.1602783
ウエルシア,ウエルシア豊田朝日町店,愛知県豊田市朝日町2-65,35.0913411,137.1455145
ウエルシア,ウエルシア豊田緑ケ丘店,愛知県豊田市緑ケ丘5-16-1,35.0617261,137.141619
ウエルシア,ウエルシア長久手岩作店,愛知県長久手市岩作中縄手2-4,35.1828076,137.0475398
ウエルシア,ウエルシア高浜呉竹町店,愛知県高浜市呉竹町3-7-5,34.9399361,136.990481
ウエルシア,ウエルシア高浜田戸町店,愛知県高浜市田戸町4-5-25,34.9111119,136.9884815
ココカラファイン,Zipファーマシー白沢調剤薬局 大和店,愛知県一宮市大和町南高井宮腰２,35.2737612,136.7847725
ココカラファイン,ふぁいん,愛知県豊明市新田町吉池,35.0542938,137.0157449
ココカラファイン,アピタ安城南店,愛知県安城市桜井町貝戸尻60番地,34.920453,137.087734
ココカラファイン,イオンモール長久手,愛知県長久手市勝入塚501番地,35.1732454,137.0518018
ココカラファイン,ウエルシアららぽーと愛知東郷店,愛知県愛知郡東郷町和合前田1F東郷中央土地区画整理事業62街区1・3ららぽーと愛知東郷,35.0956962,137.0519601
ココカラファイン,ココカラファイン,愛知県豊橋市曙町測点１５７−２ココカラファイン,34.7269078,137.4011947
ココカラファイン,ココカラファイン Zipドラッグ白沢布袋店 - 閉業 -,愛知県江南市木賀町新開48‐1,35.325004,136.8676181
ココカラファイン,ココカラファイン アクロスプラザ稲沢店,愛知県稲沢市大塚南５丁目１−１,35.2402699,136.801726
ココカラファイン,ココカラファイン イオンモール新瑞橋店,愛知県名古屋市南区菊住１丁目７−１０イオンモール新瑞橋1Ｆ,35.1147395,136.9349509
ココカラファイン,ココカラファイン イオンモール木曽川店,愛知県一宮市木曽川町黒田西八ツケ池北ノ切字南八ｯヶ池25-1イオンモール木曽川2F,35.34987230000001,136.7735105
ココカラファイン,ココカラファイン シーズ調剤薬局 東栄店,愛知県北設楽郡東栄町三輪上栗２−４,35.0310968,137.7161325
ココカラファイン,ココカラファイン ドラッグセガミ江南店 - 閉業 -,愛知県江南市上奈良町栄61番地3号平和堂江南店内,35.3324099,136.8566383
ココカラファイン,ココカラファイン ピアゴ新城店,愛知県新城市宮ノ後６８−３ピアゴ新城店1F,34.9034856,137.4950996
ココカラファイン,ココカラファイン リーフウォーク稲沢店,愛知県稲沢市長野７丁目１−２リーフウォーク稲沢1F,35.2611582,136.8188608
ココカラファイン,ココカラファイン 伏見駅店,愛知県名古屋市中区錦２丁目16−２４先（地下鉄伏見駅中改札前）ヨリマチFUSHIMI内,35.168239,136.8975978
ココカラファイン,ココカラファイン 奥田店,愛知県知多郡美浜町奥田石畑２５０−２,34.7912055,136.8601834
ココカラファイン,ココカラファイン 岡崎伊賀店,愛知県岡崎市伊賀町３丁目４５,34.969768,137.1713939
ココカラファイン,ココカラファイン 府相店,愛知県蒲郡市府相町２丁目３４６番地,34.82299709999999,137.2351075
ココカラファイン,ココカラファイン 形原店,愛知県蒲郡市形原町編笠２４−１,34.8108695,137.1887396
ココカラファイン,ココカラファイン 日進香久山店,愛知県日進市岩崎台１丁目１２２２,35.146835,137.0243782
ココカラファイン,ココカラファイン 本宿店,愛知県岡崎市本宿西２丁目２−１１,34.8952072,137.2551705
ココカラファイン,ココカラファイン 田原店,愛知県田原市田原町新清谷５９,34.6693395,137.2601833
ココカラファイン,ココカラファイン 美合店,愛知県岡崎市美合新町53−１５,34.9242383,137.2002127
ココカラファイン,ココカラファイン 豊田吉原店,愛知県豊田市吉原町平池１６４,35.0198,137.0975143
ココカラファイン,ココカラファイン 豊田ＧＡＺＡ店,愛知県豊田市喜多町１丁目１４０GAZAビル2F,35.0879917,137.1578415
ココカラファイン,ココカラファイン 長篠店,愛知県新城市長篠字森上１−１,34.9270628,137.5645914
ココカラファイン,ココカラファイン 高道店,愛知県名古屋市中村区高道町５丁目５−６８,35.1795589,136.8639786
ココカラファイン,ココカラファインヨシヅヤ JR蟹江駅前店,愛知県海部郡蟹江町桜１丁目２１２1FヨシヅヤJR蟹江駅前店,35.1435756,136.7969708
ココカラファイン,ココカラファイン薬局 とこなめ店,愛知県常滑市飛香台４丁目13−１１,34.8968739,136.8538414
ココカラファイン,ココカラファイン薬局 リソラ大府店,愛知県大府市柊山町１丁目１７５,35.0154672,136.9575971
ココカラファイン,ココカラファイン薬局 八事日赤前店,愛知県名古屋市昭和区山手通３丁目１６−９,35.1452205,136.9648236
ココカラファイン,ココカラファイン薬局 本地店,愛知県尾張旭市緑町緑ケ丘緑ケ丘１６３,35.2145832,137.0382573
ココカラファイン,ココカラファイン薬局 津島東店,愛知県津島市東愛宕町３丁目62‐1,35.1637378,136.7403513
ココカラファイン,ココカラファイン薬局 港東海通店,愛知県名古屋市港区七番町２丁目４−２,35.1170999,136.8878514
ココカラファイン,ココカラファイン薬局 瀬戸中央店,愛知県瀬戸市陶原町３丁目１８,35.2236614,137.0893496
ココカラファイン,サンドラッグ 西枇杷島店,愛知県清須市西枇杷島町押花５,35.2008987,136.8679621
ココカラファイン,スギドラッグ 野田店,愛知県刈谷市野田町陣戸池８３−８101番地14,34.9709197,137.0326032
ココカラファイン,スギ薬局 大治店,愛知県海部郡大治町中島深田１−１2階,35.17241730000001,136.8174888
ココカラファイン,スギ薬局 新川店,愛知県清須市助七芳花２５,35.2069057,136.8570899
ココカラファイン,ドラッグストア マツモトキヨシ 安城横山店,愛知県安城市横山町大山田中１−１,34.9628351,137.0757177
ココカラファイン,ドラッグストア マツモトキヨシ 小牧原店,愛知県小牧市小牧原４丁目１２３−２,35.3019891,136.9329747
ココカラファイン,ドラッグユタカ緑境松店,愛知県名古屋市緑区境松１丁目４２５,35.0615771,136.9796631
ココカラファイン,パルファン ららぽーと愛知東郷店,愛知県愛知郡東郷町東郷中央伊勢木土地区画整理事業62街区1、3,35.0956962,137.0519601
ココカラファイン,ピアゴ ラ フーズコア三河安城店,愛知県安城市三河安城南町１丁目4番地8,34.9651107,137.0622296
ココカラファイン,ピアゴ知立店,愛知県知立市南新地１丁目2番地6,35.0025892,137.0383137
ココカラファイン,ファイン安城,愛知県西尾市城向二丁目９9番地36,34.8992622,137.132274
サンドラック,いりなか薬局,愛知県名古屋市昭和区滝川町24,35.1446244,136.9577903
サンドラック,にしの台店,愛知県知多市にしの台4-12-8,34.9797391,136.8716025
サンドラック,バロー城山店,愛知県尾張旭市新居町諏訪南1305,35.2196676,137.0410371
サンドラック,バロー城山薬局,愛知県尾張旭市新居町諏訪南1305バロー城山１Ｆ,35.21966140000001,137.041382
サンドラック,プライムツリー赤池店,愛知県日進市赤池町箕ノ手1番,35.1190554,137.0219746
サンドラック,一宮末広店,愛知県一宮市末広3-11-11,35.2926779,136.7852996
サンドラック,一宮末広薬局,愛知県一宮市末広3ー11ー11,35.2926779,136.7852996
サンドラック,一宮浅井店,愛知県一宮市浅井町尾関字上川田22-1,35.3465308,136.8305058
サンドラック,七宝店,愛知県あま市七宝町秋竹宮西583-1,35.1729913,136.8055036
サンドラック,上重原店,愛知県知立市南新地1-13-2,35.0019334,137.0355333
サンドラック,下坂店,愛知県名古屋市瑞穂区下坂町3-40,35.1231044,136.9255649
サンドラック,中小田井店,愛知県西区中小田井4-321,35.2191123,136.8731705
サンドラック,中小田井薬局,愛知県名古屋市西区中小田井4-321,35.2191123,136.8731705
サンドラック,中岩田店,愛知県豊橋市中岩田2丁目1-15,34.7532132,137.4229147
サンドラック,久地野店,愛知県北名古屋市久地野権現10,35.2370465,136.8983798
サンドラック,二川店,愛知県豊橋市大岩町字久保田9-1,34.7281474,137.4302749
サンドラック,井ヶ谷店,愛知県刈谷市井ヶ谷町下前田60,35.0585732,137.0466645
サンドラック,共和店,愛知県大府市共和町6-248,35.0313556,136.951839
サンドラック,加木屋店,愛知県東海市加木屋町大堀1-1,34.982162,136.9076128
サンドラック,勝川店,愛知県春日井市小野町2-1-1,35.2286315,136.960957
サンドラック,千種店,愛知県名古屋市中区新栄3丁目20番24号,35.1689692,136.9281953
サンドラック,千音寺店,愛知県名古屋市中川区新家1-1614,35.1578601,136.8076872
サンドラック,半城土中町店,愛知県刈谷市半城土中町三丁目24番1,34.975396,137.0172863
サンドラック,半田二ツ坂店,愛知県半田市南二ツ坂町2-2-1,34.8923676,136.9105902
サンドラック,半田住吉店,愛知県半田市住吉町2丁目114,34.906818,136.9312534
サンドラック,半田住吉薬局,愛知県半田市住吉町2-114,34.906818,136.9312534
サンドラック,味岡店,愛知県小牧市小松寺5丁目43番地,35.3089927,136.9422658
サンドラック,大坪薬局,愛知県みよし市三好町大坪22,35.0908696,137.0712425
サンドラック,大府店,愛知県大府市柊山町1ー98,35.0163301,136.9577734
サンドラック,大府薬局,愛知県大府市柊山町1-98,35.0163301,136.9577734
サンドラック,大形山店,愛知県名古屋市緑区大形山1401,35.0827454,136.9692299
サンドラック,大杉店,愛知県名古屋市北区大杉町5-85,35.1908442,136.920737
サンドラック,天白島田薬局,愛知県名古屋市天白区島田3丁目1012,35.11952,136.9786743
サンドラック,安城店,愛知県安城市住吉町3-1-8,34.9851083,137.0833007
サンドラック,安城日の出店,愛知県安城市日の出町1-21,34.9545424,137.0915808
サンドラック,富木島店,愛知県東海市富木島町伏見3丁目1番地の1,35.0168817,136.9084845
サンドラック,小牧岩崎店,愛知県小牧市大字岩崎字森元894－1,35.3100262,136.9331643
サンドラック,小牧郷中店,愛知県小牧市郷中2丁目182番地4番,35.2750005,136.91937
サンドラック,岡崎上和田店,愛知県岡崎市天白町字西池28-1,34.9349871,137.1453124
サンドラック,岡崎大和店,愛知県岡崎市大和町字西島10,34.9471761,137.1268297
サンドラック,岩倉店,愛知県岩倉市旭町1丁目11番地,35.2765579,136.8702152
サンドラック,師勝店,愛知県北名古屋市鹿田西赤土3-1,35.2497048,136.8837094
サンドラック,常滑店,愛知県常滑市千代ヶ丘5-100,34.890321,136.8485637
サンドラック,弥栄店,愛知県みよし市三好町上ヶ池11-4,35.0812746,137.0830107
サンドラック,弥栄調剤薬局,愛知県みよし市三好町弥栄11-4,35.0825857,137.0807728
サンドラック,扶桑店,愛知県丹羽郡扶桑町大字高雄字下野7,35.3655416,136.921283
サンドラック,新在家店,愛知県西尾市新在家町三四山33番地,34.861592,137.0335566
サンドラック,新知店,愛知県知多市新知字佐布見58-1,34.9805389,136.8618116
サンドラック,日進駅前店,愛知県日進市栄2-1307,35.1196826,137.0487675
サンドラック,木賀店,愛知県江南市木賀本郷町南35,35.3260407,136.8685758
サンドラック,東宿店,愛知県名古屋市中村区東宿町3丁目1番,35.1736003,136.8489008
サンドラック,植田一本松店,愛知県名古屋市天白区一本松2-607,35.1378966,136.9862233
サンドラック,植田一本松薬局,愛知県名古屋市天白区一本松2-607-1階,35.1378966,136.9862233
サンドラック,永覚新町店,愛知県豊田市永覚新町3-64-3,35.0377454,137.1384587
サンドラック,汐田橋店,愛知県豊橋市牟呂町扇田21-1,34.7523274,137.3772513
サンドラック,江南上奈良店,愛知県江南市上奈良町栄61-3,35.3323257,136.8564881
サンドラック,江南店,愛知県江南市後飛保町前川103,35.3488318,136.8488509
サンドラック,洞町店,愛知県岡崎市洞町字下荒田8-1,34.946637,137.1949901
サンドラック,津島店,愛知県津島市藤浪町2丁目8番地,35.1797678,136.7291149
サンドラック,滝の水南店,愛知県名古屋市緑区滝ノ水3ー301,35.0869434,136.978468
サンドラック,滝の水店,愛知県名古屋市緑区上旭1-1615,35.0920232,136.9742638
サンドラック,瀬戸川西店,愛知県瀬戸市川西町1丁目125,35.2173872,137.0655649
サンドラック,熊之庄店,愛知県北名古屋市熊之庄西出92,35.2560866,136.8846196
サンドラック,甚目寺森店,愛知県あま市森5丁目21-25,35.2117611,136.8117907
サンドラック,砂田橋店,愛知県名古屋市東区砂田橋1-1-10,35.1880016,136.9557695
サンドラック,碧南幸町店,愛知県碧南市幸町5丁目5,34.8879113,136.998238
サンドラック,神守店,愛知県津島市蛭間町字新田376-1,35.1848927,136.7758018
サンドラック,篠原橋東店,愛知県名古屋市中川区清川町2-1-1,35.1387694,136.8775122
サンドラック,美和店,愛知県あま市篠田南長無29-1,35.1854247,136.7865957
サンドラック,美園店,愛知県安城市美園町1-17-7,34.9768874,137.048815
サンドラック,藤が丘店,愛知県名古屋市名東区照が丘26-1,35.1780378,137.0247473
サンドラック,西枇杷島店,愛知県清須市西枇杷島町押花5,35.2008987,136.8679621
サンドラック,豊山店,愛知県西春日井郡豊山町大字豊場字下戸36番,35.2401589,136.9186418
サンドラック,豊川蔵子店,愛知県豊川市蔵子6-10-9,34.8211267,137.3583558
サンドラック,豊橋曙店,愛知県豊橋市曙町松並101-210,34.7307213,137.3887698
サンドラック,長湫薬局,愛知県長久手市原邸820,35.1844803,137.0333617
サンドラック,開明店,愛知県一宮市開明字南井保里2,35.3141974,136.7705
サンドラック,高浜店,愛知県高浜市神明町7-13-7,34.9319015,137.0015981
サンドラック,鹿山店,愛知県名古屋市緑区鹿山2-15-1,35.090436,136.9637748
スギ薬局,【オープン時期未定】スギ薬局 六名新町店,愛知県岡崎市六名新町４−１,34.9394604,137.1556655
スギ薬局,とよやま調剤薬局,愛知県西春日井郡豊山町青山東川４５,35.252734,136.9111945
スギ薬局,クスリのアオキ 扶桑店,愛知県丹羽郡扶桑町柏森寺裏26,35.3491101,136.9024012
スギ薬局,コスモス調剤薬局 豊山店,愛知県西春日井郡豊山町豊場幸田２３−４,35.2445107,136.9078302
スギ薬局,サンドラッグ いりなか店,愛知県名古屋市昭和区滝川町２４,35.1446244,136.9577903
スギ薬局,スギドラッグ おしろ下店,愛知県西尾市上町東泡原３−１,34.86910450000001,137.0485691
スギ薬局,スギドラッグ かりがね店,愛知県刈谷市築地町１丁目５−２,35.0117155,137.0184632
スギ薬局,スギドラッグ ことぶき店,愛知県春日井市ことぶき町８−３,35.2522201,136.9791479
スギ薬局,スギドラッグ みかん山店,愛知県名古屋市瑞穂区松栄町２丁目７２−１,35.1323734,136.9499997
スギ薬局,スギドラッグ アエル店,愛知県西尾市矢田１丁目10番55号,34.8507364,137.0228733
スギ薬局,スギドラッグ アピタ蒲郡店,愛知県蒲郡市港町１７−１０アピタ蒲郡店１階,34.8212568,137.2253685
スギ薬局,スギドラッグ イーアス春日井店,愛知県春日井市六軒屋町東丘２２イーアス春日井１階,35.2582665,136.9821993
スギ薬局,スギドラッグ シャンピアポート店,愛知県名古屋市昭和区白金３丁目６−２４シャンピアポート２階,35.1427303,136.9167469
スギ薬局,スギドラッグ パレマルシェ池下店,愛知県名古屋市千種区覚王山通８丁目７０番地１サンクレア池下１階,35.1673225,136.9468931
スギ薬局,スギドラッグ ピアゴ蟹江店,"愛知県海部郡蟹江町源氏３丁目230番地1,ピアゴ蟹江店内",35.1319336,136.7810146
スギ薬局,スギドラッグ フィール幸田店,愛知県額田郡幸田町菱池蔵前28番地1,34.86923,137.1669833
スギ薬局,スギドラッグ フィール日進店,愛知県日進市栄１丁目２０１FEEL日進店２階,35.1163416,137.0488756
スギ薬局,スギドラッグ メグリア朝日店,愛知県豊田市朝日町１丁目６−１,35.0928137,137.1415478
スギ薬局,スギドラッグ 一宮大浜店,愛知県一宮市大浜２丁目１−３０,35.3088057,136.8103461
スギ薬局,スギドラッグ 一宮朝日店,愛知県一宮市朝日２丁目１−２５,35.3064909,136.817041
スギ薬局,スギドラッグ 七宝店,愛知県あま市七宝町桂河原１２９２−２,35.1716586,136.8048738
スギ薬局,スギドラッグ 三河安城北店,愛知県安城市篠目町童子２０７−１４,34.9710052,137.0662474
スギ薬局,スギドラッグ 上矢田店,愛知県西尾市上矢田町郷後３１番地１,34.8516234,137.0282044
スギ薬局,スギドラッグ 二重堀店,愛知県小牧市二重堀字中西浦８１６−１,35.29198239999999,136.9380182
スギ薬局,スギドラッグ 井ケ谷店,愛知県刈谷市井ケ谷町前田１４−１,35.0604663,137.0484591
スギ薬局,スギドラッグ 今川店,愛知県西尾市今川町馬捨場３１,34.8576386,137.0589831
スギ薬局,スギドラッグ 今池南店,愛知県名古屋市千種区今池南１−１３,35.1652055,136.9374923
スギ薬局,スギドラッグ 今池東店,愛知県名古屋市千種区今池５丁目８−２０,35.1679928,136.9384705
スギ薬局,スギドラッグ 元宮店,愛知県豊田市元宮町５丁目２６−１,35.0723122,137.1635041
スギ薬局,スギドラッグ 共和店,愛知県大府市東新町１丁目１５２,35.0385914,136.9588177
スギ薬局,スギドラッグ 内山店,愛知県名古屋市千種区豊年町１４−４,35.1759176,136.9384739
スギ薬局,スギドラッグ 出来町店,愛知県名古屋市東区出来町２丁目５−２５,35.1823396,136.9365461
スギ薬局,スギドラッグ 刈谷矢場店,愛知県刈谷市矢場町５丁目３１０,34.9992195,136.9997539
スギ薬局,スギドラッグ 前山店,愛知県豊田市前山町５丁目１７−９17番地9,35.0484078,137.1678039
スギ薬局,スギドラッグ 半田星崎店,愛知県半田市星崎町３丁目３９番地８８,34.8986955,136.9239276
スギ薬局,スギドラッグ 南陽店,愛知県名古屋市港区七反野１丁目１１０９番地１,35.1137583,136.8212987
スギ薬局,スギドラッグ 原南店,愛知県名古屋市天白区原５丁目２６１２−１,35.1147625,136.9937488
スギ薬局,スギドラッグ 向山店,愛知県一宮市向山町２丁目１９−１,35.2981356,136.8085249
スギ薬局,スギドラッグ 味美店,愛知県春日井市二子町２丁目３−１５,35.22864,136.9332265
スギ薬局,スギドラッグ 在宅調剤センター一宮店,愛知県一宮市向山町２丁目8番地2東海向山ハイツ,35.2985585,136.8084066
スギ薬局,スギドラッグ 大和店,愛知県岡崎市大和町荒田６４−６４,34.949066,137.1299524
スギ薬局,スギドラッグ 大平店,愛知県岡崎市大平町沢添３６−１,34.9428358,137.1956362
スギ薬局,スギドラッグ 大我麻店,愛知県名古屋市北区会所町２２４番地,35.2360231,136.907916
スギ薬局,スギドラッグ 大曽根店,愛知県名古屋市北区大曽根１丁目２２−４６,35.190462,136.9300202
スギ薬局,スギドラッグ 大東店,愛知県大府市大東町１丁目６０４番地,35.0105267,136.9739977
スギ薬局,スギドラッグ 大樹寺店,愛知県岡崎市大樹寺１丁目３番地２６,34.9797192,137.1603052
スギ薬局,スギドラッグ 大津通店,愛知県名古屋市中区栄３丁目１５栄三丁目15番36号栄ＭＦビル1-2階,35.16626979999999,136.9079918
スギ薬局,スギドラッグ 大浜店,愛知県碧南市羽根町３丁目７番地１,34.8766303,136.9852861
スギ薬局,スギドラッグ 大野町店,愛知県名古屋市北区大野町４丁目3−番地,35.20434710000001,136.9184853
スギ薬局,スギドラッグ 守山幸心店,愛知県名古屋市守山区幸心３丁目１４０４,35.2119423,136.9497999
スギ薬局,スギドラッグ 安城アンディ店,愛知県安城市住吉町３丁目５−番28号アンディ2階,34.9804262,137.0829151
スギ薬局,スギドラッグ 宮町店,愛知県豊田市宮町５丁目５３−56番地1,35.0864762,137.1314822
スギ薬局,スギドラッグ 富士松店,愛知県刈谷市今川町山ノ端3番地,35.0275967,137.0109138
スギ薬局,スギドラッグ 富士見店,愛知県刈谷市富士見町４丁目201番地,34.9812769,136.9976176
スギ薬局,スギドラッグ 寺横店,愛知県刈谷市寺横町４丁目5番地1,34.9898942,136.9899358
スギ薬局,スギドラッグ 小幡店,愛知県名古屋市守山区小幡中１丁目１−２１,35.1996703,136.9704492
スギ薬局,スギドラッグ 尾張横須賀店,愛知県東海市養父町３丁目１２,35.0073272,136.8880403
スギ薬局,スギドラッグ 岡崎上和田店,愛知県岡崎市天白町西池６４番地１,34.9355493,137.1456931
スギ薬局,スギドラッグ 岡崎上里店,愛知県岡崎市上里３丁目２０−４20番地16,34.9929077,137.1575368
スギ薬局,スギドラッグ 岡崎西店,愛知県岡崎市上佐々木町梅ノ木１８番地１３,34.9429148,137.124654
スギ薬局,スギドラッグ 常滑北店,愛知県常滑市西之口１０丁目５５−１,34.9280444,136.829327
スギ薬局,スギドラッグ 常滑陶郷店,愛知県常滑市陶郷町４丁目1−番地,34.8876938,136.8425607
スギ薬局,スギドラッグ 平針店,愛知県名古屋市天白区中平４丁目１８０８番地ラヴィール中平１Ｆ,35.1114221,137.0009416
スギ薬局,スギドラッグ 御器所西店,愛知県466-0037日本,35.1452108,136.9299791
スギ薬局,スギドラッグ 新富店,愛知県刈谷市新富町４丁目810番地,35.0061024,137.0013457
スギ薬局,スギドラッグ 新明店,愛知県安城市新明町16番地24,34.960778,137.094199
スギ薬局,スギドラッグ 春日井中央店,愛知県春日井市春見町１,35.2478315,136.9747288
スギ薬局,スギドラッグ 本宿店,愛知県岡崎市山綱町２丁目2番地3,34.8940465,137.2537968
スギ薬局,スギドラッグ 東栄東店,愛知県安城市東栄町６丁目１８−１２,35.1335911,136.9367383
スギ薬局,スギドラッグ 東浦南店,愛知県知多郡東浦町藤江荒子6−番地,34.9404336,136.9626566
スギ薬局,スギドラッグ 東浦店,愛知県知多郡東浦町緒川家下２２−１,34.9792397,136.9693686
スギ薬局,スギドラッグ 東郷店,愛知県愛知郡東郷町春木塩田1816番地1,35.0981344,137.044959
スギ薬局,スギドラッグ 東郷西店,愛知県愛知郡東郷町三ツ池２丁目１−１,35.0966258,137.0284394
スギ薬局,スギドラッグ 松本店,愛知県犬山市松本町２丁目９５番地,35.3803504,136.9511794
スギ薬局,スギドラッグ 松河戸店,愛知県春日井市松河戸町２丁目６−２,35.2233878,136.9628486
スギ薬局,スギドラッグ 柏森店,愛知県丹羽郡扶桑町柏森長畑４１８,35.3506101,136.8996382
スギ薬局,スギドラッグ 桜井南店,愛知県安城市姫小川町姫西２丁目146番地,34.9135171,137.0839054
スギ薬局,スギドラッグ 桜井店,愛知県安城市桜井町桜井３−３,34.9173359,137.0895512
スギ薬局,スギドラッグ 桜山店,愛知県名古屋市昭和区桜山町６丁目１０４−２５,35.1405544,136.9326542
スギ薬局,スギドラッグ 桶狭間店,愛知県名古屋市緑区桶狭間森前2801番地,35.0470939,136.9637234
スギ薬局,スギドラッグ 森岡店,愛知県大府市森岡町５丁目１１−１１,35.0052446,136.9453247
スギ薬局,スギドラッグ 武豊北店,愛知県知多郡武豊町祠峯２丁目５８,34.8654303,136.9112885
スギ薬局,スギドラッグ 武豊店,愛知県知多郡武豊町平井畑２−１,34.859383,136.9119758
スギ薬局,スギドラッグ 比良店,愛知県名古屋市西区清里町３７９,35.2307024,136.8967493
スギ薬局,スギドラッグ 永覚店,愛知県豊田市永覚新町２丁目２７,35.0355385,137.1383391
スギ薬局,スギドラッグ 汐路店,愛知県名古屋市瑞穂区汐路町４丁目１−１,35.130242,136.9392741
スギ薬局,スギドラッグ 汗干店,愛知県瀬戸市汗干町６０,35.2233375,137.0808869
スギ薬局,スギドラッグ 清城店,愛知県半田市清城町３丁目５−２,34.8962483,136.9135792
スギ薬局,スギドラッグ 清水山店,愛知県名古屋市緑区桶狭間神明３９０１,35.0525284,136.9619537
スギ薬局,スギドラッグ 瀬戸菱野店,愛知県瀬戸市緑町１丁目106番地ドミー瀬戸菱野店1階,35.208558,137.0864395
スギ薬局,スギドラッグ 瀬戸陶原店,愛知県瀬戸市西権現町１６,35.2220588,137.0930656
スギ薬局,スギドラッグ 牧御堂店,愛知県岡崎市牧御堂町郷前27番地,34.9220538,137.1377011
スギ薬局,スギドラッグ 犬山中央店,愛知県犬山市犬山南古券１６６−１４,35.3757822,136.9400609
スギ薬局,スギドラッグ 玉ノ井店,愛知県一宮市木曽川町玉ノ井辻廻１４１,35.3330336,136.7652856
スギ薬局,スギドラッグ 瑞穂通店,愛知県名古屋市瑞穂区瑞穂通４丁目１５,35.1288124,136.9348328
スギ薬局,スギドラッグ 白土店,愛知県名古屋市緑区藤塚２丁目１２１５,35.1011492,137.0188595
スギ薬局,スギドラッグ 白壁店,愛知県名古屋市東区白壁５丁目８白壁フランテ,35.1834641,136.9211451
スギ薬局,スギドラッグ 石尾台店,愛知県春日井市中央台７丁目１０−２,35.2851636,137.0564774
スギ薬局,スギドラッグ 碧南伏見店,愛知県碧南市伏見町３丁目２６,34.8814178,137.0052058
スギ薬局,スギドラッグ 碧南坂口店,愛知県碧南市坂口町１丁目３７−１,34.9113827,137.0049989
スギ薬局,スギドラッグ 碧南幸店,愛知県碧南市幸町７丁目６５−６５６５番地カネスエ碧南幸町店１階,34.8847385,136.9979986
スギ薬局,スギドラッグ 碧南雨池店,愛知県碧南市雨池町１丁目２−番地,34.8656421,136.9872867
スギ薬局,スギドラッグ 神守店,愛知県津島市越津町梅之木１４,35.1779202,136.76119
スギ薬局,スギドラッグ 神田店,愛知県豊田市神田町２丁目３−２,35.0805069,137.1542614
スギ薬局,スギドラッグ 稲沢ハーモニーランド店,愛知県稲沢市稲島５丁目２,35.266746,136.792221
スギ薬局,スギドラッグ 稲沢奥田店,愛知県稲沢市奥田天目寺町8番地,35.239576,136.8068482
スギ薬局,スギドラッグ 稲沢東店,愛知県稲沢市陸田宮前１丁目１６−５,35.2624539,136.8192203
スギ薬局,スギドラッグ 稲沢西店,愛知県稲沢市天池光田町１００番地,35.2533002,136.7750848
スギ薬局,スギドラッグ 築地店,愛知県刈谷市築地町３丁目２−３2番地3,35.0163861,137.0127065
スギ薬局,スギドラッグ 篠木店,愛知県春日井市篠木町７丁目４５−２３,35.2618199,136.9937017
スギ薬局,スギドラッグ 細川店,愛知県岡崎市細川町長根８９−１,35.0226516,137.1740912
スギ薬局,スギドラッグ 美和店,愛知県あま市篠田居島６７番地３,35.188931,136.7869421
スギ薬局,スギドラッグ 美里店,愛知県豊田市美里５丁目１０−６,35.0740999,137.1816925
スギ薬局,スギドラッグ 羽塚店,愛知県西尾市羽塚町新坂６番地１,34.8621038,137.0263809
スギ薬局,スギドラッグ 羽根北店,愛知県岡崎市羽根北町５丁目５−１２,34.927748,137.1660454
スギ薬局,スギドラッグ 般若店,愛知県江南市般若町南山３１３番地,35.3631617,136.8938375
スギ薬局,スギドラッグ 若園店,愛知県豊田市若林東町上外根78番地3メグリア若園店内,35.0219709,137.0992579
スギ薬局,スギドラッグ 蒲郡中央店,愛知県蒲郡市新井町１５−３１９−４,34.8310669,137.2320701
スギ薬局,スギドラッグ 蒲郡北店,愛知県蒲郡市蒲郡町荒子６７−１,34.8338951,137.2304872
スギ薬局,スギドラッグ 蟹江店,愛知県海部郡蟹江町学戸１丁目２０,35.1368178,136.7824981
スギ薬局,スギドラッグ 西尾シャオ店,愛知県西尾市下町御城下23番地１1階おしろタウンシャオ1階,34.8678521,137.0454408
スギ薬局,スギドラッグ 西尾一色南店,愛知県西尾市一色町対米洲田１１−１,34.806546,137.0329915
スギ薬局,スギドラッグ 西尾一色店,愛知県西尾市一色町一色古新田２９番地１,34.8144779,137.0291922
スギ薬局,スギドラッグ 西尾桜町店,愛知県西尾市桜町５丁目２２,34.88085,137.0617684
スギ薬局,スギドラッグ 西尾道光寺店,愛知県西尾市道光寺町堰板２４−１,34.8723701,137.0606209
スギ薬局,スギドラッグ 西春店,愛知県北名古屋市沖村東ノ郷１６−１,35.24071720000001,136.8620009
スギ薬局,スギドラッグ 谷口店,愛知県名古屋市千種区谷口町５−２４,35.1836775,136.9532884
スギ薬局,スギドラッグ 豊明三崎店,愛知県豊明市三崎町丸ノ内２−１８,35.0514697,137.0105726
スギ薬局,スギドラッグ 豊田リスタ店,愛知県豊田市柿本町２丁目１３−１３豊田１Ｆ,35.0772749,137.1226642
スギ薬局,スギドラッグ 豊田高崎店,愛知県豊田市高崎町北ノ脇３０−１６,35.0945168,137.1146247
スギ薬局,スギドラッグ 赤池店,愛知県日進市赤池町箕ノ手2番地330,35.11397,137.0287919
スギ薬局,スギドラッグ 針崎店,愛知県岡崎市針崎２丁目１０−２,34.9174556,137.1554569
スギ薬局,スギドラッグ 長篠店,愛知県新城市長篠広面２９,34.9249212,137.5572418
スギ薬局,スギドラッグ 長草店,愛知県大府市長草町田面１４７,35.0285222,136.9447547
スギ薬局,スギドラッグ 阿久比南店,愛知県知多郡阿久比町阿久比宮前１９番地１,34.9295893,136.9175803
スギ薬局,スギドラッグ 青木店,愛知県豊田市青木町１丁目７０−１８,35.1224506,137.1827431
スギ薬局,スギドラッグ 香久山店,愛知県日進市岩崎台１丁目1−１２２９,35.1466245,137.0239166
スギ薬局,スギドラッグ 高松店,愛知県刈谷市高松町３丁目４８,34.9827047,137.0015327
スギ薬局,スギドラッグ 高蔵寺北店,愛知県春日井市東神明町１丁目１２番地４,35.273381,137.0251652
スギ薬局,スギドラッグ 鶴城店,愛知県西尾市伊藤２丁目１番地２,34.88145799999999,137.0530598
スギ薬局,スギドラッグ東区役所前店,愛知県名古屋市東区筒井１丁目７−６５,35.1789326,136.9262154
スギ薬局,スギドラッグ桜山南店,愛知県名古屋市瑞穂区瑞穂通１丁目６番地１エスポア瑞穂１階,35.1372572,136.9332022
スギ薬局,スギドラッグ清水が丘店,愛知県知多市清水が丘２丁目９０９,34.9889501,136.8752559
スギ薬局,スギホールディングス 大府センター,愛知県大府市横根町新江６２−１,35.0098046,136.9868007
スギ薬局,スギ小牧センター,愛知県丹羽郡大口町秋田２丁目２６８,35.3197524,136.90603
スギ薬局,スギ薬局,愛知県豊田市三軒町７丁目３０−１,35.0832343,137.1387327
スギ薬局,スギ薬局,愛知県春日井市鷹来町３１８１−１スギ薬局,35.2760939,136.9623654
スギ薬局,スギ薬局 ウイングタウン羽根店,愛知県岡崎市羽根町小豆坂３−番地ＷｉｎＧｔｏＷｎ１階,34.923442,137.174844
スギ薬局,スギ薬局 クロスモール豊川店,愛知県豊川市正岡町胡麻田722番地クロスモール豊川内,34.800706,137.3877438
スギ薬局,スギ薬局 ドミー幸田店,"愛知県額田郡幸田町菱池御林１３０130番地,ドミー幸田店内",34.86272659999999,137.1720065
スギ薬局,スギ薬局 三谷北店,愛知県蒲郡市三谷北通４丁目９８,34.8208667,137.240342
スギ薬局,スギ薬局 上地店,愛知県岡崎市上地２丁目５−８,34.9133277,137.165953
スギ薬局,スギ薬局 上地１丁目店,愛知県岡崎市上地１丁目２４−２,34.9056962,137.1634206
スギ薬局,スギ薬局 上池店,愛知県半田市大高町２丁目３５−１,34.9230786,136.9493586
スギ薬局,スギ薬局 上飯田店,愛知県名古屋市北区平安２丁目４−４１,35.198272,136.9320632
スギ薬局,スギ薬局 下地店,愛知県豊橋市下地町操穴39番地3,34.7871034,137.3875623
スギ薬局,スギ薬局 中区役所前店,愛知県名古屋市中区新栄町１丁目５栄中央ビル1階,35.1694799,136.9103417
スギ薬局,スギ薬局 中川一色新町店,愛知県名古屋市中川区一色新町３丁目１４０１,35.1262038,136.8299382
スギ薬局,スギ薬局 中川南店,愛知県名古屋市中川区中島新町４丁目103番地,35.1235501,136.8553518
スギ薬局,スギ薬局 中町店,愛知県半田市中町４丁目４０,34.8876387,136.9257935
スギ薬局,スギ薬局 乙川店,愛知県半田市一ノ草町２０４番地３,34.9157343,136.9447093
スギ薬局,スギ薬局 二川店,愛知県豊橋市大岩町西郷内１５０番地１,34.7276797,137.4427093
スギ薬局,スギ薬局 二村台店,愛知県豊明市二村台２丁目１８−９,35.0624065,137.0073419
スギ薬局,スギ薬局 井原南店,愛知県豊橋市井原町４８番地１,34.7641527,137.4230167
スギ薬局,スギ薬局 井原店,愛知県豊橋市井原町２９番地１,34.7665748,137.4223498
スギ薬局,スギ薬局 井田店,愛知県岡崎市井田町１丁目８２−１,34.9748184,137.1712323
スギ薬局,スギ薬局 今池店,愛知県名古屋市千種区今池１丁目１１−５,35.1678804,136.9364836
スギ薬局,スギ薬局 住崎店,愛知県西尾市住崎町雁渕８,34.8612725,137.0452131
スギ薬局,スギ薬局 佐屋店,愛知県愛西市日置町山の池６９,35.1663456,136.7311343
スギ薬局,スギ薬局 六軒屋店 312号店,愛知県春日井市六軒屋町５丁目２２,35.2567003,136.9763455
スギ薬局,スギ薬局 共栄店,愛知県大府市共栄町８丁目１１−４,35.0386628,136.9564112
スギ薬局,スギ薬局 刈谷広小路店,愛知県刈谷市広小路２丁目１３,34.9868948,136.9935686
スギ薬局,スギ薬局 刈谷松栄店,愛知県刈谷市松栄町２丁目１５−１１,34.97819,137.0335494
スギ薬局,スギ薬局 前後店,愛知県豊明市前後町五軒屋１５３４−１,35.0565946,136.9940789
スギ薬局,スギ薬局 加木屋店,愛知県東海市加木屋町西平子18−１,34.9932541,136.906779
スギ薬局,スギ薬局 北山本町店,愛知県名古屋市昭和区山脇町３丁目１２,35.1534464,136.927103
スギ薬局,スギ薬局 千音寺店,愛知県名古屋市中川区新家３丁目1304番地,35.1555723,136.8041152
スギ薬局,スギ薬局 南加木屋店,愛知県東海市養父町竹ケ谷192番地4,34.9894394,136.9007819
スギ薬局,スギ薬局 原店,愛知県名古屋市天白区原２丁目６０６,35.1244747,136.9949676
スギ薬局,スギ薬局 古知野店,愛知県江南市飛高町泉221番地,35.3407342,136.8632322
スギ薬局,スギ薬局 吉良店,愛知県西尾市吉良町吉田桐杭16番地4,34.8009042,137.067983
スギ薬局,スギ薬局 名古屋大学病院店,愛知県名古屋市昭和区鶴舞町65番地,35.1585314,136.9199669
スギ薬局,スギ薬局 名和店,愛知県東海市名和町八幡前４９−１,35.0552267,136.9170841
スギ薬局,スギ薬局 向島店,愛知県名古屋市中村区向島町５丁目２８−１１,35.1626663,136.8506104
スギ薬局,スギ薬局 在宅調剤センター半田店,愛知県半田市星崎町３丁目37番地の1星崎ビル1階,34.8990519,136.9246896
スギ薬局,スギ薬局 在宅調剤センター安城店,愛知県安城市法連町7番地10,34.9552052,137.0943597
スギ薬局,スギ薬局 在宅調剤センター長久手荒田店,愛知県長久手市荒田１０２102番地,35.1863955,137.0285083
スギ薬局,スギ薬局 城北店 48号店,愛知県名古屋市北区金田町３丁目２２−２２,35.2079969,136.9172784
スギ薬局,スギ薬局 堀の内店,愛知県小牧市堀の内２丁目６０,35.2912603,136.9087344
スギ薬局,スギ薬局 大手店,愛知県春日井市大手町３丁目２１−６,35.2650958,136.9576584
スギ薬局,スギ薬局 大高南店,愛知県名古屋市緑区南大高１丁目108番地,35.0573428,136.9415452
スギ薬局,スギ薬局 安城錦町店,愛知県安城市錦町３−４３番４号,34.9728751,137.1621474
スギ薬局,スギ薬局 寺津店,愛知県西尾市徳永町大塚32番地1,34.8435792,137.0226978
スギ薬局,スギ薬局 尾西三条店,愛知県一宮市三条郷南東５７−１,35.3058386,136.7616569
スギ薬局,スギ薬局 尾西北店,愛知県一宮市小信中島川東３番地１,35.3115552,136.7473944
スギ薬局,スギ薬局 山之手店,愛知県豊田市山之手７丁目７７−１,35.0553559,137.1442418
スギ薬局,スギ薬局 岡崎コムタウン店,愛知県岡崎市上六名町林２５番地１,34.9517793,137.1548708
スギ薬局,スギ薬局 岡崎北店,愛知県岡崎市百々西町５−１,34.9904308,137.1677377
スギ薬局,スギ薬局 岡崎欠町店,愛知県岡崎市欠町下口17番地2,34.9587412,137.1571369
スギ薬局,スギ薬局 岡崎ＮＥＷＳ店,愛知県岡崎市不吹町１番地２フィールＮＥＷＳ店１階,34.9274333,137.1795106
スギ薬局,スギ薬局 岩成台店,愛知県春日井市岩成台５丁目２−７,35.2767928,137.0413357
スギ薬局,スギ薬局 岩滑店,愛知県半田市岩滑中町１丁目５１番地,34.9111238,136.9246479
スギ薬局,スギ薬局 市場店,愛知県常滑市市場町１丁目２０番地,34.8817515,136.8399594
スギ薬局,スギ薬局 常滑インター店,愛知県常滑市飛香台４丁目１−２,34.8982288,136.8527245
スギ薬局,スギ薬局 幡豆店,愛知県西尾市西幡豆町山副５２−６,34.7956439,137.1144693
スギ薬局,スギ薬局 平坂店,愛知県西尾市平坂町如月18ｰ1,34.8607392,137.0169845
スギ薬局,スギ薬局 幸田店,愛知県額田郡幸田町大草山添１３０１３０番地,34.8726755,137.1749075
スギ薬局,スギ薬局 幸田相見店,愛知県額田郡幸田町相見越丸４９49番地,34.8877784,137.16485
スギ薬局,スギ薬局 弥富通店,愛知県名古屋市瑞穂区彌富通３丁目２９−２９,35.1181058,136.9506483
スギ薬局,スギ薬局 御器所店,愛知県名古屋市昭和区阿由知通４丁目１５リーブル御器所１Ｆ,35.1479198,136.934068
スギ薬局,スギ薬局 愛西藤浪店,愛知県愛西市見越町前田159番地3,35.1841887,136.7338573
スギ薬局,スギ薬局 戸田店,愛知県名古屋市中川区戸田西３丁目1707番地,35.1369312,136.8026827
スギ薬局,スギ薬局 新城店,愛知県新城市片山西野畑５４５,34.8988996,137.4977958
スギ薬局,スギ薬局 新林店,愛知県知立市新林町平草４７−１１,34.9892871,137.0465002
スギ薬局,スギ薬局 新知店,愛知県知多市新知西町８−７,34.9847965,136.8630233
スギ薬局,スギ薬局 新知東店,愛知県知多市新知東町２丁目1番地5,34.9808829,136.8680221
スギ薬局,スギ薬局 新舞子店,愛知県知多市新舞子大口２０３−７,34.9511281,136.8323602
スギ薬局,スギ薬局 有楽店,愛知県半田市有楽町７丁目７丁目136番地,34.8730022,136.9167856
スギ薬局,スギ薬局 本山店,愛知県名古屋市千種区末盛通５丁目12番地マックスバリュ本山店2階,35.1643148,136.963221
スギ薬局,スギ薬局 東刈谷店,愛知県刈谷市東刈谷町１丁目１８−１５,34.9769157,137.0404841
スギ薬局,スギ薬局 東大友店,愛知県岡崎市東大友町堀所４４番地１,34.9702776,137.1322878
スギ薬局,スギ薬局 東岩田店,愛知県豊橋市東岩田１丁目11番地7,34.7545194,137.429955
スギ薬局,スギ薬局 東新町店,愛知県名古屋市中区栄４丁目６−１５,35.1689708,136.9142837
スギ薬局,スギ薬局 東柳原店,愛知県津島市東柳原町１丁目３０,35.1754825,136.7380982
スギ薬局,スギ薬局 東栄店,愛知県安城市東栄町３丁目807番地1,34.9586216,137.0803649
スギ薬局,スギ薬局 東海橋店,愛知県名古屋市港区新川町３丁目地先,35.1147417,136.8776801
スギ薬局,スギ薬局 東田店,愛知県440-0053日本,34.7638205,137.4083019
スギ薬局,スギ薬局 東野店,愛知県春日井市東野町西３丁目４番１０,35.2704346,136.9795323
スギ薬局,スギ薬局 柏森駅南店,愛知県丹羽郡扶桑町柏森天神１１８,35.3442416,136.8996613
スギ薬局,スギ薬局 梅坪店,愛知県豊田市京町３丁目１０２−３,35.1087422,137.1662463
スギ薬局,スギ薬局 極楽店,愛知県名古屋市名東区高針台２丁目１４０３−１1403番地の1,35.1583628,137.019472
スギ薬局,スギ薬局 榎戸店,愛知県常滑市明和町１丁目1−１３１３番地,34.9031353,136.8310356
スギ薬局,スギ薬局 橋目店,愛知県岡崎市橋目町竹之内４５−１,34.9812169,137.1382303
スギ薬局,スギ薬局 武豊南店,愛知県知多郡武豊町東大高浦之島４２,34.8335288,136.9205504
スギ薬局,スギ薬局 毛受店,愛知県一宮市大和町毛受正寺１０−番地,35.29744910000001,136.7815866
スギ薬局,スギ薬局 水野店,愛知県瀬戸市本郷町３８４,35.2461298,137.0700107
スギ薬局,スギ薬局 沓掛店,愛知県豊明市沓掛町丘下１２−１,35.0669146,137.0158209
スギ薬局,スギ薬局 深田店,愛知県豊田市深田町１丁目５５−１,35.0682635,137.1244118
スギ薬局,スギ薬局 瀬戸西山店,愛知県瀬戸市西山町１丁目１７,35.2190499,137.0599155
スギ薬局,スギ薬局 熊味店,愛知県西尾市八ツ面町熊子山３８−１,34.8719426,137.0724861
スギ薬局,スギ薬局 牟呂店,愛知県豊橋市東脇４丁目２２−１２,34.7497949,137.3614822
スギ薬局,スギ薬局 犬山西店,愛知県犬山市上坂町５丁目２０９,35.372731,136.9295099
スギ薬局,スギ薬局 石巻店,愛知県豊橋市石巻本町東野１５−３９,34.8032914,137.4407229
スギ薬局,スギ薬局 砂田橋店,愛知県名古屋市東区砂田橋５丁目３−１４,35.1873684,136.9598185
スギ薬局,スギ薬局 砂美店,愛知県名古屋市港区砂美町２６,35.1044837,136.8657548
スギ薬局,スギ薬局 碧南城山店,愛知県碧南市城山町１丁目６,34.8941192,137.0072831
スギ薬局,スギ薬局 碧南新川店,愛知県碧南市相生町５丁目４５−１,34.9020072,136.989962
スギ薬局,スギ薬局 祖父江店,愛知県稲沢市祖父江町上牧戌亥出818番地1,35.2522736,136.7215777
スギ薬局,スギ薬局 神野店,愛知県豊橋市神野新田町ロノ割字口ノ割７０−１ドミー神野店内,34.744232,137.351653
スギ薬局,スギ薬局 稲沢市民病院前店,愛知県稲沢市長束町観音寺田１８８,35.2422613,136.8099647
スギ薬局,スギ薬局 稲熊店,愛知県岡崎市稲熊町２丁目１００,34.968409,137.1759791
スギ薬局,スギ薬局 竹村店,愛知県豊田市竹元町上の山下１,35.0319859,137.1130301
スギ薬局,スギ薬局 竹谷店,愛知県蒲郡市竹谷町下日山下日山２０−１,34.8298164,137.2069214
スギ薬局,スギ薬局 花ノ木店,愛知県西尾市花ノ木町３丁目１７番,34.8660583,137.0570901
スギ薬局,スギ薬局 荒尾店,愛知県東海市荒尾町平古１−１,35.0423063,136.9104918
スギ薬局,スギ薬局 蒲郡店,愛知県蒲郡市平田町向田字向田２４-１,34.8311892,137.2420071
スギ薬局,スギ薬局 蒲郡府相店,愛知県蒲郡市府相町２丁目３４６,34.82299709999999,137.2351075
スギ薬局,スギ薬局 蒲郡西店,愛知県蒲郡市竹谷町前浜15番地1,34.8253258,137.2055949
スギ薬局,スギ薬局 藤岡店,愛知県豊田市西中山町牛田６３−１,35.1513114,137.1784856
スギ薬局,スギ薬局 西尾調剤店,愛知県西尾市熊味町中泡原391,34.8728623,137.0665135
スギ薬局,スギ薬局 西岩田店,愛知県豊橋市西岩田１丁目４番地８,34.7544021,137.4176029
スギ薬局,スギ薬局 豊川一宮店,愛知県豊川市一宮町栄２０１201番地,34.8552972,137.4214693
スギ薬局,スギ薬局 豊明寺池店,愛知県豊明市沓掛町寺池９１番地,35.0605705,137.0178719
スギ薬局,スギ薬局 豊橋三本木店,愛知県豊橋市三本木町元三本木７９番地１,34.72375050000001,137.3952144
スギ薬局,スギ薬局 豊橋中浜店,愛知県豊橋市中浜町２１９−６８,34.7423259,137.3723
スギ薬局,スギ薬局 豊橋南店,愛知県豊橋市大清水町大清水３−１１８２３番地１１８２豊橋南プラザ,34.6994066,137.3545011
スギ薬局,スギ薬局 豊橋曙店,愛知県豊橋市曙町若松１０３−１,34.730231,137.399889
スギ薬局,スギ薬局 豊橋花田店,愛知県豊橋市花田町中ノ坪１２番地２,34.7680388,137.3734311
スギ薬局,スギ薬局 豊田吉原店,愛知県豊田市吉原町平池１５４−１,35.0200969,137.0976228
スギ薬局,スギ薬局 豊田高上店,愛知県豊田市高上１丁目１５−５,35.0911538,137.1830559
スギ薬局,スギ薬局 野立橋店,愛知県名古屋市中川区清川町４丁目１番地１８,35.1352053,136.8778449
スギ薬局,スギ薬局 開明店,愛知県一宮市奥町田畑３１−１,35.3250189,136.771625
スギ薬局,スギ薬局 阿久比店,愛知県知多郡阿久比町白沢天神裏５−１,34.9561023,136.9151162
スギ薬局,スギ薬局 陣中店,愛知県豊田市陣中町２丁目１４−３,35.0943254,137.1644822
スギ薬局,スギ薬局 青山店,愛知県半田市青山４丁目１−４,34.8830241,136.9061109
スギ薬局,スギ薬局 青竹店,愛知県豊橋市青竹町八間西１０−１,34.7606872,137.3517083
スギ薬局,スギ薬局 飯村店,愛知県豊橋市西口町土橋１０番１,34.7429302,137.4181715
スギ薬局,スギ薬局 飯村東店,愛知県豊橋市飯村北４丁目８−６,34.7461056,137.4289951
スギ薬局,スギ薬局 高屋店,愛知県江南市高屋町御日塚６８−１,35.3525274,136.8767039
スギ薬局,スギ薬局 高横須賀店,愛知県東海市高横須賀町５丁目１２９番地,35.0123783,136.8958984
スギ薬局,スギ薬局 高蔵寺店,愛知県春日井市高蔵寺町１丁目４６,35.2626648,137.0366317
スギ薬局,スギ薬局 鴨田店,愛知県岡崎市鴨田町荒子１１番地３の２,34.9828718,137.1702421
スギ薬局,スギ薬局 黒笹店,愛知県みよし市黒笹いずみ１丁目１０−９,35.1283812,137.0921057
スギ薬局,スギ薬局グループ スギドラッグ 太平通店,愛知県名古屋市中川区宮脇町２丁目７−番地,35.1351946,136.8667723
スギ薬局,スギ薬局乙川南店,愛知県半田市乙川町８３番地,34.9035336,136.9395352
スギ薬局,スギ薬局在宅調剤センター蒲郡新井店,愛知県蒲郡市新井町南３１９番地４,34.83059739999999,137.2325829
スギ薬局,スギ薬局堤本町店,愛知県豊田市堤本町本地14番地,35.0505309,137.0778255
スギ薬局,スギ薬局小牧南店,愛知県小牧市北外山１２１５−１,35.2756714,136.928102
スギ薬局,スギ薬局桜山調剤店,愛知県名古屋市昭和区桜山町６丁目サンオーメゾン,35.1404702,136.9325271
スギ薬局,スギ薬局羽塚店,愛知県西尾市羽塚町新坂１０,34.8620521,137.027355
スギ薬局,ドラッグスギ パルネス前後店,愛知県豊明市前後町善江１７３５番地パルネス前後B１階,35.0529774,136.9955525
スギ薬局,ドラッグスギヤマ 塩付通店,愛知県名古屋市昭和区塩付通６丁目７８−７８,35.1431478,136.938417
スギ薬局,ドラッグスギヤマ 安城店,愛知県安城市城南町１丁目４−９,34.9535014,137.0787932
スギ薬局,ドラッグスギヤマ 扶桑店,愛知県丹羽郡扶桑町高雄宮島２２２,35.3627638,136.9157621
スギ薬局,ドラッグスギヤマ 春岡通店,愛知県名古屋市千種区春岡通７丁目２８−１,35.1550281,136.9389696
スギ薬局,ドラッグスギヤマ 杁中店,愛知県名古屋市昭和区滝川町31番地8,35.143146,136.9561876
スギ薬局,ドラッグスギヤマ 津島北店,愛知県津島市松原町２８−３,35.1823983,136.7245062
スギ薬局,ドラッグスギヤマ 石川橋店,愛知県名古屋市瑞穂区上山町１丁目15番地,35.1384093,136.9457664
スギ薬局,ドラッグスギヤマ 竹の山店,愛知県日進市竹の山３丁目９０６−１,35.1548244,137.0380899
スギ薬局,ドラッグスギヤマ 米野木店,愛知県日進市米野木台２丁目２６０８,35.1255034,137.0630841
スギ薬局,ヤナギ薬局,愛知県海部郡飛島村古政成１丁目２５−１,35.0749734,136.7850548
ツルハドラッグ,B&Dドラッグストア 一宮千秋店,愛知県一宮市千秋町加納馬場字大山2274-8,35.3025449,136.8645102
ツルハドラッグ,B&Dドラッグストア 一宮森本店,愛知県一宮市森本1丁目11－22,35.29272710000001,136.8125839
ツルハドラッグ,B&Dドラッグストア 七宝店,愛知県あま市七宝町桂親田１４番地,35.1714164,136.800165
ツルハドラッグ,B&Dドラッグストア 上小田井店,愛知県名古屋市西区南川町２８８番１,35.2210433,136.8832485
ツルハドラッグ,B&Dドラッグストア 上飯田店,愛知県名古屋市北区上飯田南町1丁目21番地,35.2025329,136.9304341
ツルハドラッグ,B&Dドラッグストア 中小田井店,愛知県名古屋市西区中小田井2丁目140番地,35.2125702,136.8711215
ツルハドラッグ,B&Dドラッグストア 原店,愛知県名古屋市天白区原4丁目117番地,35.1227553,136.9940995
ツルハドラッグ,B&Dドラッグストア 味鋺店,愛知県名古屋市北区中味鋺3丁目708番地,35.2229937,136.922728
ツルハドラッグ,B&Dドラッグストア 国府宮店,愛知県稲沢市国府宮4丁目18-5,35.2579493,136.8088148
ツルハドラッグ,B&Dドラッグストア 宮町店,愛知県春日井市如意申町4丁目5番地3,35.250145,136.9460085
ツルハドラッグ,B&Dドラッグストア 小牧西之島店,愛知県小牧市弥生町16番地,35.29445,136.9007571
ツルハドラッグ,B&Dドラッグストア 岩塚店,愛知県名古屋市中村区豊国通6-40,35.1567109,136.8538904
ツルハドラッグ,B&Dドラッグストア 岩野店,愛知県春日井市岩野町２丁目６－４,35.264847,136.961661
ツルハドラッグ,B&Dドラッグストア 師勝店,愛知県北名古屋市鹿田坂巻１３５番地,35.256016,136.8756481
ツルハドラッグ,B&Dドラッグストア 平針店,愛知県名古屋市天白区平針二丁目１５０７番地,35.123402,137.0060606
ツルハドラッグ,B&Dドラッグストア 猪高店,愛知県名古屋市名東区八前２丁目９０５番地,35.1815186,136.9893459
ツルハドラッグ,B&Dドラッグストア 藤が丘南店,愛知県名古屋市名東区照が丘１８５番地,35.1763318,137.0245397
ツルハドラッグ,B&Dドラッグストア 豊田大林店,愛知県豊田市大林町13丁目5番13,35.0474044,137.1422635
ツルハドラッグ,B&Dドラッグストア 辻町店,愛知県名古屋市北区辻町２丁目２０番１,35.2058522,136.9232423
ツルハドラッグ,B&Dドラッグストア 高蔵寺コスモスガーデン店,愛知県春日井市松本町１丁目１１－３,35.2729374,137.0235946
ツルハドラッグ,B&Dドラッグストア 鳥居松店,愛知県春日井市鳥居松町２丁目２３７番地,35.2427315,136.9699886
ツルハドラッグ,B&D調剤薬局 ささしまグローバルゲート店,愛知県名古屋市中村区平池町４丁目６０番地１２ささしまグローバルゲート５階,35.1626256,136.8839399
ツルハドラッグ,B&D調剤薬局 小牧店,愛知県小牧市常普請２丁目３０５番地,35.2829678,136.920218
ツルハドラッグ,B&D調剤薬局 志賀公園店,愛知県名古屋市北区平手町1丁目13番地,35.2039915,136.9025254
ツルハドラッグ,B&D調剤薬局 新守山店,愛知県名古屋市守山区金屋1丁目１０－２６,35.2030962,136.9515587
ツルハドラッグ,B&D調剤薬局 豊田松ヶ枝店,愛知県豊田市松ヶ枝町2丁目55番地,35.0825559,137.1561276
ツルハドラッグ,ツルハドラッグ アルテ太平通店,愛知県名古屋市中川区八家町３丁目２８番地,35.1288144,136.8705366
ツルハドラッグ,ツルハドラッグ コスモ千代が丘店,愛知県名古屋市千種区千代が丘５番５０号,35.17983359999999,136.9830154
ツルハドラッグ,ツルハドラッグ フィールネットワーク店,愛知県春日井市如意申町５丁目７－１,35.2499576,136.9506863
ツルハドラッグ,ツルハドラッグ 一社店,愛知県名古屋市名東区高社1丁目266番地ラウンドスポット一社１Ｆ,35.1685363,136.9955807
ツルハドラッグ,ツルハドラッグ 中央台店,愛知県春日井市中央台７丁目８番地１５号,35.2871516,137.0558255
ツルハドラッグ,ツルハドラッグ 中川富田店,愛知県名古屋市中川区長須賀２丁目７０８番地,35.1458971,136.8272095
ツルハドラッグ,ツルハドラッグ 八田店,愛知県名古屋市中村区岩塚町字西枝1－1,35.1495456,136.8483695
ツルハドラッグ,ツルハドラッグ 刈谷一ツ木店,愛知県刈谷市一ツ木町2丁目5番１２,35.0103086,137.0235672
ツルハドラッグ,ツルハドラッグ 則武店,愛知県名古屋市中村区松原町2丁目61番地,35.17566770000001,136.8720463
ツルハドラッグ,ツルハドラッグ 味美店,愛知県春日井市味美白山町2丁目9番地ベルニシキ１Ｆ,35.233446,136.931791
ツルハドラッグ,ツルハドラッグ 塩釜口店,愛知県名古屋市天白区元八事４丁目８４番地,35.1315454,136.9782086
ツルハドラッグ,ツルハドラッグ 大曽根駅店,愛知県名古屋市東区矢田南5丁目2番6号,35.1887613,136.9368426
ツルハドラッグ,ツルハドラッグ 大野木店,愛知県名古屋市西区市場木町304番地,35.21759249999999,136.8913936
ツルハドラッグ,ツルハドラッグ 天白山根店,愛知県名古屋市天白区山根町63番地,35.1096567,136.9766552
ツルハドラッグ,ツルハドラッグ 如意申店,愛知県春日井市如意申町3丁目13-11,35.245589,136.9490998
ツルハドラッグ,ツルハドラッグ 小牧藤島店,愛知県小牧市藤島町梵天１９,35.2699686,136.8880974
ツルハドラッグ,ツルハドラッグ 岡崎仁木店,愛知県岡崎市仁木町字川越256,35.0196602,137.1697131
ツルハドラッグ,ツルハドラッグ 岡崎康生店,愛知県岡崎市康生通西３丁目１５番２,34.9588612,137.1615756
ツルハドラッグ,ツルハドラッグ 島田橋店,愛知県名古屋市天白区道明町１０６番地,35.1251637,136.9737632
ツルハドラッグ,ツルハドラッグ 平和堂豊成店,愛知県名古屋市中川区豊成町１番５３号,35.1560719,136.876092
ツルハドラッグ,ツルハドラッグ 春日井下津店,愛知県春日井市下津町北島266番,35.2267708,136.9823322
ツルハドラッグ,ツルハドラッグ 春日井篠木店,愛知県春日井市篠木町7丁目18番地22,35.2575594,136.9933796
ツルハドラッグ,ツルハドラッグ 本山駅店,愛知県名古屋市千種区東山通一丁目１０番地１本山メディカルステーション1階,35.1638058,136.9645447
ツルハドラッグ,ツルハドラッグ 東郷店,愛知県愛知郡東郷町東郷中央土地区画整理事業２３街区７,35.0956962,137.0519601
ツルハドラッグ,ツルハドラッグ 東野店,愛知県春日井市東野町７丁目３－１１,35.2657769,136.985221
ツルハドラッグ,ツルハドラッグ 柳瀬町店,愛知県名古屋市中川区柳瀬町1丁目11番地1号,35.1466806,136.8509073
ツルハドラッグ,ツルハドラッグ 植田南店,愛知県名古屋市天白区植田南2丁目401番地,35.1275886,136.9835848
ツルハドラッグ,ツルハドラッグ 植田店,愛知県名古屋市天白区井口１丁目１１４番,35.1287931,136.9920924
ツルハドラッグ,ツルハドラッグ 津島店,愛知県津島市愛宕町三丁目４０番地１,35.1697535,136.7354743
ツルハドラッグ,ツルハドラッグ 浅間町店,愛知県名古屋市西区幅下１丁目１１番２０号,35.1828169,136.8907396
ツルハドラッグ,ツルハドラッグ 清須店,愛知県清須市清洲１１３０番地,35.2126164,136.8355572
ツルハドラッグ,ツルハドラッグ 滝の水店,愛知県名古屋市緑区滝ノ水1丁目401,35.0899627,136.9758032
ツルハドラッグ,ツルハドラッグ 滝子店,愛知県名古屋市昭和区滝子通３丁目１０－１,35.1401487,136.923784
ツルハドラッグ,ツルハドラッグ 焼山店,愛知県名古屋市天白区焼山二丁目３０４番地,35.1444732,136.9934513
ツルハドラッグ,ツルハドラッグ 瑠璃光店,愛知県名古屋市北区瑠璃光町1丁目7番,35.1973397,136.9239648
ツルハドラッグ,ツルハドラッグ 稲沢パールシティ店,愛知県稲沢市井之口大坪町８０－１,35.2373483,136.818984
ツルハドラッグ,ツルハドラッグ 篭山店,愛知県名古屋市緑区砂田２丁目１０１番地,35.0805183,136.9828223
ツルハドラッグ,ツルハドラッグ 西春店,愛知県北名古屋市西之保青野東３５番地,35.2478102,136.8677979
ツルハドラッグ,ツルハドラッグ 豊が丘店,愛知県名古屋市名東区藤里町３０３番地,35.18927,137.0121748
ツルハドラッグ,ツルハドラッグ 豊田前山店,愛知県豊田市前山町４丁目２１－１,35.0474994,137.1672276
ツルハドラッグ,ツルハドラッグ 豊田若林店,愛知県豊田市若林東町新屋敷２７番地１４,35.0257437,137.1025198
ツルハドラッグ,ツルハドラッグ 長久手東浦店,愛知県長久手市東浦１００９番地,35.1751405,137.0451737
ツルハドラッグ,ツルハドラッグ 高蔵寺白山店,愛知県春日井市白山町4丁目10番地10,35.2705338,137.0306888
ツルハドラッグ,ツルハドラッグ 鳴子店,愛知県名古屋市緑区鳴子町１丁目５４－１,35.0977559,136.9671848
ツルハドラッグ,ツルハドラッグ 鹿田清水店,愛知県北名古屋市鹿田清水38-1,35.2526372,136.8732143
ツルハドラッグ,ツルハ薬局 みなと入場店,愛知県名古屋市港区入場1丁目502番地みなとメディカルステーション1階,35.1103843,136.8552187
ツルハドラッグ,ツルハ薬局 ラウンドスポット一社店,愛知県名古屋市名東区高社１丁目２６６番地ラウンドスポット一社３Ｆ,35.1685363,136.9955807
ツルハドラッグ,ツルハ薬局 一社店,愛知県名古屋市名東区高社２丁目１１５番地一社メディカルステーションビル1階,35.1686273,136.9963209
ツルハドラッグ,ツルハ薬局 宝地店,愛知県名古屋市西区宝地町９番地,35.2222386,136.8912847
ツルハドラッグ,ツルハ薬局 新安城駅前店,愛知県安城市東栄町１丁目7－22新安城駅前メディカルビル１F,34.9877938,137.0848787
ツルハドラッグ,ツルハ薬局 浅間町店,愛知県名古屋市西区幅下1丁目11番20号,35.1828169,136.8907396
ツルハドラッグ,ツルハ薬局 滝子店,愛知県名古屋市昭和区滝子通3丁目6-1,35.1401139,136.9234682
ツルハドラッグ,ツルハ薬局 藤が丘店,愛知県名古屋市名東区藤見が丘２５番２藤が丘メディカルステーションビル1階,35.1804944,137.0233459
ツルハドラッグ,ツルハ薬局 野並店,愛知県名古屋市天白区古川町158,35.1017408,136.9549989
ツルハドラッグ,調剤薬局ツルハドラッグ 八勝通店,愛知県名古屋市瑞穂区八勝通２丁目１３番地,35.1261028,136.950492
ツルハドラッグ,調剤薬局ツルハドラッグ 刈谷一ツ木店,愛知県刈谷市一ツ木町2丁目5番１２,35.0103086,137.0235672
ツルハドラッグ,調剤薬局ツルハドラッグ 勝川駅店,愛知県春日井市松新町1丁目3番地ルネッサンスシティ勝川１番街1階101号,35.2303366,136.9554281
ツルハドラッグ,調剤薬局ツルハドラッグ 又穂店,愛知県名古屋市西区又穂町１丁目７６,35.2054452,136.900109
ツルハドラッグ,調剤薬局ツルハドラッグ 尾頭橋店,愛知県名古屋市中川区尾頭橋3丁目4-19,35.143824,136.8916819
ツルハドラッグ,調剤薬局ツルハドラッグ 日進赤池店,愛知県日進市赤池3丁目2001番地,35.1174569,137.0185865
ツルハドラッグ,調剤薬局ツルハドラッグ 春日井柏原店,愛知県春日井市柏原町2丁目84,35.2425208,136.9587753
ツルハドラッグ,調剤薬局ツルハドラッグ 清須店,愛知県清須市清洲1130番地,35.2126164,136.8355572
ツルハドラッグ,調剤薬局ツルハドラッグ 滝の水店,愛知県名古屋市緑区滝ノ水1丁目401,35.0899627,136.9758032
ツルハドラッグ,調剤薬局ツルハドラッグ 牧の原店,愛知県名古屋市名東区牧の原三丁目３０１番地,35.1509144,136.9987775
ツルハドラッグ,調剤薬局ツルハドラッグ 瑠璃光店,愛知県名古屋市北区瑠璃光町1丁目7番地,35.1973397,136.9239648
ツルハドラッグ,調剤薬局ツルハドラッグ 稲沢パールシティ店,愛知県稲沢市井之口大坪町80-1,35.2373483,136.818984
ツルハドラッグ,調剤薬局ツルハドラッグ 豊田若林店,愛知県豊田市若林東町新屋敷27番地１４,35.0257437,137.1025198
ツルハドラッグ,調剤薬局ツルハドラッグ 長久手東浦店,愛知県長久手市東浦1009番地,35.1751405,137.0451737
ドラッグスギヤマ,スギヤマ薬品 八事店,愛知県名古屋市昭和区広路町石坂2-1イオン八事店【本館】Ｂ3Ｆ,35.1367317,136.9626635
ドラッグスギヤマ,スギヤマ薬品 栄店,愛知県名古屋市中区栄3-5-12栄地下街,35.1700475,136.9085322
ドラッグスギヤマ,スギヤマ薬品 栄東店,愛知県名古屋市中区栄3-5-12先栄地下街,35.1688291,136.9085788
ドラッグスギヤマ,スギヤマ薬品 池下店,愛知県名古屋市千種区池下2-1-14,35.1686785,136.9458427
ドラッグスギヤマ,スギヤマ調剤薬局 ケアガーデン春日井店,愛知県春日井市下市場町4-13-11,35.260614,137.0027759
ドラッグスギヤマ,スギヤマ調剤薬局 サンクレア池下店,愛知県名古屋市千種区覚王山通8-70サンクレア池下東棟4F,35.1673225,136.9468931
ドラッグスギヤマ,スギヤマ調剤薬局 中村日赤前店,愛知県名古屋市中村区元中村町三丁目3番地,35.1705655,136.8623245
ドラッグスギヤマ,スギヤマ調剤薬局 今池店,愛知県名古屋市千種区今池4-11-5,35.1692341,136.9384972
ドラッグスギヤマ,スギヤマ調剤薬局 小牧店,愛知県小牧市常普請1-303,35.2875686,136.9182231
ドラッグスギヤマ,スギヤマ調剤薬局 尾張旭店,愛知県尾張旭市平子ヶ丘町2-2-16,35.2230379,137.0157259
ドラッグスギヤマ,スギヤマ調剤薬局 島田店,愛知県名古屋市天白区土原4-402,35.1126426,136.9847832
ドラッグスギヤマ,スギヤマ調剤薬局 平手店,愛知県名古屋市北区平手町1丁目10番地,35.203452,136.9016726
ドラッグスギヤマ,スギヤマ調剤薬局 御器所アレルギー店,愛知県名古屋市昭和区阿由知通4-7(処方せんは御器所店にて受付致します),35.1488551,136.933945
ドラッグスギヤマ,スギヤマ調剤薬局 御器所店,愛知県名古屋市昭和区阿由知通4-7,35.1488551,136.933945
ドラッグスギヤマ,スギヤマ調剤薬局 春日井店,愛知県春日井市南下原町3丁目5番地5,35.26998210000001,136.9701685
ドラッグスギヤマ,スギヤマ調剤薬局 西志賀店,愛知県名古屋市北区西志賀町1丁目117番5,35.2013014,136.9019126
ドラッグスギヤマ,スギヤマ調剤薬局 豊川店,愛知県豊川市八幡町鐘鋳場120番地の2,34.8294573,137.3508675
ドラッグスギヤマ,スギヤマ調剤薬局 豊橋店,愛知県豊橋市青竹町字青竹92,34.7622692,137.3476488
ドラッグスギヤマ,スギヤマ調剤薬局 高見店,愛知県名古屋市千種区高見1-1-5ヨコチビル,35.1732916,136.9433527
ドラッグスギヤマ,ドラッグスギヤマ さくら店,愛知県名古屋市南区桜台1-23-15,35.1072991,136.9367529
ドラッグスギヤマ,ドラッグスギヤマ メグリア三好店,愛知県みよし市ひばりヶ丘2丁目1番地5メグリア三好店（1Fテナント）,35.1181531,137.112314
ドラッグスギヤマ,ドラッグスギヤマ ユータウンながくて店,愛知県長久手市市が洞２丁目1313番地,35.1621212,137.0293981
ドラッグスギヤマ,ドラッグスギヤマ 三ノ輪店,愛知県豊橋市三ノ輪町字本興寺15-2,34.7474224,137.4105217
ドラッグスギヤマ,ドラッグスギヤマ 三好店,愛知県みよし市三好町弁財天35番地,35.0888395,137.0658465
ドラッグスギヤマ,ドラッグスギヤマ 三河一宮店,愛知県豊川市一宮町旭3番1,34.8585729,137.4268953
ドラッグスギヤマ,ドラッグスギヤマ 三郷店,愛知県尾張旭市三郷町中井田83番地,35.2144982,137.0539497
ドラッグスギヤマ,ドラッグスギヤマ 三郷西店,愛知県尾張旭市南原山町赤土200番地,35.2147832,137.044391
ドラッグスギヤマ,ドラッグスギヤマ 中島新町店,愛知県名古屋市中川区中島新町2丁目1507番地,35.1283752,136.8488745
ドラッグスギヤマ,ドラッグスギヤマ 仲田店,愛知県名古屋市千種区仲田一丁目11番21号,35.1724673,136.9426644
ドラッグスギヤマ,ドラッグスギヤマ 住吉店,愛知県一宮市住吉1丁目19番6,35.2977904,136.7896521
ドラッグスギヤマ,ドラッグスギヤマ 入場店,愛知県名古屋市港区入場1-2205,35.1114937,136.8519017
ドラッグスギヤマ,ドラッグスギヤマ 八事石坂店,愛知県名古屋市天白区八事石坂411番地1,35.134957,136.9643819
ドラッグスギヤマ,ドラッグスギヤマ 六軒屋店,愛知県春日井市六軒屋町三丁目172番地,35.2611739,136.9784261
ドラッグスギヤマ,ドラッグスギヤマ 加木屋店,愛知県東海市加木屋町大清水564,34.9774999,136.9092425
ドラッグスギヤマ,ドラッグスギヤマ 北本地ヶ原店,愛知県尾張旭市北本地ヶ原町1-61,35.1969382,137.0334441
ドラッグスギヤマ,ドラッグスギヤマ 千代田店,愛知県名古屋市守山区小幡南3-1-41,35.1982232,136.9827742
ドラッグスギヤマ,ドラッグスギヤマ 南陽店,愛知県名古屋市港区小賀須4-617,35.1134583,136.8273445
ドラッグスギヤマ,ドラッグスギヤマ 印場店,愛知県尾張旭市東印場町二丁目15番地13,35.2115447,137.0227561
ドラッグスギヤマ,ドラッグスギヤマ 古知野店,愛知県江南市古知野町宮前128番地,35.3375544,136.8655188
ドラッグスギヤマ,ドラッグスギヤマ 名東本通店,愛知県名古屋市名東区名東本通4丁目25番地,35.159791,136.9994155
ドラッグスギヤマ,ドラッグスギヤマ 四軒家店,愛知県名古屋市守山区白山2-101-1,35.1948837,137.0263464
ドラッグスギヤマ,ドラッグスギヤマ 四郷店,愛知県豊田市上原町一丁田30番地1,35.1174773,137.1661639
ドラッグスギヤマ,ドラッグスギヤマ 坂下店,愛知県春日井市坂下町4丁目613番地（ナフコ坂下店建物内）,35.2914623,137.0204964
ドラッグスギヤマ,ドラッグスギヤマ 城西店,愛知県名古屋市西区城西3-5-1,35.187154,136.8919717
ドラッグスギヤマ,ドラッグスギヤマ 塩付通店,愛知県名古屋市昭和区塩付通6丁目78番地,35.1431478,136.938417
ドラッグスギヤマ,ドラッグスギヤマ 多加木店,愛知県一宮市多加木2-3-5,35.2800839,136.8112609
ドラッグスギヤマ,ドラッグスギヤマ 多米店,愛知県豊橋市多米西町3-6-2,34.76233879999999,137.4378719
ドラッグスギヤマ,ドラッグスギヤマ 大永寺店,愛知県名古屋市守山区川宮町64番地,35.2096345,136.9608778
ドラッグスギヤマ,ドラッグスギヤマ 大治店,愛知県海部郡大治町大字馬島字山西39,35.1730249,136.8181313
ドラッグスギヤマ,ドラッグスギヤマ 大野木店,愛知県名古屋市西区歌里町41,35.2188075,136.8918902
ドラッグスギヤマ,ドラッグスギヤマ 天白島田店,愛知県名古屋市天白区島田五丁目101番地,35.1186896,136.9721029
ドラッグスギヤマ,ドラッグスギヤマ 奥条店,愛知県常滑市奥条4-98,34.8420789,136.8658256
ドラッグスギヤマ,ドラッグスギヤマ 安城店,愛知県安城市城南町1-4-9,34.9535014,137.0787932
ドラッグスギヤマ,ドラッグスギヤマ 宝店,愛知県蒲郡市宝町377-2,34.8265409,137.2223437
ドラッグスギヤマ,ドラッグスギヤマ 宮上店,愛知県豊田市宮上町三丁目58番地2,35.0903447,137.1381582
ドラッグスギヤマ,ドラッグスギヤマ 岡崎中町店,愛知県岡崎市中町5丁目7-7,34.9548291,137.1794268
ドラッグスギヤマ,ドラッグスギヤマ 平子店,愛知県名古屋市南区平子2丁目9番18号,35.1143497,136.9436037
ドラッグスギヤマ,ドラッグスギヤマ 康生通店,愛知県名古屋市西区康生通一丁目20番地1,35.1973236,136.8882087
ドラッグスギヤマ,ドラッグスギヤマ 形原店,愛知県蒲郡市形原町亀井30番地の1,34.8032079,137.1832139
ドラッグスギヤマ,ドラッグスギヤマ 扶桑店,愛知県丹羽郡扶桑町大字高雄字宮島222,35.3627638,136.9157621
ドラッグスギヤマ,ドラッグスギヤマ 新出来店,愛知県名古屋市東区新出来2-4-1,35.1809847,136.9316096
ドラッグスギヤマ,ドラッグスギヤマ 新城店,愛知県新城市南畑37-5,34.897157,137.4896978
ドラッグスギヤマ,ドラッグスギヤマ 新城東店,愛知県新城市平井字原125番地1,34.9063152,137.5091709
ドラッグスギヤマ,ドラッグスギヤマ 春岡通店,愛知県名古屋市千種区春岡通7-28-1,35.1550281,136.9389696
ドラッグスギヤマ,ドラッグスギヤマ 朝日ヶ丘店,愛知県豊田市三軒町8-97-1,35.0810289,137.1413411
ドラッグスギヤマ,ドラッグスギヤマ 木曽川店,愛知県一宮市木曽川町黒田一の通り3番地,35.3481567,136.7742649
ドラッグスギヤマ,ドラッグスギヤマ 本地店,愛知県瀬戸市西原町2-95,35.2087363,137.0644939
ドラッグスギヤマ,ドラッグスギヤマ 杁中店,愛知県名古屋市昭和区滝川町31番地8,35.143146,136.9561876
ドラッグスギヤマ,ドラッグスギヤマ 杉栄店,愛知県名古屋市北区杉栄町二丁目38番地,35.1912209,136.9241023
ドラッグスギヤマ,ドラッグスギヤマ 松原店,愛知県名古屋市中区松原3丁目4番5号,35.15404,136.8964982
ドラッグスギヤマ,ドラッグスギヤマ 松降通店,愛知県一宮市松降通8-5,35.3158119,136.8084915
ドラッグスギヤマ,ドラッグスギヤマ 柴田店,愛知県名古屋市南区鳴浜町５丁目１-１-２エディオン柴田店内,35.0747295,136.9181364
ドラッグスギヤマ,ドラッグスギヤマ 植田店,愛知県名古屋市天白区元植田1-906,35.1375446,136.9908052
ドラッグスギヤマ,ドラッグスギヤマ 永覚店,愛知県豊田市宝町玉泉133-2,35.0391259,137.1314538
ドラッグスギヤマ,ドラッグスギヤマ 津島北店,愛知県津島市松原町28番地3,35.1500968,136.756527
ドラッグスギヤマ,ドラッグスギヤマ 清水店,愛知県名古屋市北区清水三丁目12番9号,35.1894357,136.9115843
ドラッグスギヤマ,ドラッグスギヤマ 白壁店,愛知県名古屋市東区芳野一丁目1番5号,35.1840899,136.9197497
ドラッグスギヤマ,ドラッグスギヤマ 石川橋店,愛知県名古屋市瑞穂区上山町1丁目15番地,35.1384093,136.9457664
ドラッグスギヤマ,ドラッグスギヤマ 神の倉店,愛知県名古屋市緑区藤塚1-103,35.0607891,136.9479004
ドラッグスギヤマ,ドラッグスギヤマ 竹の山店,愛知県日進市竹の山三丁目906番地の1,35.1548244,137.0380899
ドラッグスギヤマ,ドラッグスギヤマ 笠寺店,愛知県名古屋市南区白雲町169,35.0952162,136.9407201
ドラッグスギヤマ,ドラッグスギヤマ 筒井店,愛知県名古屋市東区筒井三丁目１８番６号,35.1746239,136.9325915
ドラッグスギヤマ,ドラッグスギヤマ 米野木店,愛知県日進市米野木台二丁目2608番地,35.1255034,137.0630841
ドラッグスギヤマ,ドラッグスギヤマ 緑店,愛知県一宮市緑3-10-20,35.2992782,136.8179057
ドラッグスギヤマ,ドラッグスギヤマ 美里店,愛知県豊田市広川町10-55-1,35.0829109,137.1812324
ドラッグスギヤマ,ドラッグスギヤマ 舟原店,愛知県豊橋市舟原町174,34.7627256,137.4004769
ドラッグスギヤマ,ドラッグスギヤマ 花園店,愛知県豊田市花園土地区画整理事業54街区1メグリアはなぞの店内,35.0082974,137.0794415
ドラッグスギヤマ,ドラッグスギヤマ 花田店,愛知県豊橋市花田町字荒木49-1,34.7671141,137.370426
ドラッグスギヤマ,ドラッグスギヤマ 藤が丘北店,愛知県長久手市荒田11番地1,35.186641,137.028108
ドラッグスギヤマ,ドラッグスギヤマ 西山台店,愛知県名古屋市名東区西山台145-1,35.1524928,136.9977221
ドラッグスギヤマ,ドラッグスギヤマ 西岩田店,愛知県豊橋市豊岡町205番地,34.755711,137.4221135
ドラッグスギヤマ,ドラッグスギヤマ 豊岡通店,愛知県名古屋市瑞穂区豊岡通1丁目24番地の2,35.1265817,136.9303204
ドラッグスギヤマ,ドラッグスギヤマ 豊川インター店,愛知県豊川市豊が丘町192番地,34.8392574,137.410577
ドラッグスギヤマ,ドラッグスギヤマ 豊店,愛知県名古屋市南区豊4-18-48,35.1083287,136.9199855
ドラッグスギヤマ,ドラッグスギヤマ 豊明店,愛知県豊明市西川町笹原2番地24,35.0569973,137.0101999
ドラッグスギヤマ,ドラッグスギヤマ 豊橋中浜店,愛知県豊橋市中浜町212,34.7394733,137.3755605
ドラッグスギヤマ,ドラッグスギヤマ 豊田浄水店,愛知県豊田市浄水町一丁目56番地6,35.089197,137.1218997
ドラッグスギヤマ,ドラッグスギヤマ 豊田足助店,愛知県豊田市足助町宮ノ後6番地1,35.1340821,137.3097039
ドラッグスギヤマ,ドラッグスギヤマ 赤重店,愛知県瀬戸市幡野町295番1,35.2117125,137.0832784
ドラッグスギヤマ,ドラッグスギヤマ 野見山店,愛知県豊田市泉町二丁目28番地,35.0702641,137.1893354
ドラッグスギヤマ,ドラッグスギヤマ 金城店,愛知県名古屋市北区金城四丁目5番1号,35.1937222,136.9046223
ドラッグスギヤマ,ドラッグスギヤマ 長久手店,愛知県長久手市武蔵塚704,35.1713855,137.0448754
ドラッグスギヤマ,ドラッグスギヤマ 陣中店,愛知県豊田市陣中町２丁目１番地1,35.0967372,137.164181
ドラッグスギヤマ,ドラッグスギヤマ 香久山店,愛知県名古屋市名東区梅森坂三丁目2108番地,35.1466068,137.0193153
ドラッグスギヤマ,ドラッグスギヤマ 香流店,愛知県名古屋市名東区山の手3丁目101番地,35.18604240000001,136.9927191
ドラッグスギヤマ,ドラッグスギヤマ 高師店,愛知県豊橋市上野町字上野124番地6,34.7243637,137.3918473
ドラッグスギヤマ,ドラッグスギヤマ 黒沢台店,愛知県名古屋市緑区黒沢台4-1610,35.0970037,136.9939498
ドラッグユタカ,ドラッグユタカ あま甚目寺店,愛知県あま市甚目寺山之浦146番1,35.198002,136.8222158
ドラッグユタカ,ドラッグユタカ あま甚目寺店,愛知県あま市甚目寺山之浦146番1住所愛知県名古屋市千種区覚王山通7丁目11番地チカシン池下2F住所愛知県稲沢市小池2丁目14番17住所愛知県岩倉市大地新町1丁目72番地住所愛知県名古屋市天白区植田3丁目1204番地住所愛知県名古屋市北区大曽根3丁目12番32号住所愛知県名古屋市緑区桶狭間3708番地住所愛知県名古屋市西区浅間2丁目5-11住所愛知県刈谷市高津波町四丁目507住所愛知県弥富市佐古木3丁目295-2住所愛知県愛西市北一色町東田面20番1住所愛知県春日井市庄名町二丁目4-2住所愛知県名古屋市守山区新守山2830住所愛知県瀬戸市新郷町11-1番住所愛知県愛知郡東郷町白鳥2丁目16-12住所愛知県名古屋市港区東茶屋一丁目642番地住所愛知県日進市岩崎町石兼24番地8住所愛知県日進市香久山西部土地区画整理事業24街区28番住所愛知県刈谷市末広町2丁目7-8住所愛知県名古屋市中村区上ﾉ宮町1丁目20番地1住所愛知県名古屋市緑区境松一丁目425住所愛知県名古屋市天白区植田西2丁目802番ﾏｲﾝ塩釜1階,35.1676265,136.9457595
ドラッグユタカ,ドラッグユタカ あま甚目寺店,愛知県あま市甚目寺山之浦146番1住所愛知県名古屋市千種区覚王山通7丁目11番地チカシン池下2F住所愛知県稲沢市小池2丁目14番17住所愛知県岩倉市大地新町1丁目72番地住所愛知県名古屋市天白区植田3丁目1204番地住所愛知県名古屋市北区大曽根3丁目12番32号住所愛知県名古屋市緑区桶狭間3708番地住所愛知県名古屋市西区浅間2丁目5-11住所愛知県刈谷市高津波町四丁目507住所愛知県弥富市佐古木3丁目295-2住所愛知県愛西市北一色町東田面20番1住所愛知県春日井市庄名町二丁目4-2住所愛知県名古屋市守山区新守山2830住所愛知県瀬戸市新郷町11-1番住所愛知県愛知郡東郷町白鳥2丁目16-12住所愛知県名古屋市港区東茶屋一丁目642番地住所愛知県日進市岩崎町石兼24番地8住所愛知県日進市香久山西部土地区画整理事業24街区28番住所愛知県刈谷市末広町2丁目7-8住所愛知県名古屋市中村区上ﾉ宮町1丁目20番地1住所愛知県名古屋市緑区境松一丁目425住所愛知県名古屋市天白区植田西2丁目802番ﾏｲﾝ塩釜1階愛知県：22店舗,35.1676265,136.9457595
ドラッグユタカ,ドラッグユタカ 佐古木店,愛知県弥富市佐古木3丁目295-2,35.117123,136.7542724
ドラッグユタカ,ドラッグユタカ 佐屋店,愛知県愛西市北一色町東田面20番1,35.147129,136.7297641
ドラッグユタカ,ドラッグユタカ 刈谷高津波店,愛知県刈谷市高津波町四丁目507,35.0010863,136.9917551
ドラッグユタカ,ドラッグユタカ 南陽店,愛知県名古屋市港区東茶屋一丁目642番地,35.1096383,136.826822
ドラッグユタカ,ドラッグユタカ 大曽根駅店,愛知県名古屋市北区大曽根3丁目12番32号,35.1917093,136.9364065
ドラッグユタカ,ドラッグユタカ 岩倉店,愛知県岩倉市大地新町1丁目72番地,35.2749267,136.8697521
ドラッグユタカ,ドラッグユタカ 庄名店,愛知県春日井市庄名町二丁目4-2,35.276284,137.0253463
ドラッグユタカ,ドラッグユタカ 押切店,愛知県名古屋市西区浅間2丁目5-11,35.1854029,136.8867763
ドラッグユタカ,ドラッグユタカ 新守山店,愛知県名古屋市守山区新守山2830,35.2055053,136.948271
ドラッグユタカ,ドラッグユタカ 日進岩崎店,愛知県日進市岩崎町石兼24番地8,35.1462647,137.0288792
ドラッグユタカ,ドラッグユタカ 日進香久山店,愛知県日進市香久山西部土地区画整理事業24街区28番,35.1358351,137.0230102
ドラッグユタカ,ドラッグユタカ 本陣店,愛知県名古屋市中村区上ﾉ宮町1丁目20番地1,35.1765591,136.8633445
ドラッグユタカ,ドラッグユタカ 東刈谷店,愛知県刈谷市末広町2丁目7-8,34.9724115,137.0474873
ドラッグユタカ,ドラッグユタカ 東郷店,愛知県愛知郡東郷町白鳥2丁目16-12,35.111688,137.0516571
ドラッグユタカ,ドラッグユタカ 桶狭間店,愛知県名古屋市緑区桶狭間3708番地,35.0494509,136.9715916
ドラッグユタカ,ドラッグユタカ 植田駅前店,愛知県名古屋市天白区植田3丁目1204番地,35.1282467,136.9884435
ドラッグユタカ,ドラッグユタカ 池下店,愛知県名古屋市千種区覚王山通7丁目11番地チカシン池下2F,35.1676265,136.9457595
ドラッグユタカ,ドラッグユタカ 瀬戸新郷店,愛知県瀬戸市新郷町11-1番,35.2146428,137.0860748
ドラッグユタカ,ドラッグユタカ 稲沢小池店,愛知県稲沢市小池2丁目14番17,35.2500238,136.8117413
ドラッグユタカ,ドラッグユタカ 緑境松店,愛知県名古屋市緑区境松一丁目425,35.0615771,136.9796631
ドラッグユタカ,ユタカ薬局在宅調剤センター名古屋,愛知県名古屋市天白区植田西2丁目802番ﾏｲﾝ塩釜1階,35.1333091,136.9826569
マツモトキヨシ,イオン三好ショッピングセンター,愛知県みよし市三好町青木９１,35.09256870000001,137.0792706
マツモトキヨシ,ウエルシアみよし蜂ヶ池店,愛知県みよし市三好町蜂ヶ池２９−９１,35.0841826,137.0781485
マツモトキヨシ,ウエルシア瀬戸原山町店,愛知県瀬戸市原山町２５９−１,35.2152609,137.0918787
マツモトキヨシ,ウエルシア蒲郡竹谷町店,愛知県蒲郡市竹谷町江尻２６−２,34.8259038,137.2115509
マツモトキヨシ,エディオン 碧南店,愛知県碧南市中後町３丁目18番,34.8910172,136.999852
マツモトキヨシ,エディオン 豊明店,愛知県豊明市三崎町中ノ坪26番地7,35.0530929,137.0104039
マツモトキヨシ,クスリのアオキ 春日店,愛知県清須市春日宮重１２４,35.2330527,136.83698
マツモトキヨシ,クスリのアオキ 瀬戸北山店,愛知県瀬戸市北山町５０,35.2259017,137.073581
マツモトキヨシ,クスリのアオキ 碧南緑町店,愛知県碧南市緑町５丁目５８,34.8930695,137.0041345
マツモトキヨシ,クスリのアオキ 豊岡店,愛知県蒲郡市豊岡町前野1番地３,34.82517190000001,137.2435384
マツモトキヨシ,クリエイトＳ・Ｄ 愛知西尾丁田店,愛知県西尾市丁田町中ノ切１,34.8604537,137.0665135
マツモトキヨシ,ゲンキー 西長根店,愛知県瀬戸市西長根町６９−３,35.213659,137.0711051
マツモトキヨシ,ゲンキー三谷北店,愛知県蒲郡市三谷北通４丁目119番4,34.8206568,137.24252
マツモトキヨシ,ゲンキー梅森店,愛知県日進市梅森町上松640番1,35.1336452,137.0171263
マツモトキヨシ,ゲンキー碧南店,愛知県碧南市塩浜町２丁目３４−１34番1,34.8691283,136.9855358
マツモトキヨシ,ゲンキー福清水店,愛知県碧南市道場山町５丁目碧南市道場山町五丁目18番1,34.8934104,136.9917514
マツモトキヨシ,サンドラッグ 新知店,愛知県知多市新知字佐布見58−１,34.9805389,136.8618116
マツモトキヨシ,サンドラッグ 日進駅前店,愛知県日進市栄２丁目１３０７,35.1196826,137.0487675
マツモトキヨシ,サンドラッグ 津島店,愛知県496-0801日本,35.18115,136.7291135
マツモトキヨシ,サンドラッグ 瀬戸川西店,愛知県瀬戸市川西町１丁目１２５,35.2173872,137.0655649
マツモトキヨシ,セイムス豊明薬局,愛知県豊明市沓掛町田楽ケ窪町田楽ヶ窪1-184,35.0701061,137.0017696
マツモトキヨシ,ツルハドラッグ 日進赤池店,愛知県日進市赤池３丁目2001番地,35.1174569,137.0185865
マツモトキヨシ,ツルハドラッグ 津島店,愛知県津島市愛宕町３丁目４０番地１,35.1697535,136.7354743
マツモトキヨシ,ツルハドラッグ 清須店,愛知県清須市清洲１１３０１１３０番地,35.2133036,136.8410273
マツモトキヨシ,ドラッグスギヤマ 宝店,愛知県蒲郡市宝町１５−３７７−２,34.8265922,137.2223638
マツモトキヨシ,ドラッグスギヤマ 形原店,愛知県蒲郡市形原町亀井３０−１,34.8032079,137.1832139
マツモトキヨシ,ドラッグスギヤマ 本地店,愛知県瀬戸市西原町２丁目９５,35.2087363,137.0644939
マツモトキヨシ,ドラッグスギヤマ 豊明店,愛知県豊明市西川町笹原２−２４,35.0569973,137.0101999
マツモトキヨシ,ドラッグスギヤマ 赤重店,愛知県瀬戸市幡野町295番1,35.2117125,137.0832784
マツモトキヨシ,ドラッグストア マツモトキヨシ エクボスタイルはしら店,愛知県豊橋市柱五番町１１６−１,34.7485801,137.3732561
マツモトキヨシ,ドラッグストア マツモトキヨシ 上石川店,愛知県名古屋市中村区上石川町３丁目２０,35.1625103,136.8518516
マツモトキヨシ,ドラッグストア マツモトキヨシ 刈谷高倉店,愛知県刈谷市高倉町１丁目３０５,35.0004204,136.9977396
マツモトキヨシ,ドラッグストア マツモトキヨシ 名古屋木場店,愛知県名古屋市港区木場町８−９２,35.0998265,136.9002484
マツモトキヨシ,ドラッグストア マツモトキヨシ 名東新宿店,愛知県名古屋市名東区新宿２丁目２９６−２,35.149405,137.0131203
マツモトキヨシ,ドラッグストア マツモトキヨシ 甚目寺店,愛知県あま市坂牧北浦２８−１,35.1843094,136.829257
マツモトキヨシ,ドラッグストア マツモトキヨシ 豊川店,愛知県豊川市光明町１丁目１９,34.8155425,137.372969
マツモトキヨシ,ドラッグストアコスモス 八百富店,愛知県蒲郡市八百富町３丁目6番地,34.8267465,137.2326279
マツモトキヨシ,ドラッグプラス,愛知県日進市米野木町油田148‐2,35.13268559999999,137.0658482
マツモトキヨシ,ドラッグユタカ 佐古木店,愛知県弥富市佐古木３丁目２９５−２,35.117123,136.7542724
マツモトキヨシ,ドン・キホーテUNY 碧南店,愛知県碧南市天王町２丁目１,34.8882637,136.9883884
マツモトキヨシ,ハロー薬局 蒲郡店,愛知県蒲郡市竹谷町錦田17ｰ10,34.8282143,137.2076648
マツモトキヨシ,マツモトキヨシ(ヘルスバンク) 久保一色店,愛知県小牧市久保一色字北屋敷２９３６−１,35.3199628,136.9404454
マツモトキヨシ,マツモトキヨシ(ヘルスバンク) 五郎丸店,愛知県犬山市五郎丸清水坪２８−２,35.3664032,136.9562771
マツモトキヨシ,マツモトキヨシ(ヘルスバンク) 今市場店,愛知県江南市今市場町高根１４４,35.3277156,136.88637
マツモトキヨシ,マツモトキヨシ(ヘルスバンク) 千秋小山店,愛知県一宮市千秋町小山新屋敷６４４−１,35.2886067,136.8514156
マツモトキヨシ,マツモトキヨシ(ヘルスバンク) 千秋店,愛知県一宮市千秋町佐野農中５８−２,35.2994271,136.856535
マツモトキヨシ,マツモトキヨシ(ヘルスバンク) 味美店,愛知県春日井市花長町２丁目13−１１,35.2329568,136.9393471
マツモトキヨシ,マツモトキヨシ(ヘルスバンク) 国府宮店,愛知県稲沢市国府宮神田町１５,35.2598244,136.8070783
マツモトキヨシ,マツモトキヨシ(ヘルスバンク) 大山店,愛知県一宮市大赤見西川垂１４−１,35.3207893,136.8272893
マツモトキヨシ,マツモトキヨシ(ヘルスバンク) 大阪屋ショップ江南店,愛知県江南市野白町野白４６,35.3445208,136.8710913
マツモトキヨシ,マツモトキヨシ(ヘルスバンク) 小松寺店,愛知県小牧市小松寺３丁目２０２,35.308765,136.94787
マツモトキヨシ,マツモトキヨシ(ヘルスバンク) 小牧パワーズ店,愛知県小牧市間々原新田字下新池９４４,35.3036062,136.9186052
マツモトキヨシ,マツモトキヨシ(ヘルスバンク) 尾西店,愛知県一宮市小信中島下郷西７−１,35.3078504,136.7433938
マツモトキヨシ,マツモトキヨシ(ヘルスバンク) 明地店,愛知県一宮市明地金屋敷７６−１,35.2829512,136.7447227
マツモトキヨシ,マツモトキヨシ(ヘルスバンク) 末広店,愛知県一宮市末広３丁目18−１,35.2956813,136.7859157
マツモトキヨシ,マツモトキヨシ(ヘルスバンク) 松竹店,愛知県江南市松竹町高山２−１,35.3413703,136.846897
マツモトキヨシ,マツモトキヨシ(ヘルスバンク) 森本店,愛知県一宮市森本２丁目２６−７,35.2906449,136.8158446
マツモトキヨシ,マツモトキヨシ(ヘルスバンク) 浅井店,愛知県一宮市浅井町大日比野清郷１０５,35.3410402,136.8195021
マツモトキヨシ,マツモトキヨシ(ヘルスバンク) 羽黒調剤センター,愛知県犬山市羽黒小安１２６−１,35.3496852,136.9535155
マツモトキヨシ,マツモトキヨシ(ヘルスバンク) 西春店,愛知県北名古屋市法成寺松の木４８,35.2550858,136.8601076
マツモトキヨシ,マツモトキヨシ(ヘルスバンク) 郷中店,愛知県小牧市郷中１丁目２４２,35.2779527,136.920306
マツモトキヨシ,マツモトキヨシ(ヘルスバンク) 鶴舞店,愛知県名古屋市中区千代田２丁目１６−２２,35.1564307,136.9146218
マツモトキヨシ,マツモトキヨシドミー知立店,愛知県知立市上重原町己ノ池５８−４,34.9994459,137.0231898
マツモトキヨシ,ユニスマイル薬局 みよし店,愛知県みよし市三好町小坂７５三好医療モール101,35.0896854,137.0756016
マツモトキヨシ,ユニスマイル薬局 藤田医科大前店,愛知県豊明市沓掛町田楽ケ窪町田楽ヶ窪1156,35.0701061,137.0017696
マツモトキヨシ,薬 マツモトキヨシ CiiNA CiiNA尾張旭店,愛知県尾張旭市南原山町石原１１６−４CiiNACiiNA尾張旭1F,35.2127302,137.0513775
マツモトキヨシ,薬 マツモトキヨシ SWING MALL 東岡崎店,愛知県岡崎市明大寺町耳取14−５,34.9515874,137.1676124
マツモトキヨシ,薬 マツモトキヨシ matsukiyoLAB 名古屋金山駅前店,愛知県名古屋市中区金山１丁目１４−９長谷川ビル,35.1436453,136.9022691
マツモトキヨシ,薬 マツモトキヨシ matsukiyoLAB 豊橋駅ビルカルミア店,愛知県豊橋市花田町西宿無番地,34.7632437,137.3819771
マツモトキヨシ,薬 マツモトキヨシ なるぱーく店,愛知県名古屋市緑区緑区浦里３丁目２３２,35.0844636,136.9467123
マツモトキヨシ,薬 マツモトキヨシ みなくる刈谷店,愛知県刈谷市若松町２丁目２SC2階25号室,34.98949,137.0078454
マツモトキヨシ,薬 マツモトキヨシ ららぽーと安城店,愛知県安城市大東町９−３０ららぽーと安城1FJP446-0065,34.9654472,137.0802649
マツモトキヨシ,薬 マツモトキヨシ アスティ高蔵寺店,愛知県春日井市高蔵寺町３丁目６５４−１,35.2597392,137.0419612
マツモトキヨシ,薬 マツモトキヨシ アスティ高蔵寺駅店,愛知県春日井市高蔵寺町４丁目無番地,35.2618587,137.044315
マツモトキヨシ,薬 マツモトキヨシ アスナル金山店,愛知県名古屋市中区金山１丁目１７−１,35.1437292,136.9016627
マツモトキヨシ,薬 マツモトキヨシ エスカ店,愛知県名古屋市中村区椿町６−９,35.1697063,136.8808801
マツモトキヨシ,薬 マツモトキヨシ オアシス２１店,愛知県名古屋市東区東桜１丁目１１−１,35.170413,136.9097921
マツモトキヨシ,薬 マツモトキヨシ クロスモール豊田陣中店,愛知県豊田市陣中町１丁目26−８クロスモール豊田陣中2F,35.093364,137.162646
マツモトキヨシ,薬 マツモトキヨシ グローバルゲート店,愛知県名古屋市中村区平池町４丁目６０−１２グローバルゲート１階,35.1626256,136.8839399
マツモトキヨシ,薬 マツモトキヨシ バロー豊橋店,愛知県豊橋市前田南町２丁目17−２1F,34.7540402,137.3931435
マツモトキヨシ,薬 マツモトキヨシ ピアゴ植田店,愛知県名古屋市天白区元植田１丁目３０２,35.1398069,136.9919741
マツモトキヨシ,薬 マツモトキヨシ ピアゴ江南店,愛知県江南市村久野町瀬頭１６３,35.3548141,136.873658
マツモトキヨシ,薬 マツモトキヨシ ポートウォークみなと店,愛知県名古屋市港区当知２丁目１５０１,35.1094276,136.8477795
マツモトキヨシ,薬 マツモトキヨシ マックスバリュ大府店,愛知県大府市東新町１丁目２３５マックスバリュ大府内,35.0366257,136.9576038
マツモトキヨシ,薬 マツモトキヨシ マックスバリュ豊田四郷店,愛知県豊田市四郷町森前南13番地11,35.1208939,137.1660531
マツモトキヨシ,薬 マツモトキヨシ ミュープラット神宮前店,愛知県名古屋市熱田区三本松町１８−４ミュープラット神宮前2F,35.1258994,136.9129736
マツモトキヨシ,薬 マツモトキヨシ ヨシヅヤ名古屋名西店,愛知県名古屋市西区名西２丁目３３−８,35.1900923,136.8784703
マツモトキヨシ,薬 マツモトキヨシ ヨシヅヤ西春店,愛知県北名古屋市鹿田若宮３９２６−１０,35.2449611,136.8717714
マツモトキヨシ,薬 マツモトキヨシ ラスパ太田川店,愛知県東海市大田町下浜田１０２−１,35.0220081,136.8929959
マツモトキヨシ,薬 マツモトキヨシ ルビットタウン刈谷店,愛知県刈谷市高倉町２丁目２2階,35.0019699,136.9984283
マツモトキヨシ,薬 マツモトキヨシ 中日ビル店,愛知県名古屋市中区栄４丁目１−１,35.1684786,136.9096596
マツモトキヨシ,薬 マツモトキヨシ 名古屋いりなか店,愛知県名古屋市昭和区隼人町７−７三洋堂書店1F,35.143062,136.954989
マツモトキヨシ,薬 マツモトキヨシ 名古屋大須3丁目店,愛知県名古屋市中区大須３丁目３２−２３Zeque大須,35.1620706,136.9038159
マツモトキヨシ,薬 マツモトキヨシ 名古屋大須万松寺店,愛知県名古屋市中区大須４丁目１１−５Z'sビル1F,35.1578169,136.9063242
マツモトキヨシ,薬 マツモトキヨシ 名古屋大須観音店,愛知県名古屋市中区大須２丁目２３−３６ラディアント大須1F,35.1597395,136.8987074
マツモトキヨシ,薬 マツモトキヨシ 名古屋植田駅前店,愛知県名古屋市天白区植田１丁目１３１０,35.1290063,136.9869228
マツモトキヨシ,薬 マツモトキヨシ 名古屋駅太閤通口店,愛知県名古屋市中村区名駅１丁目１−４,35.1691844,136.8831443
マツモトキヨシ,薬 マツモトキヨシ 名駅中央郵便局前店,愛知県名古屋市中村区名駅２丁目４５−１９,35.173592,136.8830591
マツモトキヨシ,薬 マツモトキヨシ 御器所店,愛知県名古屋市昭和区御器所通３丁目12−１御器所ステーションビル1F,35.1492625,136.9359421
マツモトキヨシ,薬 マツモトキヨシ 新名フード地下街店,愛知県名古屋市中村区名駅４丁目８−５４新名フード地下街内,35.1685399,136.8855695
マツモトキヨシ,薬 マツモトキヨシ 新名古屋テレビ塔前店,愛知県名古屋市中区錦３丁目１５−９エフジー久屋ビル,35.1716364,136.9076317
マツモトキヨシ,薬 マツモトキヨシ 栄スカイル店,愛知県名古屋市中区栄３丁目４−５栄スカイルB2F,35.1685037,136.9061692
マツモトキヨシ,薬 マツモトキヨシ 清水屋藤ヶ丘店,愛知県名古屋市守山区森孝東１丁目５０９清水屋藤ヶ丘店地下１F,35.191274,137.019926
マツモトキヨシ,薬 マツモトキヨシ 藤が丘駅前店,愛知県名古屋市名東区藤が丘１４３,35.1830054,137.0211256
マツモトキヨシ,薬 マツモトキヨシ 豊田Ｔ-ＦＡＣＥ店,愛知県豊田市若宮町１丁目57−１Ｔ－ＦＡＣＥ1F,35.0875382,137.155364
マツモトキヨシ,薬マツモトキヨシ JR千種駅店,愛知県名古屋市千種区内山３丁目２４−８,35.1706529,136.9307754
マツモトキヨシ,薬マツモトキヨシ matsukiyoLAB アスティ一宮店,愛知県一宮市栄３丁目１−１,35.3029692,136.7972765
マツモトキヨシ,薬マツモトキヨシ ドミー知立店,愛知県知立市上重原町巳ノ池53−１ドミー知立1F,34.9993837,137.0231135
マツモトキヨシ,薬マツモトキヨシ ヒルズウォーク徳重店,愛知県名古屋市緑区元徳重１丁目５０５,35.0947012,136.9991877
コスモス,菅田すげた店,愛知県名古屋市天白区菅田１丁目２５０２,35.1133743,136.9632868
コスモス,花塚はなづか店,愛知県名古屋市中川区花塚町２丁目８８,35.1296846,136.8834521
コスモス,木場きば店,愛知県名古屋市港区木場町６−３７,35.1018935,136.9009427
コスモス,滝ノ水たきのみず店,愛知県名古屋市緑区滝ノ水５丁目３１２,35.089313,136.9752711
コスモス,桶狭間おけはざま店,愛知県名古屋市緑区桶狭間神明１５１７,35.0531066,136.9689592
コスモス,植田北うえだきた店,愛知県名古屋市天白区焼山２丁目２１０１,35.1407055,136.9935171
コスモス,中丸ちゅうまる店,愛知県名古屋市北区中丸町２丁目２２,35.2053695,136.9024365
コスモス,大高南おおだかみなみ店,愛知県名古屋市緑区森の里１丁目９６−３,35.0613697,136.9441573
コスモス,東茶屋ひがしちゃや店,愛知県名古屋市港区東茶屋３丁目１２７−１,35.1025628,136.8276299
コスモス,道徳橋どうとくばし店,愛知県名古屋市南区豊田５丁目１４−１,35.0981405,136.912995
コスモス,志段味しだみ店,愛知県名古屋市守山区桜坂１丁目１０３,35.2387146,137.013645
コスモス,瀬古せこ店,愛知県名古屋市守山区瀬古１丁目８１３−１,35.2109369,136.9375916
コスモス,一宮奥町いちのみやおくちょう店,愛知県一宮市奥町下口西６１,35.3265661,136.7502673
コスモス,古知野こちの店,愛知県江南市古知野町桃源１１７,35.34040640000001,136.8679095
コスモス,村久野むらくの店,愛知県江南市村久野町鳥附４４−１,35.3518346,136.8678849
コスモス,瀬戸北山店,愛知県瀬戸市北山町３４,35.2254335,137.0714503
コスモス,愛宕あたご店,愛知県津島市愛宕町７丁目２９,35.1658089,136.7357798
コスモス,津島本町つしまほんまち店,愛知県津島市本町５丁目１−１,35.1751158,136.7278222
コスモス,大久伝南おおくてみなみ店,愛知県豊明市新田町下一ノ割７１−８,35.0506969,137.0209873
コスモス,常滑錦とこなめにしき店,愛知県常滑市錦町４丁目６６−１,34.8964681,136.8390713
コスモス,八百富やおとみ店,愛知県蒲郡市八百富町３丁目６,34.8267465,137.2326279
コスモス,百々どうど店,愛知県岡崎市百々町七社１２,34.9867756,137.1709504
コスモス,岡崎駅南おかざきえきみなみ店,愛知県岡崎市若松西２丁目２－４,34.9141748,137.159365
コスモス,石名号いしなごう店,愛知県新城市石名号３０−１,34.900952,137.5038405
コスモス,千歳通店,愛知県豊川市山道町２丁目２６,34.8167316,137.3795548
コスモス,本野ケ原ほんのがはら店,愛知県豊川市本野ケ原１丁目１０,34.8367513,137.4002081
コスモス,豊川駅東とよかわえきひがし店,愛知県豊川市豊川町辺通３０−３,34.8218949,137.3998629
コスモス,こもぐち店,愛知県豊橋市菰口町３丁目３２,34.7697968,137.375028
コスモス,牟呂むろ店,愛知県豊橋市牟呂町大塚８９−１,34.7474193,137.3654775
コスモス,中岩田なかいわた店,愛知県豊橋市中岩田５丁目１−４,34.7539555,137.4280669
コスモス,小向こむかい店,愛知県豊橋市小向町西小向３２−１,34.7657445,137.3577303
コスモス,花中町はななかちょう店,愛知県豊橋市花中町２１,34.7541491,137.383935
コスモス,大治おおはる店,愛知県海部郡大治町堀之内半之返８７６,35.1776223,136.8232953
コスモス,蟹江今かにえいま店,愛知県海部郡蟹江町今二之坪２８−１,35.1406767,136.791722
コスモス,東郷とうごう店,愛知県愛知郡東郷町春木白土８９−２,35.1038877,137.0276725
コスモス,緒川おがわ店,愛知県知多郡東浦町緒川旭１２−２,34.9774265,136.9725396
